,time_usec,xacc,frequency,yacc,zacc,xgyro,ygyro,zgyro,temperature
0,54042727,12,0.0,9,-997,-18,-9,0,4432
1,54142780,12,0.0,9,-996,-22,-8,0,4480
2,54242784,11,0.0,8,-996,-23,-7,-1,4480
3,54342787,10,0.0,8,-996,-24,-8,0,4432
4,54442741,12,0.0,8,-996,-19,-7,0,4480
5,54542709,11,0.0,7,-997,-17,-6,-1,4480
6,54642736,10,0.0,8,-996,-20,-6,-1,4432
7,54742748,11,0.0,8,-997,-20,-3,-3,4432
8,54842789,11,0.0,8,-997,-22,-6,-1,4480
9,54942797,12,0.0,9,-996,-18,-8,-2,4480
10,55042780,11,0.0,8,-997,-20,-8,-2,4432
11,55142780,11,0.0,8,-997,-22,-6,-3,4432
12,55242783,10,0.0,9,-996,-22,-8,-3,4432
13,55342791,9,0.0,9,-997,-19,-4,-1,4480
14,55442794,9,0.0,9,-996,-18,-8,0,4432
15,55542762,10,0.0,9,-996,-22,-8,-2,4432
16,55642800,11,0.0,9,-996,-20,-6,-3,4480
17,55742786,11,0.0,7,-997,-22,-9,-2,4432
18,55842784,11,0.0,8,-996,-24,-10,-2,4432
19,55942785,11,0.0,8,-997,-23,-8,-3,4432
20,56042745,10,0.0,8,-996,-22,-12,-1,4432
21,56142741,10,0.0,10,-997,-23,-8,-2,4432
22,56242725,10,0.0,9,-996,-18,-6,-3,4432
23,56342785,10,0.0,9,-997,-19,-8,-1,4432
24,56442760,11,0.0,8,-998,-20,-7,-2,4432
25,56542797,12,0.0,9,-997,-20,-8,-2,4432
26,56642744,12,0.0,7,-997,-25,-8,0,4432
27,56742772,12,0.0,7,-997,-20,-7,-2,4432
28,56842758,12,0.0,8,-997,-24,-8,-2,4480
29,56942737,11,0.0,8,-996,-22,-8,-3,4480
30,57042742,12,0.0,9,-996,-23,-8,0,4480
31,57142754,12,0.0,9,-997,-19,-8,-2,4432
32,57242741,11,0.0,8,-997,-20,-10,-2,4480
33,57342791,12,0.0,9,-997,-24,-6,-3,4432
34,57442790,11,0.0,8,-998,-19,-7,-1,4480
35,57542760,7,0.0,9,-996,-37,-20,0,4480
36,57642728,-8,0.0,41,-1003,-36,-8,-2,4432
37,57742771,8,0.0,2,-997,-28,-10,-4,4432
38,57842774,9,0.0,13,-998,-23,-9,-2,4432
39,57942755,10,0.0,12,-996,-25,-10,-2,4432
40,58042729,10,0.0,14,-997,-22,-7,-2,4480
41,58142736,10,0.0,12,-996,-22,-8,-1,4480
42,58242798,9,0.0,13,-997,-19,-7,0,4432
43,58342795,9,0.0,12,-996,-24,-9,-4,4432
44,58442791,12,0.0,9,-1013,-30,-6,0,4480
45,58542768,10,0.0,12,-1000,-23,-6,-3,4432
46,58642789,9,0.0,12,-995,-19,-8,-4,4432
47,58742788,10,0.0,11,-996,-23,-10,-1,4480
48,58842789,9,0.0,11,-997,-20,-7,-4,4432
49,58942783,10,0.0,11,-997,-19,-10,0,4480
50,59042740,10,0.0,11,-996,-19,-6,-2,4432
51,59142768,10,0.0,11,-997,-19,-9,0,4480
52,59242795,10,0.0,11,-997,-25,-9,-1,4432
53,59342735,10,0.0,11,-997,-22,-6,-3,4432
54,59442794,9,0.0,12,-997,-22,-6,-1,4480
55,59542730,9,0.0,11,-996,-19,-8,-1,4432
56,59642740,9,0.0,10,-994,-22,-8,-3,4432
57,59742756,10,0.0,11,-996,-23,-10,-3,4480
58,59842794,9,0.0,10,-997,-24,-7,-2,4432
59,59942763,9,0.0,11,-996,-19,-7,0,4432
60,60042767,9,0.0,11,-996,-20,-6,-2,4432
61,60142772,9,0.0,11,-996,-23,-7,-1,4480
62,60242773,10,0.0,11,-996,-19,-8,-1,4480
63,60342774,10,0.0,11,-994,-20,-10,0,4432
64,60442790,10,0.0,11,-997,-22,-6,-1,4432
65,60542772,9,0.0,11,-996,-19,-9,0,4432
66,60642798,9,0.0,11,-997,-22,-7,-2,4432
67,60742748,9,0.0,11,-997,-19,-6,-3,4480
68,60842783,10,0.0,11,-996,-22,-7,-2,4480
69,60942779,9,0.0,11,-997,-23,-7,0,4432
70,61042807,9,0.0,11,-996,-22,-7,-3,4432
71,61142763,10,0.0,11,-996,-18,-8,-1,4432
72,61242778,9,0.0,11,-997,-22,-6,-2,4432
73,61342758,9,0.0,11,-996,-19,-8,0,4432
74,61442775,9,0.0,11,-996,-19,-8,0,4432
75,61542766,9,0.0,11,-996,-23,-9,-2,4432
76,61642784,9,0.0,12,-996,-22,-7,-3,4432
77,61742778,10,0.0,11,-996,-20,-9,0,4432
78,61842777,9,0.0,11,-996,-23,-9,-2,4432
79,61942789,9,0.0,11,-996,-22,-8,-2,4480
80,62042756,9,0.0,11,-996,-23,-8,0,4480
81,62142730,9,0.0,11,-997,-22,-8,-4,4432
82,62242776,10,0.0,11,-997,-20,-11,0,4432
83,62342737,9,0.0,11,-997,-18,-9,-1,4432
84,62442778,9,0.0,11,-996,-24,-8,-1,4432
85,62542756,9,0.0,11,-997,-22,-9,-1,4432
86,62642732,9,0.0,11,-997,-20,-9,-2,4432
87,62742784,9,0.0,11,-997,-24,-11,0,4432
88,62842806,9,0.0,11,-997,-20,-8,-2,4432
89,62942775,9,0.0,10,-994,-22,-8,0,4432
90,63042729,9,0.0,11,-999,-24,-7,-1,4432
91,63142729,9,0.0,10,-997,-23,-9,-2,4480
92,63242768,9,0.0,11,-997,-20,-10,0,4432
93,63342783,9,0.0,12,-997,-20,-6,0,4432
94,63442784,9,0.0,11,-997,-20,-6,0,4432
95,63542785,9,0.0,11,-997,-22,-7,-2,4432
96,63642728,9,0.0,11,-996,-22,-8,-1,4480
97,63742755,9,0.0,11,-997,-22,-8,0,4480
98,63842801,9,0.0,11,-997,-24,-12,-2,4432
99,63942786,9,0.0,12,-996,-23,-6,0,4480
100,64042786,9,0.0,11,-996,-19,-6,0,4432
101,64142733,9,0.0,11,-997,-23,-7,-2,4432
102,64242732,9,0.0,11,-997,-22,-9,-1,4432
103,64342773,9,0.0,11,-996,-22,-7,-3,4432
104,64442765,9,0.0,11,-997,-20,-11,-1,4432
105,64542783,9,0.0,11,-997,-18,-6,0,4480
106,64642763,9,0.0,11,-996,-22,-4,-2,4432
107,64742733,9,0.0,11,-996,-19,-10,-1,4480
108,64842786,9,0.0,11,-996,-20,-8,-2,4480
109,64942790,9,0.0,11,-997,-22,-8,0,4480
110,65042782,9,0.0,11,-996,-20,-8,-1,4480
111,65142784,9,0.0,11,-996,-20,-6,0,4432
112,65242779,9,0.0,11,-996,-23,-8,0,4432
113,65342776,9,0.0,11,-996,-22,-8,-2,4432
114,65442772,9,0.0,11,-997,-23,-7,0,4480
115,65542799,9,0.0,11,-997,-23,-3,0,4480
116,65642739,10,0.0,11,-997,-23,-10,-1,4432
117,65742786,9,0.0,11,-997,-22,-8,-2,4432
118,65842781,9,0.0,11,-997,-23,-8,-1,4432
119,65942782,9,0.0,11,-996,-18,-8,-1,4480
120,66042792,10,0.0,11,-996,-24,-9,-2,4432
121,66142786,10,0.0,11,-997,-20,-3,0,4432
122,66242783,9,0.0,11,-997,-19,-7,0,4432
123,66342783,9,0.0,11,-997,-20,-9,-3,4432
124,66442793,9,0.0,11,-996,-19,-6,-3,4480
125,66542769,9,0.0,11,-997,-23,-6,0,4432
126,66642734,12,0.0,11,-997,-26,-15,2,4432
127,66742728,10,0.0,11,-996,-22,-6,-1,4480
128,66842733,10,0.0,11,-997,-25,-8,-1,4432
129,66942780,10,0.0,12,-997,-23,-8,-1,4432
130,67042778,10,0.0,12,-996,-25,-10,-2,4480
131,67142766,9,0.0,11,-997,-23,-4,-1,4432
132,67242728,10,0.0,12,-996,-24,-4,-3,4432
133,67342783,9,0.0,11,-995,-20,-9,-2,4432
134,67442791,9,0.0,10,-997,-22,-8,-1,4480
135,67542800,9,0.0,11,-997,-20,-9,0,4480
136,67642769,9,0.0,11,-997,-22,-10,-1,4432
137,67742747,10,0.0,11,-997,-20,-7,-2,4432
138,67842779,9,0.0,11,-997,-20,-7,-2,4432
139,67942751,9,0.0,11,-997,-20,-8,-4,4432
140,68042747,9,0.0,11,-997,-18,-6,0,4432
141,68142793,9,0.0,12,-997,-18,-7,-5,4432
142,68242746,9,0.0,13,-997,-19,-6,-1,4432
143,68342774,10,0.0,13,-996,-19,-7,-2,4432
144,68442781,11,0.0,14,-997,-19,-7,-2,4480
145,68542771,10,0.0,13,-997,-23,-10,-1,4432
146,68642748,9,0.0,13,-997,-23,-10,0,4432
147,68742784,10,0.0,13,-996,-18,-6,-3,4432
148,68842778,10,0.0,12,-997,-20,-9,-2,4480
149,68942772,10,0.0,12,-997,-23,-8,-1,4432
150,69042785,9,0.0,11,-997,-23,-8,-2,4432
151,69142756,6,0.0,15,-995,-19,-4,-2,4432
152,69242749,8,0.0,13,-997,-23,-7,-2,4432
153,69342789,9,0.0,12,-997,-23,-8,-1,4480
154,69442778,9,0.0,13,-996,-23,-9,-2,4480
155,69542716,9,0.0,12,-997,-18,-9,-2,4480
156,69642733,10,0.0,12,-997,-20,-8,-3,4432
157,69742750,9,0.0,12,-996,-20,-7,-2,4480
158,69842790,9,0.0,11,-997,-22,-9,-3,4432
159,69942762,9,0.0,11,-996,-22,-8,-1,4432
160,70042795,9,0.0,11,-997,-22,-7,0,4480
161,70142792,10,0.0,11,-996,-20,-7,-1,4432
162,70242767,10,0.0,11,-997,-20,-8,-2,4432
163,70342785,9,0.0,11,-998,-23,-9,-1,4480
164,70442744,9,0.0,11,-998,-20,-7,-2,4432
165,70542783,10,0.0,12,-996,-22,-6,-1,4432
166,70642729,9,0.0,11,-997,-23,-4,0,4432
167,70742775,9,0.0,11,-997,-22,-7,-3,4432
168,70842776,10,0.0,11,-997,-23,-6,-1,4432
169,70942785,9,0.0,12,-997,-23,-7,-2,4432
170,71042758,9,0.0,11,-997,-20,-10,-1,4432
171,71142788,10,0.0,11,-997,-20,-6,0,4480
172,71242738,9,0.0,11,-996,-20,-8,-3,4432
173,71342752,9,0.0,11,-996,-23,-6,0,4432
174,71442787,10,0.0,11,-997,-24,-8,-2,4480
175,71542784,9,0.0,11,-996,-23,-8,0,4432
176,71642756,9,0.0,11,-996,-22,-10,-3,4480
177,71742741,10,0.0,11,-996,-20,-12,-2,4432
178,71842811,9,0.0,11,-996,-22,-9,0,4432
179,71942752,9,0.0,11,-996,-23,-10,-2,4432
180,72042773,9,0.0,11,-995,-22,-7,-1,4432
181,72142779,9,0.0,11,-996,-24,-8,-1,4432
182,72242759,9,0.0,11,-995,-20,-7,-3,4432
183,72342741,9,0.0,11,-996,-19,-9,-2,4432
184,72442779,9,0.0,11,-996,-22,-12,-1,4432
185,72542785,9,0.0,11,-996,-23,-8,-2,4432
186,72642756,9,0.0,11,-997,-22,-8,-1,4432
187,72742784,9,0.0,11,-997,-20,-8,-3,4480
188,72842776,9,0.0,11,-997,-25,-8,-3,4432
189,72942788,12,0.0,10,-995,-26,-12,-2,4432
190,73042768,14,0.0,7,-996,-28,-13,-3,4480
191,73142736,10,0.0,12,-997,-24,-1,-2,4432
192,73242781,4,0.0,9,-1005,-19,2,-2,4432
193,73342745,7,0.0,8,-996,-30,-14,-1,4480
194,73442741,7,0.0,13,-994,-16,-8,-2,4432
195,73542762,6,0.0,15,-994,-13,-6,-3,4432
196,73642795,11,0.0,12,-997,-15,-4,-2,4432
197,73742730,6,0.0,15,-996,-20,-9,-1,4480
198,73842784,-6,0.0,13,-998,-17,12,-1,4432
199,73942786,10,0.0,10,-998,-35,-14,0,4480
200,74542781,12,25000.0,3,-998,-30,0,-2,4480
201,74642738,16,25000.0,7,-1000,-27,-18,-3,4480
202,74742774,11,25000.0,16,-994,-3,1,-5,4480
203,74842773,7,25000.0,11,-997,-9,7,-3,4432
204,74942732,2,25000.0,16,-1001,-49,-13,4,4432
205,75042732,5,25000.0,12,-996,-11,-10,-3,4432
206,75142799,10,25000.0,8,-995,-35,-9,-3,4480
207,75242787,12,25000.0,17,-993,-16,-2,-2,4432
208,75342783,9,25000.0,0,-1004,-28,-25,-1,4432
209,75442795,18,25000.0,8,-993,-20,-9,-2,4480
210,75542777,10,25000.0,18,-996,-17,-8,-3,4432
211,75642776,16,25000.0,8,-995,-46,-7,1,4432
212,75742779,2,25000.0,3,-1004,-27,-2,-2,4432
213,75842789,0,25000.0,19,-996,-23,-17,-2,4432
214,75942742,5,25000.0,12,-996,-20,-15,0,4480
215,76042779,14,25000.0,9,-998,-30,-8,-2,4480
216,76142784,10,25000.0,19,-997,-15,-1,0,4432
217,76242784,7,25000.0,19,-997,0,-4,-6,4432
218,76342784,10,25000.0,13,-996,-22,-3,-1,4480
219,76442802,8,25000.0,9,-997,-20,-8,0,4432
220,76542786,14,25000.0,14,-1001,-20,-9,-1,4432
221,76642726,15,25000.0,10,-998,-26,-7,-2,4432
222,76742728,14,25000.0,10,-997,-19,-4,-1,4480
223,76842774,4,25000.0,4,-1001,-23,-4,-1,4480
224,76942771,0,25000.0,8,-995,-26,-8,2,4432
225,77042752,5,25000.0,12,-996,-25,-8,-1,4432
226,77142775,9,25000.0,11,-1001,-26,-16,0,4480
227,77242742,9,25000.0,13,-996,-22,-11,-2,4432
228,77342775,11,25000.0,14,-997,-24,-13,-3,4432
229,77442772,14,25000.0,16,-994,-25,-3,-1,4432
230,77542797,11,25000.0,12,-997,-7,-8,-5,4432
231,77642789,24,25000.0,15,-992,-19,-12,-1,4480
232,77742783,16,25000.0,12,-996,-24,-4,0,4432
233,77842774,7,25000.0,7,-997,-19,-7,-2,4432
234,77942739,6,25000.0,8,-996,-23,-10,0,4480
235,78042736,7,25000.0,12,-996,-15,-11,-3,4432
236,78142796,8,25000.0,9,-995,-13,-14,-3,4480
237,78242737,11,25000.0,9,-995,-22,-6,0,4432
238,78342780,13,25000.0,18,-994,-23,-9,-1,4480
239,78442739,14,25000.0,12,-995,-32,-6,-2,4432
240,78542787,11,25000.0,10,-996,-24,-6,-1,4432
241,78642784,12,25000.0,11,-997,-19,-10,-2,4480
242,78742731,11,25000.0,10,-997,-19,-7,-2,4432
243,78842767,11,25000.0,10,-996,-22,-9,-2,4480
244,78942785,10,25000.0,10,-996,-22,-10,-1,4480
245,79042794,10,25000.0,10,-996,-24,-9,-1,4432
246,79142741,10,25000.0,10,-996,-20,-8,0,4432
247,79242760,11,25000.0,10,-996,-22,-10,0,4432
248,79342781,11,25000.0,10,-995,-20,-8,-2,4432
249,79442770,10,25000.0,10,-996,-22,-8,-3,4432
250,81542791,10,25100.0,9,-997,-25,-8,-1,4432
251,81642735,10,25100.0,9,-997,-23,-8,-2,4480
252,81742775,10,25100.0,9,-997,-22,-4,-3,4480
253,81842781,10,25100.0,9,-996,-23,-10,-2,4432
254,81942787,11,25100.0,10,-998,-22,-8,-3,4480
255,82042785,12,25100.0,10,-998,-19,-7,-1,4480
256,82142775,12,25100.0,11,-998,-23,-11,-2,4480
257,82242740,12,25100.0,11,-998,-26,-9,0,4480
258,82342728,11,25100.0,12,-997,-24,-9,-3,4432
259,82442735,9,25100.0,11,-998,-18,-8,0,4480
260,82542783,8,25100.0,9,-998,-22,-7,-1,4432
261,82642768,9,25100.0,10,-999,-22,-6,-2,4432
262,82742810,10,25100.0,9,-998,-23,-8,-2,4432
263,82842802,11,25100.0,10,-999,-23,-4,-1,4432
264,82942775,11,25100.0,10,-997,-20,-8,-3,4432
265,83042776,11,25100.0,11,-998,-22,-10,-1,4432
266,83142785,11,25100.0,11,-998,-22,-9,-2,4432
267,83242794,11,25100.0,11,-999,-19,-6,-1,4480
268,83342757,10,25100.0,10,-998,-19,-9,-1,4432
269,83442780,11,25100.0,10,-998,-18,-9,-2,4432
270,83542788,11,25100.0,10,-997,-20,-4,0,4432
271,83642771,10,25100.0,8,-998,-22,-9,-1,4480
272,83742728,10,25100.0,9,-998,-19,-8,0,4432
273,83842793,10,25100.0,10,-997,-22,-8,-2,4432
274,83942788,12,25100.0,10,-997,-23,-2,-1,4432
275,84042765,13,25100.0,10,-997,-24,-10,-2,4432
276,84142756,12,25100.0,9,-997,-25,-10,-5,4480
277,84242771,12,25100.0,9,-997,-22,-4,-1,4480
278,84342782,10,25100.0,10,-997,-24,-7,-1,4480
279,84442784,10,25100.0,9,-997,-23,-7,0,4432
280,84542789,10,25100.0,10,-997,-19,-10,-1,4432
281,84642786,11,25100.0,10,-997,-16,-8,-3,4432
282,84742744,10,25100.0,11,-997,-19,-7,-2,4432
283,84842802,11,25100.0,11,-997,-22,-9,0,4432
284,84942780,9,25100.0,8,-996,-24,-6,-3,4432
285,85042790,8,25100.0,8,-997,-20,-8,-1,4432
286,85142740,10,25100.0,10,-997,-18,-7,-3,4432
287,85242741,11,25100.0,11,-997,-23,-10,-2,4432
288,85342754,11,25100.0,10,-997,-23,-8,-2,4480
289,85442740,12,25100.0,9,-996,-24,-8,-2,4432
290,85542727,11,25100.0,8,-997,-24,-7,-2,4432
291,85642799,11,25100.0,10,-997,-23,-8,0,4432
292,85742760,9,25100.0,9,-997,-20,-6,-3,4432
293,85842746,10,25100.0,9,-996,-18,-6,-2,4480
294,85942780,10,25100.0,9,-996,-20,-7,-2,4480
295,86042778,11,25100.0,10,-996,-23,-7,0,4432
296,86142789,11,25100.0,10,-996,-22,-10,-1,4480
297,86242791,11,25100.0,11,-997,-18,-8,-2,4432
298,86342734,11,25100.0,11,-996,-19,-8,-3,4480
299,86442743,10,25100.0,11,-996,-20,-7,-1,4480
300,88542781,14,25200.0,10,-996,-23,-7,-2,4432
301,88642806,12,25200.0,10,-997,-26,-9,0,4432
302,88742742,12,25200.0,10,-997,-26,-10,-2,4480
303,88842780,10,25200.0,8,-996,-25,-7,-1,4480
304,88942789,10,25200.0,8,-996,-24,-8,-2,4432
305,89042804,10,25200.0,9,-997,-18,-7,-2,4432
306,89142801,11,25200.0,10,-996,-27,-12,-3,4480
307,89242767,10,25200.0,9,-997,-19,-7,-2,4480
308,89342764,10,25200.0,9,-996,-20,-8,-2,4432
309,89442784,10,25200.0,9,-997,-22,-7,-2,4480
310,89542787,11,25200.0,11,-997,-23,-8,-2,4480
311,89642795,11,25200.0,11,-997,-19,-10,-1,4480
312,89742754,11,25200.0,10,-996,-19,-9,-2,4432
313,89842800,12,25200.0,11,-997,-22,-6,-2,4432
314,89942760,12,25200.0,11,-997,-23,-6,0,4480
315,90042789,10,25200.0,9,-998,-25,-9,0,4432
316,90142804,9,25200.0,8,-996,-24,-6,-2,4432
317,90242759,9,25200.0,10,-996,-26,-10,-1,4480
318,90342777,11,25200.0,11,-996,-23,-8,-2,4432
319,90442735,12,25200.0,11,-997,-20,-7,-2,4432
320,90542774,11,25200.0,9,-996,-23,-9,0,4432
321,90642732,11,25200.0,9,-997,-22,-6,-2,4480
322,90742782,10,25200.0,9,-996,-23,-10,0,4432
323,90842740,10,25200.0,10,-997,-22,-3,-2,4480
324,90942777,11,25200.0,10,-997,-22,-11,0,4432
325,91042738,12,25200.0,11,-996,-25,-10,-1,4432
326,91142795,12,25200.0,10,-996,-24,-7,0,4432
327,91242743,11,25200.0,10,-997,-22,-9,-1,4480
328,91342736,11,25200.0,10,-996,-23,-11,-1,4432
329,91442786,11,25200.0,9,-997,-22,-8,-2,4480
330,91542780,11,25200.0,8,-997,-22,-7,-2,4432
331,91642785,10,25200.0,9,-996,-19,-6,-2,4432
332,91742769,10,25200.0,10,-997,-22,-7,-2,4432
333,91842770,10,25200.0,9,-996,-20,-6,-2,4432
334,91942745,10,25200.0,10,-997,-20,-7,-2,4480
335,92042780,9,25200.0,9,-997,-23,-12,0,4432
336,92142782,10,25200.0,10,-996,-20,-6,0,4432
337,92242773,10,25200.0,11,-997,-19,-7,-2,4432
338,92342788,10,25200.0,10,-996,-23,-7,-1,4432
339,92442727,12,25200.0,10,-996,-22,-7,-2,4432
340,92542736,12,25200.0,11,-997,-20,-3,-1,4480
341,92642778,11,25200.0,10,-997,-23,-9,-2,4432
342,92742761,11,25200.0,10,-997,-24,-7,0,4432
343,92842731,11,25200.0,10,-997,-23,-8,-2,4480
344,92942724,12,25200.0,10,-997,-23,-8,-1,4480
345,93042796,12,25200.0,11,-997,-19,-4,-2,4480
346,93142753,12,25200.0,10,-997,-23,-11,-2,4432
347,93242750,12,25200.0,10,-997,-23,-9,-2,4432
348,93342776,11,25200.0,9,-998,-23,-7,0,4432
349,93442793,11,25200.0,10,-998,-22,-7,-2,4432
350,95542773,11,25300.0,10,-996,-23,-8,-2,4480
351,95642801,11,25300.0,10,-996,-20,-10,-2,4432
352,95742732,11,25300.0,10,-996,-20,-9,-1,4432
353,95842753,10,25300.0,10,-997,-22,-10,-2,4432
354,95942758,11,25300.0,10,-996,-22,-7,-3,4480
355,96042787,10,25300.0,10,-996,-22,-6,-2,4432
356,96142786,11,25300.0,10,-996,-22,-9,-1,4480
357,96242766,11,25300.0,10,-996,-23,-8,-1,4480
358,96342778,11,25300.0,9,-996,-20,-4,-1,4480
359,96442790,11,25300.0,9,-996,-22,-8,-4,4432
360,96542726,10,25300.0,10,-995,-23,-8,0,4432
361,96642782,11,25300.0,10,-997,-22,-7,-1,4432
362,96742743,11,25300.0,10,-996,-24,-9,-2,4480
363,96842745,11,25300.0,10,-996,-24,-11,-2,4432
364,96942761,11,25300.0,10,-996,-20,-8,-3,4432
365,97042743,11,25300.0,10,-996,-23,-8,0,4480
366,97142735,11,25300.0,10,-996,-22,-6,-2,4480
367,97242779,11,25300.0,10,-996,-23,-7,-1,4480
368,97342737,11,25300.0,10,-996,-24,-8,-2,4480
369,97442763,11,25300.0,10,-996,-20,-8,-2,4480
370,97542779,11,25300.0,10,-996,-24,-8,0,4480
371,97642752,11,25300.0,10,-996,-24,-8,0,4480
372,97742744,11,25300.0,10,-996,-20,-8,-2,4480
373,97842790,11,25300.0,10,-996,-22,-7,-3,4480
374,97942751,11,25300.0,10,-996,-23,-7,-2,4432
375,98042774,11,25300.0,10,-997,-22,-8,0,4480
376,98142737,10,25300.0,10,-997,-22,-2,-2,4432
377,98242781,10,25300.0,10,-997,-20,-6,-2,4432
378,98342736,11,25300.0,10,-997,-24,-6,-3,4432
379,98442779,10,25300.0,9,-998,-22,-7,-2,4432
380,98542807,10,25300.0,9,-997,-23,-11,-1,4480
381,98642789,11,25300.0,10,-998,-24,-10,-1,4432
382,98742761,11,25300.0,10,-998,-20,-6,0,4432
383,98842797,11,25300.0,10,-998,-25,-7,-3,4432
384,98942780,11,25300.0,10,-998,-22,-9,-3,4480
385,99042766,11,25300.0,10,-998,-23,-7,-3,4480
386,99142786,11,25300.0,10,-997,-23,-7,-1,4480
387,99242743,11,25300.0,10,-997,-23,-7,0,4480
388,99342731,11,25300.0,10,-997,-20,-7,-1,4480
389,99442732,11,25300.0,10,-997,-24,-7,-2,4432
390,99542799,11,25300.0,10,-998,-23,-9,-1,4480
391,99642796,12,25300.0,10,-998,-20,-9,0,4432
392,99742799,13,25300.0,11,-997,-24,-10,-2,4432
393,99842793,13,25300.0,10,-997,-23,-7,-1,4432
394,99942730,12,25300.0,10,-997,-23,-8,0,4480
395,100042758,11,25300.0,9,-997,-23,-6,-2,4480
396,100142765,10,25300.0,9,-997,-20,-3,-2,4432
397,100242741,9,25300.0,10,-997,-23,-8,-2,4432
398,100342741,10,25300.0,10,-997,-20,-10,-2,4432
399,100442773,10,25300.0,10,-996,-22,-8,0,4480
400,102642785,11,25400.0,10,-997,-23,-9,-3,4432
401,102742807,10,25400.0,10,-996,-23,-8,-1,4432
402,102842758,11,25400.0,10,-997,-18,-6,-3,4432
403,102942786,10,25400.0,10,-997,-24,-10,-5,4480
404,103042774,11,25400.0,10,-996,-22,-8,-2,4432
405,103142738,11,25400.0,10,-997,-23,-7,-1,4432
406,103242791,10,25400.0,10,-996,-24,-6,-2,4480
407,103342760,11,25400.0,10,-996,-23,-7,-1,4432
408,103442785,11,25400.0,10,-997,-20,-8,-1,4432
409,103542777,10,25400.0,10,-997,-22,-7,-1,4480
410,103642775,12,25400.0,10,-997,-22,-7,-2,4480
411,103742786,11,25400.0,10,-998,-23,-8,0,4480
412,103842795,11,25400.0,10,-997,-22,-7,0,4432
413,103942791,11,25400.0,10,-997,-24,-9,-2,4480
414,104042737,11,25400.0,10,-997,-20,-8,-2,4432
415,104142737,11,25400.0,10,-997,-23,-10,-2,4432
416,104242799,11,25400.0,10,-998,-22,-12,0,4432
417,104342777,11,25400.0,10,-997,-23,-9,-1,4432
418,104442785,11,25400.0,10,-997,-24,-10,-3,4480
419,104542791,11,25400.0,10,-997,-20,-6,-3,4480
420,104642792,11,25400.0,10,-997,-19,-8,-2,4480
421,104742784,11,25400.0,10,-997,-24,-10,0,4432
422,104842762,10,25400.0,10,-998,-23,-7,-2,4432
423,104942779,11,25400.0,10,-996,-23,-10,-2,4432
424,105042806,11,25400.0,10,-997,-25,-11,-1,4432
425,105142747,11,25400.0,10,-997,-19,-9,-2,4432
426,105242733,11,25400.0,10,-997,-23,-8,-3,4480
427,105342773,11,25400.0,10,-996,-22,-11,0,4480
428,105442786,11,25400.0,10,-997,-23,-7,0,4480
429,105542747,11,25400.0,10,-997,-25,-7,0,4432
430,105642787,11,25400.0,10,-996,-24,-8,-1,4432
431,105742797,11,25400.0,10,-996,-23,-9,-1,4480
432,105842803,11,25400.0,10,-996,-24,-8,-1,4432
433,105942743,11,25400.0,10,-996,-24,-8,-2,4480
434,106042774,11,25400.0,10,-996,-22,-7,-2,4480
435,106142775,11,25400.0,10,-996,-20,-7,0,4432
436,106242786,11,25400.0,10,-996,-25,-8,-1,4432
437,106342763,11,25400.0,10,-996,-23,-4,-1,4480
438,106442799,10,25400.0,10,-997,-24,-9,-2,4432
439,106542774,10,25400.0,10,-996,-22,-8,-1,4432
440,106642788,9,25400.0,10,-997,-18,-7,-3,4432
441,106742799,9,25400.0,10,-996,-22,-6,-2,4432
442,106842782,10,25400.0,10,-997,-19,-3,-3,4432
443,106942747,10,25400.0,10,-996,-24,-7,-2,4432
444,107042780,10,25400.0,11,-996,-23,-8,-1,4432
445,107142786,11,25400.0,11,-997,-22,-9,-1,4480
446,107242775,12,25400.0,11,-996,-23,-12,0,4480
447,107342726,11,25400.0,11,-997,-23,-8,-3,4480
448,107442801,11,25400.0,10,-997,-24,-7,-1,4432
449,107542782,11,25400.0,10,-997,-20,-7,-2,4480
450,109642750,11,25500.0,10,-997,-20,-7,-1,4432
451,109742758,11,25500.0,10,-997,-22,-7,-2,4480
452,109842788,11,25500.0,10,-997,-25,-10,-2,4432
453,109942742,11,25500.0,9,-997,-20,-9,-2,4432
454,110042749,11,25500.0,10,-998,-24,-10,-2,4480
455,110142733,11,25500.0,10,-998,-20,-11,-2,4432
456,110242783,11,25500.0,10,-996,-23,-9,-1,4432
457,110342784,11,25500.0,10,-997,-24,-7,-1,4480
458,110442799,11,25500.0,10,-997,-23,-7,-3,4432
459,110542809,11,25500.0,10,-997,-24,-8,-1,4480
460,110642786,10,25500.0,10,-997,-23,-6,-2,4432
461,110742777,11,25500.0,10,-997,-20,-6,-1,4432
462,110842815,11,25500.0,10,-997,-22,-10,-1,4432
463,110942766,11,25500.0,11,-997,-23,-7,0,4432
464,111042792,11,25500.0,10,-996,-22,-7,-1,4480
465,111142785,11,25500.0,10,-997,-20,-8,-2,4480
466,111242769,11,25500.0,10,-997,-22,-10,-2,4432
467,111342780,11,25500.0,10,-996,-24,-10,-1,4432
468,111442798,11,25500.0,10,-996,-22,-9,0,4480
469,111542760,11,25500.0,10,-997,-25,-8,-2,4432
470,111642786,11,25500.0,10,-997,-23,-10,0,4480
471,111742759,11,25500.0,10,-997,-22,-4,-3,4432
472,111842784,11,25500.0,10,-996,-20,-8,-1,4432
473,111942728,11,25500.0,11,-997,-23,-9,-2,4432
474,112042775,11,25500.0,10,-997,-23,-10,-1,4432
475,112142771,10,25500.0,10,-997,-25,-8,-3,4432
476,112242789,11,25500.0,10,-997,-19,-8,-2,4432
477,112342744,10,25500.0,9,-997,-22,-6,-1,4432
478,112442797,11,25500.0,10,-996,-22,-8,-2,4480
479,112542760,11,25500.0,10,-997,-25,-9,-2,4480
480,112642794,11,25500.0,10,-997,-25,-6,0,4432
481,112742767,12,25500.0,10,-997,-24,-10,-1,4480
482,112842784,11,25500.0,10,-997,-22,-7,-3,4432
483,112942753,11,25500.0,9,-997,-19,-7,-3,4480
484,113042738,11,25500.0,10,-996,-19,-8,-1,4432
485,113142735,11,25500.0,10,-996,-25,-4,-1,4432
486,113242748,11,25500.0,10,-996,-24,-6,-3,4432
487,113342785,11,25500.0,10,-996,-23,-7,-3,4432
488,113442737,11,25500.0,10,-997,-23,-10,-3,4432
489,113542732,11,25500.0,10,-997,-22,-11,0,4432
490,113642735,11,25500.0,10,-997,-24,-8,0,4432
491,113742780,11,25500.0,9,-996,-22,-7,-1,4432
492,113842791,11,25500.0,10,-996,-23,-7,-2,4432
493,113942741,11,25500.0,10,-997,-20,-6,-1,4432
494,114042773,11,25500.0,10,-996,-26,-9,-3,4480
495,114142787,11,25500.0,10,-997,-22,-4,-2,4480
496,114242783,11,25500.0,10,-996,-27,-6,-2,4480
497,114342767,11,25500.0,10,-997,-22,-8,-3,4480
498,114442745,11,25500.0,10,-997,-23,-10,0,4432
499,114542745,11,25500.0,10,-997,-24,-8,0,4480
500,116742788,11,25600.0,10,-997,-22,-8,-2,4480
501,116842793,11,25600.0,10,-997,-19,-9,0,4432
502,116942779,11,25600.0,10,-996,-22,-11,-1,4432
503,117042731,11,25600.0,10,-996,-18,-7,0,4432
504,117142767,11,25600.0,10,-996,-24,-8,-3,4480
505,117242782,11,25600.0,10,-996,-20,-8,-1,4480
506,117342798,11,25600.0,10,-997,-23,-8,-1,4432
507,117442787,11,25600.0,10,-997,-19,-6,-2,4480
508,117542730,11,25600.0,10,-997,-24,-11,0,4480
509,117642764,11,25600.0,10,-997,-20,-9,-2,4432
510,117742773,10,25600.0,10,-997,-23,-8,-3,4480
511,117842790,11,25600.0,10,-997,-22,-7,-4,4432
512,117942756,11,25600.0,10,-997,-20,-11,-2,4432
513,118042789,11,25600.0,9,-997,-24,-8,0,4432
514,118142779,11,25600.0,10,-998,-19,-8,-2,4480
515,118242729,11,25600.0,10,-998,-20,-8,0,4480
516,118342772,10,25600.0,10,-997,-18,-7,-1,4432
517,118442744,11,25600.0,10,-997,-26,-7,-1,4432
518,118542738,11,25600.0,10,-997,-23,-10,-1,4480
519,118642778,11,25600.0,10,-998,-20,-8,-1,4480
520,118742787,11,25600.0,11,-998,-23,-8,-3,4432
521,118842748,11,25600.0,10,-998,-23,-9,-2,4432
522,118942727,11,25600.0,10,-998,-26,-9,-1,4432
523,119042730,11,25600.0,10,-997,-25,-10,-1,4432
524,119142733,11,25600.0,10,-997,-25,-7,0,4480
525,119242798,10,25600.0,10,-997,-23,-11,0,4432
526,119342781,11,25600.0,10,-998,-23,-10,-4,4432
527,119442772,11,25600.0,10,-997,-24,-9,-2,4480
528,119542802,11,25600.0,9,-998,-24,-7,-3,4480
529,119642783,11,25600.0,10,-998,-20,-10,-1,4480
530,119742785,11,25600.0,10,-998,-23,-8,-3,4480
531,119842774,11,25600.0,10,-997,-23,-7,0,4480
532,119942776,11,25600.0,10,-997,-23,-8,-2,4432
533,120042781,11,25600.0,10,-997,-19,-3,-3,4432
534,120142733,11,25600.0,10,-997,-25,-4,-1,4432
535,120242732,11,25600.0,10,-997,-23,-6,-1,4432
536,120342741,11,25600.0,10,-997,-23,-7,-3,4432
537,120442747,11,25600.0,10,-997,-23,-8,-2,4432
538,120542764,11,25600.0,11,-997,-23,-4,-2,4432
539,120642786,11,25600.0,10,-996,-23,-4,0,4432
540,120742799,11,25600.0,10,-997,-23,-7,-3,4480
541,120842784,11,25600.0,10,-997,-23,-8,-1,4432
542,120942756,10,25600.0,10,-997,-23,-8,-1,4432
543,121042748,11,25600.0,10,-997,-23,-8,0,4480
544,121142777,11,25600.0,10,-997,-23,-9,-2,4432
545,121242767,11,25600.0,10,-996,-23,-10,-4,4432
546,121342773,11,25600.0,11,-996,-22,-7,-2,4480
547,121442727,11,25600.0,10,-996,-24,-8,-2,4480
548,121542738,11,25600.0,10,-997,-22,-8,0,4480
549,121642800,11,25600.0,10,-996,-20,-6,-2,4432
550,123742777,11,25700.0,10,-997,-24,-9,0,4432
551,123842784,11,25700.0,10,-997,-20,-9,-3,4480
552,123942793,11,25700.0,10,-996,-22,-8,-1,4480
553,124042792,11,25700.0,10,-997,-22,-11,0,4480
554,124142733,11,25700.0,10,-998,-20,-6,1,4480
555,124242731,11,25700.0,10,-997,-20,-9,0,4480
556,124342780,11,25700.0,10,-997,-23,-9,-2,4432
557,124442776,11,25700.0,10,-998,-24,-8,0,4432
558,124542790,11,25700.0,10,-998,-24,-7,-1,4432
559,124642780,11,25700.0,10,-997,-23,-9,-2,4432
560,124742789,11,25700.0,10,-997,-23,-8,0,4480
561,124842735,11,25700.0,10,-998,-24,-8,-2,4432
562,124942800,10,25700.0,10,-998,-22,-10,-2,4480
563,125042734,10,25700.0,10,-998,-23,-8,-1,4480
564,125142787,11,25700.0,10,-997,-23,-12,0,4480
565,125242789,11,25700.0,10,-998,-23,-9,-2,4432
566,125342782,11,25700.0,10,-998,-24,-9,-2,4432
567,125442732,11,25700.0,10,-998,-24,-7,-1,4432
568,125542772,11,25700.0,10,-997,-22,-8,-2,4480
569,125642736,11,25700.0,9,-998,-24,-10,-1,4432
570,125742746,11,25700.0,9,-998,-22,-7,0,4480
571,125842806,11,25700.0,10,-997,-22,-4,-2,4432
572,125942744,11,25700.0,10,-998,-23,-7,-3,4432
573,126042784,11,25700.0,10,-997,-22,-6,-2,4432
574,126142726,11,25700.0,10,-998,-24,-8,-2,4432
575,126242758,11,25700.0,10,-997,-20,-7,-2,4480
576,126342792,11,25700.0,10,-997,-23,-11,-1,4480
577,126442784,11,25700.0,10,-998,-20,-8,-3,4432
578,126542745,11,25700.0,10,-998,-22,-7,-1,4432
579,126642728,11,25700.0,10,-997,-25,-8,0,4432
580,126742750,11,25700.0,10,-997,-23,-8,-2,4432
581,126842767,11,25700.0,10,-997,-25,-11,-4,4432
582,126942782,11,25700.0,10,-997,-22,-9,-3,4432
583,127042791,11,25700.0,10,-997,-25,-7,0,4432
584,127142744,11,25700.0,10,-997,-20,-8,0,4432
585,127242791,11,25700.0,10,-997,-23,-8,-2,4480
586,127342792,11,25700.0,10,-997,-20,-7,-2,4480
587,127442781,11,25700.0,10,-997,-23,-3,-2,4480
588,127542794,11,25700.0,10,-996,-25,-9,-2,4432
589,127642795,11,25700.0,10,-997,-25,-7,-2,4432
590,127742780,11,25700.0,10,-997,-23,-9,-1,4480
591,127842789,11,25700.0,10,-997,-20,-8,-2,4480
592,127942800,11,25700.0,10,-997,-25,-6,-2,4432
593,128042761,11,25700.0,10,-997,-19,-4,-3,4432
594,128142781,11,25700.0,10,-997,-24,-9,0,4480
595,128242791,11,25700.0,10,-997,-20,-8,-1,4432
596,128342754,10,25700.0,10,-996,-19,-8,-3,4480
597,128442776,11,25700.0,10,-996,-19,-7,-3,4480
598,128542793,11,25700.0,10,-997,-20,-10,0,4480
599,128642725,10,25700.0,10,-996,-22,-6,-2,4432
600,130742752,12,25800.0,10,-998,-25,-4,-1,4432
601,130842784,11,25800.0,10,-997,-24,-8,-2,4432
602,130942790,11,25800.0,9,-997,-22,-6,-3,4432
603,131042787,11,25800.0,10,-997,-20,-8,-2,4480
604,131142794,11,25800.0,10,-997,-22,-12,-3,4432
605,131242779,11,25800.0,10,-997,-19,-7,-2,4432
606,131342789,11,25800.0,10,-997,-24,-10,-2,4432
607,131442782,11,25800.0,10,-997,-23,-8,-1,4480
608,131542780,11,25800.0,10,-997,-22,-8,-1,4432
609,131642794,11,25800.0,10,-996,-25,-10,0,4432
610,131742788,11,25800.0,10,-997,-23,-9,-1,4432
611,131842771,11,25800.0,10,-996,-24,-8,0,4432
612,131942794,12,25800.0,10,-997,-24,-9,-2,4480
613,132042727,11,25800.0,10,-997,-20,-7,-3,4432
614,132142805,11,25800.0,10,-996,-19,-8,-2,4432
615,132242765,11,25800.0,10,-997,-22,-3,-2,4432
616,132342804,11,25800.0,10,-996,-19,-10,0,4432
617,132442784,11,25800.0,10,-996,-20,-8,-2,4432
618,132542759,11,25800.0,10,-996,-24,-8,-2,4432
619,132642742,11,25800.0,10,-997,-22,-4,-3,4432
620,132742799,11,25800.0,10,-997,-25,-10,0,4480
621,132842808,11,25800.0,10,-996,-23,-7,0,4480
622,132942765,11,25800.0,10,-997,-24,-10,0,4480
623,133042783,11,25800.0,10,-996,-22,-7,-1,4480
624,133142741,11,25800.0,10,-996,-20,-8,-2,4432
625,133242733,11,25800.0,10,-997,-22,-9,0,4480
626,133342797,11,25800.0,11,-996,-26,-8,-1,4432
627,133442792,11,25800.0,10,-997,-24,-9,-1,4480
628,133542791,11,25800.0,10,-996,-23,-8,-4,4480
629,133642734,11,25800.0,10,-997,-23,-8,-4,4432
630,133742777,11,25800.0,10,-997,-23,-8,-3,4480
631,133842744,11,25800.0,10,-997,-25,-8,-4,4432
632,133942786,11,25800.0,10,-997,-22,-6,-2,4480
633,134042765,11,25800.0,10,-997,-20,-8,0,4432
634,134142740,11,25800.0,9,-997,-22,-8,-1,4480
635,134242747,11,25800.0,10,-996,-19,-7,-2,4432
636,134342790,11,25800.0,10,-997,-22,-7,0,4432
637,134442773,11,25800.0,10,-997,-22,-6,-3,4480
638,134542743,11,25800.0,10,-997,-22,-10,-1,4432
639,134642811,11,25800.0,10,-998,-26,-8,0,4480
640,134742750,11,25800.0,10,-997,-22,-7,-2,4432
641,134842787,11,25800.0,10,-997,-24,-8,-2,4480
642,134942730,12,25800.0,10,-997,-24,-7,0,4480
643,135042737,11,25800.0,10,-997,-19,-8,0,4480
644,135142754,11,25800.0,10,-997,-24,-9,-2,4432
645,135242803,11,25800.0,10,-997,-24,-8,0,4480
646,135342808,11,25800.0,10,-997,-24,-8,0,4480
647,135442739,11,25800.0,10,-998,-22,-10,-1,4480
648,135542796,11,25800.0,10,-998,-25,-11,-2,4480
649,135642783,11,25800.0,10,-997,-23,-11,-2,4480
650,137742781,12,25900.0,10,-997,-23,-7,-1,4480
651,137842782,11,25900.0,10,-997,-24,-7,-2,4480
652,137942794,11,25900.0,10,-997,-20,-4,-3,4480
653,138042750,11,25900.0,10,-997,-23,-8,0,4432
654,138142787,11,25900.0,10,-997,-17,-6,-3,4432
655,138242790,12,25900.0,10,-997,-23,-12,-1,4432
656,138342744,11,25900.0,10,-997,-23,-6,0,4432
657,138442799,11,25900.0,10,-998,-22,-9,-2,4480
658,138542771,11,25900.0,11,-997,-25,-7,-3,4480
659,138642732,11,25900.0,10,-997,-26,-9,0,4480
660,138742773,11,25900.0,10,-997,-23,-6,-1,4432
661,138842756,11,25900.0,9,-997,-26,-8,-1,4480
662,138942737,11,25900.0,10,-997,-22,-8,-2,4480
663,139042784,11,25900.0,10,-997,-22,-8,0,4432
664,139142748,11,25900.0,10,-997,-24,-8,-3,4480
665,139242776,11,25900.0,10,-997,-20,-8,-1,4432
666,139342731,11,25900.0,10,-996,-23,-6,-3,4480
667,139442775,10,25900.0,10,-996,-25,-9,-5,4432
668,139542744,11,25900.0,10,-997,-24,-8,0,4480
669,139642747,11,25900.0,10,-996,-24,-8,-2,4432
670,139742735,11,25900.0,10,-996,-22,-7,-1,4480
671,139842749,11,25900.0,10,-997,-24,-9,-3,4432
672,139942779,11,25900.0,10,-997,-20,-6,-1,4432
673,140042756,11,25900.0,10,-996,-23,-10,0,4480
674,140142768,11,25900.0,10,-997,-22,-8,-4,4432
675,140242789,11,25900.0,10,-997,-25,-9,0,4480
676,140342727,11,25900.0,10,-997,-22,-8,-2,4480
677,140442749,11,25900.0,10,-997,-25,-10,-1,4432
678,140542784,11,25900.0,10,-997,-19,-6,-4,4480
679,140642732,11,25900.0,9,-997,-25,-7,-1,4480
680,140742786,11,25900.0,10,-997,-22,-9,-2,4432
681,140842773,11,25900.0,10,-997,-24,-8,0,4480
682,140942806,11,25900.0,10,-997,-23,-8,-1,4480
683,141042753,11,25900.0,10,-998,-22,-6,0,4432
684,141142777,11,25900.0,10,-997,-22,-9,-2,4480
685,141242738,11,25900.0,10,-998,-24,-8,-3,4480
686,141342765,11,25900.0,10,-998,-23,-8,0,4432
687,141442779,11,25900.0,10,-997,-25,-8,-2,4432
688,141542791,11,25900.0,10,-998,-23,-9,-1,4480
689,141642742,11,25900.0,10,-997,-22,-8,-3,4432
690,141742737,11,25900.0,10,-997,-24,-7,-3,4432
691,141842796,11,25900.0,10,-998,-23,-8,-2,4432
692,141942780,11,25900.0,10,-998,-25,-9,-1,4432
693,142042779,11,25900.0,10,-997,-24,-13,-1,4480
694,142142759,11,25900.0,10,-997,-23,-11,-2,4480
695,142242786,11,25900.0,10,-997,-22,-9,-2,4432
696,142342787,11,25900.0,10,-998,-23,-8,-2,4432
697,142442773,11,25900.0,10,-997,-20,-8,-1,4480
698,142542792,11,25900.0,10,-998,-22,-6,-2,4480
699,142642732,11,25900.0,10,-997,-23,-7,-2,4480
700,144842782,11,26000.0,10,-997,-26,-7,-2,4432
701,144942770,12,26000.0,10,-998,-22,-7,-1,4432
702,145042784,11,26000.0,10,-997,-22,-9,-4,4480
703,145142777,11,26000.0,10,-997,-22,-9,0,4432
704,145242779,11,26000.0,10,-997,-22,-6,-2,4480
705,145342760,11,26000.0,10,-997,-25,-13,-1,4432
706,145442800,11,26000.0,10,-997,-22,-9,-1,4432
707,145542791,11,26000.0,10,-998,-23,-7,-1,4432
708,145642773,11,26000.0,10,-997,-22,-7,-2,4432
709,145742786,11,26000.0,10,-998,-19,-8,-3,4480
710,145842737,11,26000.0,10,-997,-25,-7,-1,4432
711,145942782,11,26000.0,10,-997,-24,-7,-2,4480
712,146042789,11,26000.0,10,-997,-24,-8,-1,4480
713,146142752,11,26000.0,10,-997,-24,-10,0,4480
714,146242799,11,26000.0,10,-997,-24,-3,0,4480
715,146342797,11,26000.0,10,-996,-25,-7,-1,4480
716,146442774,11,26000.0,10,-997,-22,-8,-2,4432
717,146542775,11,26000.0,10,-996,-24,-7,-2,4432
718,146642780,11,26000.0,10,-997,-23,-7,-3,4480
719,146742781,11,26000.0,10,-997,-22,-10,-3,4480
720,146842775,11,26000.0,10,-996,-19,-4,-1,4480
721,146942780,11,26000.0,10,-997,-24,-12,-1,4480
722,147042774,11,26000.0,9,-997,-23,-6,-3,4432
723,147142731,11,26000.0,10,-996,-22,-8,-1,4432
724,147242803,11,26000.0,10,-996,-22,-7,-1,4480
725,147342786,11,26000.0,9,-997,-23,-9,-2,4432
726,147442799,11,26000.0,10,-996,-23,-8,-2,4480
727,147542793,11,26000.0,10,-997,-25,-8,-1,4480
728,147642774,11,26000.0,10,-997,-22,-9,0,4480
729,147742737,11,26000.0,10,-997,-24,-7,-1,4432
730,147842782,11,26000.0,10,-997,-23,-8,-1,4432
731,147942775,12,26000.0,10,-997,-19,-4,-2,4432
732,148042777,11,26000.0,10,-996,-23,-7,-2,4480
733,148142744,11,26000.0,11,-997,-20,-9,-2,4432
734,148242790,11,26000.0,9,-997,-22,-9,-1,4480
735,148342769,11,26000.0,10,-997,-24,-9,-3,4480
736,148442783,11,26000.0,10,-997,-25,-7,-2,4432
737,148542780,11,26000.0,10,-997,-25,-6,-2,4480
738,148642781,11,26000.0,10,-998,-23,-9,-3,4480
739,148742784,11,26000.0,10,-997,-22,-9,-3,4480
740,148842786,11,26000.0,10,-997,-23,-8,-1,4480
741,148942788,11,26000.0,10,-998,-20,-6,-2,4480
742,149042789,11,26000.0,10,-998,-23,-6,-1,4432
743,149142729,11,26000.0,10,-998,-24,-10,-3,4432
744,149242739,11,26000.0,10,-998,-22,-7,-2,4432
745,149342765,12,26000.0,10,-998,-23,-7,-2,4432
746,149442736,11,26000.0,10,-998,-23,-6,-3,4432
747,149542747,11,26000.0,10,-998,-23,-4,-1,4432
748,149642800,11,26000.0,10,-998,-23,-2,-1,4480
749,149742740,11,26000.0,10,-998,-23,-6,0,4432
750,151842744,11,26100.0,10,-996,-23,-8,-1,4432
751,151942799,11,26100.0,10,-996,-24,-8,-3,4432
752,152042784,11,26100.0,9,-996,-22,-2,-4,4480
753,152142723,11,26100.0,10,-996,-20,-4,-1,4480
754,152242741,11,26100.0,10,-996,-23,-10,0,4480
755,152342776,11,26100.0,10,-996,-22,-7,-2,4432
756,152442776,11,26100.0,10,-997,-23,-8,-1,4480
757,152542781,11,26100.0,10,-996,-24,-6,-2,4480
758,152642793,11,26100.0,10,-997,-26,-9,-1,4432
759,152742745,11,26100.0,10,-996,-19,-8,-2,4432
760,152842732,11,26100.0,10,-996,-25,-6,-1,4432
761,152942791,11,26100.0,10,-996,-22,-10,-1,4432
762,153042795,11,26100.0,10,-996,-23,-7,-2,4480
763,153142733,11,26100.0,10,-997,-23,-10,-1,4480
764,153242734,12,26100.0,10,-997,-19,-4,-2,4480
765,153342749,11,26100.0,10,-996,-26,-7,-2,4480
766,153442791,11,26100.0,10,-996,-22,-10,-3,4480
767,153542822,11,26100.0,10,-997,-23,-9,-3,4432
768,153642741,11,26100.0,10,-996,-23,-8,0,4480
769,153742776,11,26100.0,10,-997,-22,-4,0,4480
770,153842762,11,26100.0,10,-996,-24,-7,-2,4480
771,153942784,11,26100.0,10,-997,-23,-9,-2,4480
772,154042795,11,26100.0,10,-997,-24,-8,-2,4480
773,154142799,11,26100.0,10,-997,-22,-8,0,4432
774,154242738,12,26100.0,10,-997,-23,-3,-2,4432
775,154342741,11,26100.0,10,-996,-24,-8,-1,4480
776,154442788,12,26100.0,10,-997,-23,-10,-3,4480
777,154542776,11,26100.0,10,-997,-23,-8,-2,4480
778,154642733,11,26100.0,10,-997,-23,-8,-3,4480
779,154742742,11,26100.0,10,-997,-24,-8,-2,4480
780,154842790,11,26100.0,10,-997,-23,-6,-1,4480
781,154942767,11,26100.0,10,-998,-24,-9,-2,4480
782,155042762,11,26100.0,10,-998,-23,-8,0,4480
783,155142748,11,26100.0,10,-998,-23,-7,-2,4480
784,155242780,12,26100.0,10,-998,-24,-7,-2,4480
785,155342760,11,26100.0,10,-998,-23,-8,-3,4432
786,155442788,12,26100.0,10,-998,-20,-8,-2,4480
787,155542793,11,26100.0,10,-998,-23,-9,-1,4432
788,155642755,11,26100.0,10,-998,-22,-9,-3,4480
789,155742741,11,26100.0,10,-998,-23,-4,0,4432
790,155842734,11,26100.0,10,-998,-24,-7,-1,4480
791,155942768,11,26100.0,10,-998,-22,-9,-3,4432
792,156042801,11,26100.0,10,-998,-22,-10,-2,4480
793,156142780,11,26100.0,10,-997,-20,-7,-2,4432
794,156242786,11,26100.0,10,-997,-24,-6,0,4480
795,156342741,11,26100.0,10,-998,-23,-8,-2,4480
796,156442790,11,26100.0,10,-998,-19,-8,-3,4432
797,156542773,12,26100.0,10,-999,-22,-3,-2,4432
798,156642779,11,26100.0,10,-997,-25,-9,-1,4480
799,156742771,11,26100.0,10,-997,-24,-7,-1,4480
800,158842796,11,26200.0,10,-995,-23,-10,-1,4480
801,158942803,11,26200.0,9,-995,-24,-9,-1,4432
802,159042798,11,26200.0,10,-996,-22,-7,-3,4432
803,159142765,12,26200.0,10,-996,-19,-7,0,4480
804,159242793,11,26200.0,10,-996,-24,-8,-2,4480
805,159342775,11,26200.0,10,-996,-24,-8,-1,4432
806,159442732,11,26200.0,9,-996,-24,-8,-2,4480
807,159542756,11,26200.0,10,-997,-24,-10,-2,4480
808,159642786,11,26200.0,10,-996,-26,-10,-3,4480
809,159742771,11,26200.0,10,-996,-24,-6,-2,4432
810,159842800,11,26200.0,10,-997,-24,-11,0,4480
811,159942773,11,26200.0,10,-997,-23,-10,-2,4480
812,160042785,11,26200.0,10,-997,-22,-6,-4,4480
813,160142742,11,26200.0,10,-997,-23,-10,0,4480
814,160242799,11,26200.0,10,-997,-25,-6,-2,4480
815,160342749,11,26200.0,10,-997,-23,-8,-2,4480
816,160442808,11,26200.0,10,-997,-23,-8,-2,4480
817,160542738,11,26200.0,10,-998,-20,-6,0,4480
818,160642784,11,26200.0,9,-998,-26,-4,-2,4480
819,160742742,11,26200.0,10,-998,-22,-10,0,4432
820,160842787,11,26200.0,10,-998,-23,-8,0,4480
821,160942736,11,26200.0,9,-998,-25,-8,1,4480
822,161042763,11,26200.0,10,-999,-24,-9,-1,4480
823,161142728,11,26200.0,10,-998,-19,-6,-3,4480
824,161242794,11,26200.0,10,-999,-23,-7,0,4480
825,161342764,11,26200.0,10,-999,-24,-8,-1,4480
826,161442788,11,26200.0,10,-998,-23,-8,0,4432
827,161542778,11,26200.0,10,-998,-22,-9,-2,4480
828,161642742,11,26200.0,10,-999,-23,-9,0,4480
829,161742788,11,26200.0,10,-998,-24,-10,0,4432
830,161842755,11,26200.0,10,-999,-25,-6,-2,4480
831,161942755,11,26200.0,10,-998,-22,-10,0,4480
832,162042782,11,26200.0,9,-998,-23,-6,-1,4480
833,162142759,11,26200.0,10,-998,-24,-11,-3,4480
834,162242780,11,26200.0,10,-998,-22,-11,-1,4480
835,162342763,11,26200.0,10,-998,-20,-8,-2,4432
836,162442732,11,26200.0,10,-998,-23,-9,0,4432
837,162542784,11,26200.0,10,-998,-22,-9,-2,4480
838,162642805,11,26200.0,10,-998,-20,-9,-2,4480
839,162742743,11,26200.0,10,-998,-22,-4,-1,4480
840,162842768,11,26200.0,10,-997,-23,-6,-3,4432
841,162942767,11,26200.0,10,-997,-23,-7,-2,4480
842,163042779,11,26200.0,10,-997,-23,-9,-3,4432
843,163142779,11,26200.0,10,-997,-20,-7,-3,4432
844,163242782,11,26200.0,10,-997,-24,-4,-3,4432
845,163342777,11,26200.0,10,-997,-24,-9,-1,4432
846,163442789,11,26200.0,10,-997,-25,-7,0,4432
847,163542783,11,26200.0,10,-997,-23,-9,-1,4432
848,163642761,11,26200.0,10,-997,-25,-12,-3,4432
849,163742738,11,26200.0,10,-996,-20,-7,-2,4432
850,165942777,12,26300.0,10,-997,-22,-7,-2,4480
851,166042781,12,26300.0,10,-997,-23,-11,0,4432
852,166142789,12,26300.0,10,-998,-23,-8,-2,4480
853,166242806,11,26300.0,10,-998,-19,-6,-2,4432
854,166342739,11,26300.0,10,-997,-25,-8,-3,4432
855,166442784,11,26300.0,10,-997,-25,-7,-1,4432
856,166542745,11,26300.0,10,-998,-22,-6,-3,4480
857,166642779,12,26300.0,10,-998,-23,-7,-1,4480
858,166742781,11,26300.0,10,-997,-23,-6,-2,4432
859,166842788,11,26300.0,10,-998,-27,-9,0,4480
860,166942778,11,26300.0,10,-998,-26,-10,1,4432
861,167042797,11,26300.0,10,-997,-20,-8,-2,4480
862,167142786,11,26300.0,10,-997,-23,-7,-2,4480
863,167242767,12,26300.0,10,-997,-23,-8,0,4480
864,167342727,11,26300.0,10,-997,-25,-10,-2,4432
865,167442746,11,26300.0,10,-997,-25,-9,-2,4480
866,167542793,11,26300.0,9,-997,-20,-7,-1,4480
867,167642756,11,26300.0,10,-997,-25,-8,0,4480
868,167742759,11,26300.0,10,-998,-24,-9,-1,4480
869,167842775,11,26300.0,10,-997,-24,-7,-1,4432
870,167942792,11,26300.0,11,-997,-25,-8,-1,4432
871,168042774,11,26300.0,10,-997,-23,-7,-2,4480
872,168142790,11,26300.0,10,-998,-24,-7,-1,4432
873,168242793,11,26300.0,10,-998,-23,-7,-1,4480
874,168342782,11,26300.0,10,-998,-22,-4,-1,4432
875,168442729,12,26300.0,10,-998,-18,-8,0,4480
876,168542796,11,26300.0,10,-998,-24,-6,-2,4480
877,168642798,11,26300.0,10,-997,-23,-7,-4,4480
878,168742792,12,26300.0,10,-997,-23,-9,-1,4480
879,168842786,11,26300.0,10,-997,-22,-8,-2,4432
880,168942791,11,26300.0,10,-997,-20,-11,-2,4432
881,169042783,11,26300.0,10,-997,-20,-9,-3,4432
882,169142798,11,26300.0,10,-997,-25,-8,-2,4432
883,169242790,12,26300.0,10,-997,-22,-8,-1,4432
884,169342777,11,26300.0,10,-998,-22,-8,-3,4432
885,169442763,11,26300.0,10,-997,-23,-7,-3,4480
886,169542789,11,26300.0,10,-997,-24,-6,-4,4480
887,169642758,11,26300.0,10,-997,-23,-11,-2,4480
888,169742783,11,26300.0,10,-997,-24,-9,-2,4432
889,169842759,11,26300.0,11,-997,-23,-7,-1,4480
890,169942777,11,26300.0,10,-997,-23,-8,0,4480
891,170042797,11,26300.0,10,-997,-24,-7,-2,4480
892,170142781,11,26300.0,10,-997,-23,-8,-1,4480
893,170242764,11,26300.0,10,-996,-24,-8,-2,4480
894,170342788,12,26300.0,10,-997,-23,-9,-2,4480
895,170442809,11,26300.0,10,-997,-24,-8,-1,4480
896,170542782,11,26300.0,10,-997,-24,-9,-1,4480
897,170642777,11,26300.0,10,-997,-20,-4,0,4480
898,170742734,11,26300.0,10,-997,-24,-6,0,4480
899,170842737,11,26300.0,10,-997,-23,-9,0,4480
900,172942787,11,26400.0,9,-997,-26,-12,0,4480
901,173042794,11,26400.0,10,-997,-25,-8,-2,4432
902,173142792,11,26400.0,10,-997,-23,-9,-1,4432
903,173242784,11,26400.0,10,-997,-22,-8,-1,4480
904,173342736,11,26400.0,10,-997,-23,-7,-1,4432
905,173442789,11,26400.0,10,-997,-27,-9,-2,4480
906,173542769,11,26400.0,10,-997,-20,-8,-1,4432
907,173642787,11,26400.0,10,-997,-20,-8,-1,4480
908,173742777,11,26400.0,10,-998,-20,-4,0,4480
909,173842783,12,26400.0,10,-997,-23,-7,-2,4480
910,173942720,11,26400.0,10,-998,-22,-7,-1,4480
911,174042787,11,26400.0,10,-998,-24,-3,-2,4480
912,174142742,11,26400.0,10,-997,-20,-8,-3,4480
913,174242793,11,26400.0,10,-998,-20,-9,0,4480
914,174342801,11,26400.0,10,-998,-23,-7,-2,4480
915,174442764,11,26400.0,10,-998,-25,-9,-2,4432
916,174542772,11,26400.0,10,-998,-24,-9,0,4480
917,174642733,11,26400.0,10,-998,-23,-4,-2,4480
918,174742743,11,26400.0,10,-997,-22,-6,-2,4480
919,174842746,11,26400.0,10,-998,-25,-7,-1,4480
920,174942755,11,26400.0,10,-998,-22,-9,-1,4480
921,175042780,12,26400.0,10,-998,-25,-8,-1,4432
922,175142748,11,26400.0,10,-998,-20,-8,-3,4480
923,175242746,11,26400.0,10,-997,-22,-7,-1,4480
924,175342732,11,26400.0,10,-998,-24,-11,-1,4480
925,175442740,11,26400.0,9,-997,-23,-9,0,4480
926,175542781,11,26400.0,10,-997,-24,-8,-1,4480
927,175642774,11,26400.0,10,-997,-20,-8,-3,4480
928,175742737,11,26400.0,10,-997,-23,-4,-3,4480
929,175842761,11,26400.0,10,-997,-22,-8,-2,4480
930,175942791,11,26400.0,10,-997,-24,-9,-3,4432
931,176042773,11,26400.0,10,-997,-20,-7,-2,4432
932,176142808,11,26400.0,10,-997,-24,-3,-1,4432
933,176242781,11,26400.0,10,-997,-24,-10,0,4480
934,176342795,11,26400.0,10,-997,-22,-7,-1,4432
935,176442745,11,26400.0,9,-997,-20,-8,-1,4480
936,176542761,11,26400.0,10,-997,-23,-8,-1,4480
937,176642764,11,26400.0,10,-997,-25,-7,-1,4432
938,176742784,11,26400.0,10,-997,-22,-7,-3,4480
939,176842782,11,26400.0,10,-997,-24,-8,0,4432
940,176942800,11,26400.0,10,-996,-23,-7,0,4432
941,177042779,11,26400.0,10,-996,-24,-8,-2,4480
942,177142778,11,26400.0,10,-996,-26,-12,-2,4480
943,177242795,11,26400.0,10,-996,-25,-9,0,4480
944,177342783,11,26400.0,10,-997,-22,-9,-2,4480
945,177442782,11,26400.0,10,-997,-22,-8,0,4480
946,177542789,11,26400.0,10,-997,-20,-8,-2,4480
947,177642801,11,26400.0,10,-997,-26,-7,-2,4432
948,177742745,11,26400.0,10,-997,-23,-8,-2,4480
949,177842744,11,26400.0,10,-997,-20,-9,0,4480
950,180642759,11,26500.0,10,-998,-26,-10,-3,4432
951,180742776,11,26500.0,10,-998,-25,-6,-1,4480
952,180842785,11,26500.0,10,-997,-23,-9,-3,4432
953,180942792,11,26500.0,10,-997,-23,-8,-3,4432
954,181042731,11,26500.0,10,-998,-22,-9,0,4432
955,181142792,11,26500.0,10,-998,-26,-9,-2,4432
956,181242766,11,26500.0,10,-998,-24,-11,0,4480
957,181342735,11,26500.0,10,-997,-24,-9,-1,4432
958,181442757,11,26500.0,10,-997,-23,-9,-2,4432
959,181542793,11,26500.0,10,-997,-24,-9,-1,4480
960,181642779,12,26500.0,10,-997,-24,-6,-2,4432
961,181742778,11,26500.0,10,-998,-22,-9,-1,4432
962,181842772,11,26500.0,10,-996,-20,-6,-2,4432
963,181942781,11,26500.0,10,-997,-22,-7,-1,4432
964,182042752,11,26500.0,10,-997,-23,-7,-1,4480
965,182142760,11,26500.0,10,-997,-24,-8,-3,4480
966,182242759,11,26500.0,10,-997,-24,-10,0,4480
967,182342800,11,26500.0,10,-997,-23,-8,-2,4480
968,182442792,11,26500.0,10,-997,-22,-9,-1,4480
969,182542735,11,26500.0,10,-997,-23,-7,-2,4480
970,182642790,11,26500.0,10,-996,-24,-8,-1,4480
971,182742773,11,26500.0,10,-998,-23,-4,-3,4480
972,182842760,12,26500.0,10,-997,-23,-7,-2,4432
973,182942795,11,26500.0,10,-997,-23,-9,-1,4480
974,183042787,12,26500.0,10,-996,-22,-8,0,4432
975,183142804,11,26500.0,10,-997,-22,-6,-3,4432
976,183242763,11,26500.0,10,-997,-23,-8,0,4480
977,183342741,11,26500.0,10,-997,-26,-6,-4,4480
978,183442732,11,26500.0,9,-997,-23,-9,-1,4480
979,183542760,11,26500.0,10,-997,-23,-9,-3,4480
980,183642732,11,26500.0,10,-996,-24,-12,-1,4480
981,183742734,11,26500.0,9,-997,-20,-4,-2,4480
982,183842786,11,26500.0,10,-997,-22,-8,-4,4480
983,183942762,11,26500.0,10,-996,-22,-9,-2,4432
984,184042762,11,26500.0,10,-997,-23,-7,-1,4480
985,184142784,11,26500.0,10,-997,-20,-7,-3,4480
986,184242781,11,26500.0,10,-997,-23,-6,-1,4480
987,184342803,11,26500.0,10,-997,-26,-10,0,4480
988,184442735,11,26500.0,10,-997,-22,-7,-1,4432
989,184542747,11,26500.0,10,-997,-20,-8,-1,4432
990,184642772,11,26500.0,10,-997,-22,-6,0,4480
991,184742784,11,26500.0,9,-997,-22,-7,-1,4432
992,184842748,11,26500.0,10,-997,-22,-8,1,4432
993,184942792,11,26500.0,10,-998,-22,-4,-1,4480
994,185042752,11,26500.0,10,-998,-24,-9,0,4480
995,185142775,11,26500.0,10,-997,-24,-7,-2,4432
996,185242760,11,26500.0,10,-998,-22,-6,-3,4480
997,185342783,11,26500.0,10,-998,-20,-8,-1,4480
998,185442776,11,26500.0,10,-998,-23,-7,-1,4480
999,185542736,11,26500.0,10,-998,-23,-8,-1,4432
1000,187042774,11,26600.0,10,-997,-24,-9,0,4432
1001,187142758,11,26600.0,10,-997,-24,-9,-1,4480
1002,187242782,11,26600.0,10,-997,-20,-7,-1,4480
1003,187342776,12,26600.0,9,-997,-20,-14,-2,4480
1004,187442769,11,26600.0,10,-997,-24,-6,-1,4480
1005,187542796,11,26600.0,9,-997,-26,-9,-1,4480
1006,187642786,11,26600.0,10,-997,-23,-9,0,4480
1007,187742792,11,26600.0,10,-997,-22,-9,-2,4480
1008,187842780,11,26600.0,10,-997,-24,-7,-2,4480
1009,187942739,11,26600.0,9,-997,-23,-8,0,4432
1010,188042784,11,26600.0,10,-997,-20,-6,-2,4480
1011,188142746,11,26600.0,10,-997,-23,-9,0,4432
1012,188242750,11,26600.0,10,-997,-23,-10,-2,4480
1013,188342778,11,26600.0,10,-997,-23,-9,-2,4480
1014,188442786,11,26600.0,9,-997,-23,-10,-1,4480
1015,188542735,11,26600.0,10,-997,-22,-8,-3,4480
1016,188642791,11,26600.0,10,-998,-25,-9,0,4480
1017,188742788,11,26600.0,10,-997,-27,-8,-1,4480
1018,188842759,11,26600.0,10,-997,-25,-7,-3,4480
1019,188942742,11,26600.0,10,-997,-24,-7,-1,4480
1020,189042784,11,26600.0,10,-997,-23,-7,-1,4480
1021,189142784,11,26600.0,10,-997,-25,-7,-3,4480
1022,189242752,11,26600.0,10,-997,-23,-10,-3,4480
1023,189342800,11,26600.0,10,-997,-23,-8,0,4480
1024,189442754,11,26600.0,10,-997,-22,-8,-1,4480
1025,189542733,11,26600.0,10,-997,-19,-8,-1,4480
1026,189642787,11,26600.0,10,-998,-25,-10,-2,4432
1027,189742742,12,26600.0,10,-997,-24,-11,0,4432
1028,189842759,11,26600.0,10,-997,-24,-7,-2,4432
1029,189942733,11,26600.0,10,-998,-23,-7,-3,4432
1030,190042771,11,26600.0,10,-998,-20,-12,0,4480
1031,190142765,11,26600.0,10,-997,-27,-8,-2,4480
1032,190242794,12,26600.0,10,-998,-24,-9,-1,4480
1033,190342792,11,26600.0,10,-998,-22,-8,-2,4480
1034,190442734,11,26600.0,10,-998,-24,-6,-3,4480
1035,190542732,11,26600.0,10,-998,-24,-12,0,4432
1036,190642785,11,26600.0,10,-998,-25,-8,0,4432
1037,190742778,11,26600.0,10,-998,-23,-8,-3,4480
1038,190842800,11,26600.0,10,-998,-25,-7,0,4480
1039,190942799,11,26600.0,10,-998,-23,-9,-4,4480
1040,191042761,11,26600.0,10,-998,-20,-4,-1,4432
1041,191142793,11,26600.0,10,-998,-24,-9,-3,4432
1042,191242777,12,26600.0,10,-997,-24,-10,0,4432
1043,191342751,11,26600.0,10,-998,-22,-9,0,4480
1044,191442768,11,26600.0,10,-997,-22,-10,-1,4480
1045,191542785,11,26600.0,10,-997,-22,-9,0,4480
1046,191642775,11,26600.0,10,-998,-20,-9,-1,4480
1047,191742787,11,26600.0,10,-997,-24,-4,-1,4432
1048,191842785,11,26600.0,10,-997,-24,-8,0,4432
1049,191942787,11,26600.0,10,-997,-22,-9,-2,4480
1050,194042784,11,26700.0,10,-997,-23,-11,-1,4480
1051,194142771,11,26700.0,10,-997,-20,-6,-2,4480
1052,194242763,12,26700.0,10,-997,-22,-7,-2,4480
1053,194342733,11,26700.0,10,-997,-23,-10,-2,4480
1054,194442736,11,26700.0,10,-997,-22,-6,-2,4432
1055,194542769,11,26700.0,10,-997,-24,-9,-3,4480
1056,194642785,11,26700.0,10,-997,-24,-11,-2,4432
1057,194742788,11,26700.0,10,-997,-24,-7,-1,4480
1058,194842776,11,26700.0,10,-997,-22,-7,-1,4480
1059,194942733,11,26700.0,10,-997,-24,-8,-1,4480
1060,195042781,11,26700.0,10,-997,-22,-11,0,4432
1061,195142750,11,26700.0,10,-997,-24,-8,-3,4480
1062,195242775,11,26700.0,9,-997,-26,-8,-2,4432
1063,195342782,11,26700.0,10,-997,-24,-7,0,4480
1064,195442774,11,26700.0,10,-997,-25,-7,-1,4480
1065,195542785,11,26700.0,10,-997,-25,-8,-2,4480
1066,195642757,11,26700.0,10,-997,-23,-4,-3,4432
1067,195742783,12,26700.0,10,-997,-27,-11,0,4480
1068,195842773,11,26700.0,10,-997,-22,-11,-2,4432
1069,195942753,11,26700.0,10,-997,-22,-7,-2,4480
1070,196042730,11,26700.0,10,-997,-24,-7,-3,4480
1071,196142793,11,26700.0,10,-997,-22,-7,0,4480
1072,196242786,11,26700.0,10,-997,-22,-10,-2,4480
1073,196342790,11,26700.0,10,-997,-23,-6,-1,4480
1074,196442781,11,26700.0,10,-998,-24,-9,-2,4480
1075,196542775,11,26700.0,10,-997,-24,-7,-1,4480
1076,196642732,11,26700.0,10,-997,-24,-9,0,4480
1077,196742751,12,26700.0,10,-997,-20,-4,-3,4480
1078,196842787,11,26700.0,10,-997,-25,-7,-1,4432
1079,196942743,11,26700.0,10,-998,-24,-11,0,4432
1080,197042731,11,26700.0,10,-997,-24,-6,-1,4432
1081,197142744,11,26700.0,10,-997,-18,-6,0,4432
1082,197242792,11,26700.0,10,-998,-23,-4,0,4432
1083,197342776,11,26700.0,10,-997,-22,-7,-1,4432
1084,197442785,12,26700.0,10,-997,-23,-8,-3,4432
1085,197542778,11,26700.0,10,-998,-23,-8,-1,4480
1086,197642799,11,26700.0,10,-998,-24,-9,0,4432
1087,197742755,11,26700.0,10,-998,-24,-4,-2,4480
1088,197842774,12,26700.0,10,-998,-24,-8,0,4480
1089,197942785,12,26700.0,10,-997,-23,-7,-1,4432
1090,198042788,11,26700.0,10,-998,-23,-9,-2,4480
1091,198142781,11,26700.0,10,-997,-23,-7,-2,4480
1092,198242785,11,26700.0,10,-997,-20,-8,-1,4432
1093,198342787,11,26700.0,10,-997,-20,-8,-2,4480
1094,198442794,12,26700.0,10,-998,-22,-4,-3,4480
1095,198542805,11,26700.0,10,-997,-23,-11,-1,4480
1096,198642797,11,26700.0,10,-998,-23,-9,-2,4480
1097,198742782,11,26700.0,10,-997,-23,-7,-1,4480
1098,198842783,11,26700.0,10,-997,-27,-7,0,4480
1099,198942753,11,26700.0,9,-997,-25,-9,-3,4432
1100,201242785,12,26800.0,10,-997,-20,-7,-4,4480
1101,201342751,11,26800.0,10,-997,-22,-10,-3,4432
1102,201442732,11,26800.0,10,-997,-25,-8,-3,4432
1103,201542733,11,26800.0,10,-998,-25,-8,-1,4480
1104,201642736,11,26800.0,10,-997,-26,-10,-1,4480
1105,201742752,11,26800.0,10,-997,-22,-4,-1,4480
1106,201842803,11,26800.0,10,-997,-25,-10,-2,4480
1107,201942802,11,26800.0,10,-997,-22,-9,-1,4432
1108,202042737,11,26800.0,10,-997,-26,-6,-1,4480
1109,202142722,11,26800.0,10,-997,-22,-9,-4,4480
1110,202242772,12,26800.0,10,-997,-23,-8,-1,4480
1111,202342782,11,26800.0,11,-997,-23,-7,0,4480
1112,202442794,11,26800.0,10,-997,-23,-7,-1,4480
1113,202542785,11,26800.0,10,-997,-24,-7,-2,4480
1114,202642737,11,26800.0,10,-996,-25,-9,-1,4480
1115,202742777,11,26800.0,10,-997,-25,-9,0,4432
1116,202842790,11,26800.0,10,-997,-24,-10,0,4432
1117,202942787,11,26800.0,10,-997,-23,-10,-1,4480
1118,203042740,11,26800.0,10,-997,-24,-8,-2,4432
1119,203142730,11,26800.0,10,-996,-25,-8,-1,4480
1120,203242776,11,26800.0,10,-996,-20,-8,0,4480
1121,203342739,11,26800.0,10,-997,-23,-8,0,4432
1122,203442798,11,26800.0,10,-997,-23,-7,0,4480
1123,203542803,11,26800.0,10,-997,-23,-8,-3,4480
1124,203642743,11,26800.0,10,-997,-26,-12,-1,4480
1125,203742783,11,26800.0,10,-997,-22,-7,-2,4480
1126,203842735,12,26800.0,10,-997,-26,-11,0,4480
1127,203942780,11,26800.0,10,-997,-24,-6,-3,4480
1128,204042802,11,26800.0,10,-998,-24,-8,0,4432
1129,204142789,11,26800.0,10,-997,-25,-9,-1,4480
1130,204242784,11,26800.0,10,-997,-26,-11,-1,4480
1131,204342775,11,26800.0,10,-997,-24,-7,-1,4480
1132,204442793,12,26800.0,10,-997,-23,-6,-4,4432
1133,204542788,11,26800.0,10,-998,-24,-8,-1,4480
1134,204642782,11,26800.0,10,-998,-24,-7,-1,4480
1135,204742768,11,26800.0,10,-998,-25,-10,-1,4480
1136,204842732,11,26800.0,11,-999,-22,-6,-2,4480
1137,204942734,11,26800.0,10,-997,-25,-6,-1,4480
1138,205042735,12,26800.0,10,-998,-23,-6,-4,4480
1139,205142791,11,26800.0,10,-998,-24,-9,0,4480
1140,205242798,11,26800.0,10,-998,-24,-6,-3,4480
1141,205342778,11,26800.0,10,-998,-23,-10,-2,4480
1142,205442766,11,26800.0,10,-998,-26,-8,0,4480
1143,205542763,11,26800.0,10,-998,-22,-8,0,4432
1144,205642762,11,26800.0,10,-998,-24,-10,-2,4480
1145,205742781,11,26800.0,10,-998,-23,-9,-3,4480
1146,205842782,12,26800.0,10,-998,-26,-8,-1,4432
1147,205942735,11,26800.0,9,-998,-24,-7,-1,4432
1148,206042730,11,26800.0,10,-998,-23,-4,0,4432
1149,206142734,11,26800.0,10,-998,-22,-10,-1,4432
1150,208242798,11,26900.0,10,-998,-23,-7,-2,4432
1151,208342786,11,26900.0,10,-997,-23,-8,0,4480
1152,208442800,11,26900.0,10,-998,-24,-9,-4,4480
1153,208542790,11,26900.0,10,-997,-23,-7,-2,4480
1154,208642742,11,26900.0,10,-998,-23,-9,0,4480
1155,208742788,11,26900.0,9,-997,-20,-6,-2,4432
1156,208842773,11,26900.0,10,-998,-24,-9,0,4432
1157,208942800,11,26900.0,10,-997,-23,-10,-1,4432
1158,209042788,11,26900.0,10,-997,-24,-8,0,4480
1159,209142783,11,26900.0,10,-997,-23,-6,-2,4432
1160,209242779,11,26900.0,10,-997,-24,-8,-1,4480
1161,209342779,11,26900.0,10,-997,-25,-10,-1,4432
1162,209442746,11,26900.0,10,-997,-22,-7,-4,4480
1163,209542731,11,26900.0,10,-997,-20,-7,-1,4480
1164,209642793,11,26900.0,9,-997,-20,-4,-1,4480
1165,209742804,11,26900.0,10,-997,-23,-7,-1,4480
1166,209842755,11,26900.0,10,-997,-23,-9,-3,4480
1167,209942788,11,26900.0,10,-996,-25,-9,-2,4480
1168,210042740,11,26900.0,10,-997,-23,-7,-1,4480
1169,210142781,11,26900.0,10,-997,-23,-4,-1,4480
1170,210242750,11,26900.0,10,-996,-28,-10,-1,4480
1171,210342779,12,26900.0,9,-997,-23,-8,-2,4480
1172,210442788,11,26900.0,10,-996,-26,-7,-2,4432
1173,210542734,11,26900.0,10,-996,-24,-7,0,4480
1174,210642780,12,26900.0,10,-996,-20,-6,-1,4480
1175,210742779,11,26900.0,10,-996,-25,-7,-2,4480
1176,210842769,11,26900.0,10,-997,-25,-8,0,4480
1177,210942753,11,26900.0,10,-996,-23,-10,-1,4480
1178,211042748,11,26900.0,10,-997,-24,-9,0,4480
1179,211142764,11,26900.0,10,-997,-26,-9,-1,4480
1180,211242789,11,26900.0,10,-998,-23,-10,-2,4432
1181,211342735,11,26900.0,10,-997,-23,-11,0,4432
1182,211442779,11,26900.0,10,-997,-24,-9,0,4480
1183,211542749,11,26900.0,10,-997,-23,-10,-1,4480
1184,211642804,11,26900.0,10,-997,-24,-10,-1,4432
1185,211742712,11,26900.0,10,-998,-22,-11,0,4432
1186,211842800,11,26900.0,10,-997,-26,-9,-1,4432
1187,211942794,11,26900.0,10,-997,-23,-10,-3,4480
1188,212042764,11,26900.0,10,-997,-23,-9,0,4480
1189,212142763,11,26900.0,10,-997,-24,-9,0,4480
1190,212242766,11,26900.0,10,-997,-26,-7,-3,4432
1191,212342783,11,26900.0,10,-997,-23,-8,-1,4480
1192,212442766,11,26900.0,10,-997,-23,-8,-3,4480
1193,212542792,11,26900.0,10,-997,-23,-7,0,4480
1194,212642741,11,26900.0,10,-997,-25,-10,-1,4480
1195,212742767,12,26900.0,10,-997,-25,-10,-1,4432
1196,212842786,11,26900.0,10,-997,-24,-8,-2,4480
1197,212942780,11,26900.0,10,-997,-22,-9,-1,4432
1198,213042783,12,26900.0,10,-997,-23,-10,-1,4480
1199,213142785,11,26900.0,9,-997,-20,-7,0,4480
1200,215242744,11,27000.0,10,-998,-28,-9,-2,4480
1201,215342788,11,27000.0,10,-999,-25,-7,-2,4480
1202,215442788,11,27000.0,10,-999,-25,-8,-1,4480
1203,215542803,11,27000.0,10,-998,-23,-9,-2,4432
1204,215642758,11,27000.0,10,-998,-23,-9,-1,4480
1205,215742728,12,27000.0,10,-999,-22,-6,-2,4480
1206,215842733,12,27000.0,10,-998,-24,-6,-1,4480
1207,215942737,11,27000.0,10,-999,-25,-7,-4,4432
1208,216042802,11,27000.0,10,-998,-24,-6,1,4480
1209,216142744,11,27000.0,10,-998,-25,-10,0,4480
1210,216242768,11,27000.0,10,-998,-22,-6,-1,4480
1211,216342786,11,27000.0,10,-999,-24,-13,-2,4432
1212,216442753,11,27000.0,10,-998,-23,-12,-2,4480
1213,216542779,11,27000.0,10,-998,-23,-9,0,4480
1214,216642787,11,27000.0,10,-998,-22,-7,-2,4480
1215,216742785,12,27000.0,10,-997,-23,-9,-1,4480
1216,216842739,11,27000.0,10,-998,-20,-6,0,4480
1217,216942774,11,27000.0,10,-997,-23,-8,-3,4480
1218,217042798,11,27000.0,10,-997,-24,-9,-2,4480
1219,217142784,11,27000.0,10,-998,-20,-9,-1,4480
1220,217242783,11,27000.0,10,-997,-24,-9,-2,4480
1221,217342786,11,27000.0,10,-997,-24,-7,1,4480
1222,217442769,11,27000.0,9,-997,-22,-7,0,4432
1223,217542780,11,27000.0,10,-997,-22,-7,-1,4480
1224,217642789,11,27000.0,10,-997,-25,-7,-1,4432
1225,217742786,11,27000.0,10,-997,-24,-8,0,4432
1226,217842783,12,27000.0,10,-997,-23,-7,-2,4480
1227,217942794,11,27000.0,10,-996,-27,-9,-1,4480
1228,218042733,11,27000.0,10,-997,-25,-10,0,4432
1229,218142791,11,27000.0,10,-997,-22,-6,-3,4480
1230,218242785,12,27000.0,10,-997,-24,-8,0,4432
1231,218342784,11,27000.0,10,-997,-23,-8,-2,4480
1232,218442781,11,27000.0,10,-996,-24,-8,-2,4480
1233,218542785,11,27000.0,10,-996,-23,-7,-4,4480
1234,218642774,11,27000.0,10,-996,-25,-9,0,4480
1235,218742787,11,27000.0,10,-997,-22,-8,0,4432
1236,218842792,11,27000.0,10,-997,-24,-8,-2,4480
1237,218942783,11,27000.0,10,-997,-25,-9,0,4432
1238,219042787,11,27000.0,9,-997,-20,-10,-2,4432
1239,219142755,11,27000.0,10,-997,-25,-6,0,4480
1240,219242771,11,27000.0,10,-997,-26,-7,-1,4480
1241,219342780,11,27000.0,10,-997,-22,-10,-1,4480
1242,219442756,11,27000.0,10,-997,-22,-4,-2,4480
1243,219542784,11,27000.0,10,-997,-24,-7,-2,4480
1244,219642768,11,27000.0,10,-997,-23,-6,-3,4480
1245,219742797,11,27000.0,10,-997,-24,-10,-1,4480
1246,219842780,11,27000.0,10,-997,-24,-9,-1,4432
1247,219942784,11,27000.0,9,-997,-25,-9,-3,4432
1248,220042779,11,27000.0,10,-997,-23,-9,-2,4432
1249,220142738,11,27000.0,10,-997,-25,-6,-2,4480
1250,222142745,11,27100.0,10,-998,-20,-11,-1,4480
1251,222242760,11,27100.0,11,-998,-23,-6,-4,4480
1252,222342788,11,27100.0,10,-998,-23,-8,0,4480
1253,222442795,11,27100.0,10,-998,-22,-9,-2,4432
1254,222542787,11,27100.0,10,-998,-24,-8,-1,4432
1255,222642738,11,27100.0,10,-998,-26,-10,-1,4480
1256,222742785,11,27100.0,10,-998,-24,-3,-1,4480
1257,222842740,11,27100.0,10,-999,-23,-11,-2,4432
1258,222942797,11,27100.0,10,-998,-22,-7,-1,4432
1259,223042753,11,27100.0,10,-998,-22,-9,-2,4480
1260,223142780,11,27100.0,10,-998,-20,-6,-2,4480
1261,223242745,11,27100.0,10,-998,-23,-11,-2,4480
1262,223342794,11,27100.0,9,-997,-22,-7,-3,4432
1263,223442786,11,27100.0,10,-998,-23,-9,0,4432
1264,223542785,11,27100.0,10,-997,-23,-9,-2,4432
1265,223642788,11,27100.0,10,-997,-24,-9,-3,4480
1266,223742731,11,27100.0,10,-997,-22,-7,-2,4432
1267,223842781,12,27100.0,10,-997,-22,-7,-2,4432
1268,223942735,11,27100.0,10,-997,-26,-7,0,4432
1269,224042787,11,27100.0,10,-997,-23,-10,-1,4432
1270,224142769,11,27100.0,10,-996,-25,-10,0,4432
1271,224242798,12,27100.0,10,-996,-20,-7,-2,4480
1272,224342793,11,27100.0,10,-997,-24,-10,-1,4432
1273,224442798,11,27100.0,10,-997,-23,-6,0,4480
1274,224542729,11,27100.0,10,-997,-25,-11,-1,4432
1275,224642732,11,27100.0,9,-997,-23,-7,0,4432
1276,224742761,11,27100.0,10,-997,-23,-6,0,4480
