,time_usec,xacc,frequency,yacc,zacc,xgyro,ygyro,zgyro,temperature
0,225098890,37,0.0,-55,-996,-23,-6,-2,4432
1,225489045,42,0.0,-55,-997,-22,-6,-3,4480
2,225586260,41,0.0,-56,-996,-22,-6,1,4480
3,225686184,42,0.0,-56,-995,-24,-5,-1,4480
4,225786209,40,0.0,-56,-995,-20,-7,0,4480
5,225886248,40,0.0,-54,-996,-19,-3,0,4432
6,225986205,43,0.0,-53,-996,-22,-9,0,4480
7,226086210,43,0.0,-53,-998,-21,-7,0,4480
8,226186208,40,0.0,-54,-997,-21,-9,0,4480
9,226286235,44,0.0,-52,-998,-21,-7,0,4432
10,226386208,41,0.0,-55,-997,-23,-9,-1,4480
11,226486210,41,0.0,-53,-996,-24,-7,-1,4480
12,226586248,39,0.0,-55,-996,-24,-5,0,4480
13,227086176,41,0.0,-55,-996,-23,-9,0,4480
14,227186221,41,0.0,-53,-996,-24,-6,-1,4480
15,227286180,41,0.0,-53,-996,-23,-6,-1,4480
16,227386209,40,0.0,-53,-996,-24,-6,0,4480
17,227486194,40,0.0,-54,-996,-24,-7,-1,4432
18,227586259,43,0.0,-53,-995,-25,-10,-1,4432
19,227686184,41,0.0,-54,-996,-27,-9,0,4480
20,227786210,41,0.0,-55,-995,-24,-10,-2,4432
21,227886197,41,0.0,-54,-995,-25,-7,-1,4432
22,227986232,42,0.0,-55,-995,-23,-6,-2,4480
23,228086238,41,0.0,-54,-997,-22,-9,-1,4432
24,228186220,42,0.0,-55,-996,-26,-7,-1,4432
25,228286197,42,0.0,-54,-996,-24,-9,0,4480
26,228386238,42,0.0,-54,-995,-27,-10,0,4432
27,228486176,42,0.0,-55,-996,-24,-11,0,4480
28,228586198,44,0.0,-54,-995,-22,-9,-1,4480
29,228686261,43,0.0,-54,-995,-24,-7,-2,4432
30,228786208,42,0.0,-55,-995,-24,-5,-1,4480
31,228886204,42,0.0,-55,-994,-24,-9,-2,4480
32,228986265,42,0.0,-54,-994,-22,-10,0,4480
33,229086243,42,0.0,-55,-994,-24,-7,-1,4480
34,229186207,41,0.0,-56,-995,-24,-9,-2,4480
35,229286242,41,0.0,-54,-995,-25,-11,0,4480
36,229386189,42,0.0,-56,-995,-23,-6,-2,4432
37,229486207,42,0.0,-56,-994,-22,-5,0,4480
38,229586254,42,0.0,-56,-995,-26,-5,0,4480
39,229686232,43,0.0,-55,-995,-23,-10,-1,4480
40,229786196,42,0.0,-56,-995,-22,-9,0,4432
41,229886221,39,0.0,-55,-995,-23,-5,0,4480
42,229986238,42,0.0,-53,-994,-23,-7,-2,4480
43,230086183,44,0.0,-53,-995,-22,-10,-1,4480
44,230186212,43,0.0,-54,-995,-27,-11,1,4432
45,230286243,41,0.0,-56,-996,-23,-6,-1,4432
46,230386179,44,0.0,-55,-995,-21,-9,-1,4480
47,230486216,42,0.0,-55,-994,-24,-9,-1,4480
48,230586237,42,0.0,-55,-994,-25,-9,1,4480
49,230686180,40,0.0,-55,-991,-24,-7,0,4432
50,230786210,43,0.0,-54,-993,-23,-9,-1,4480
51,230886244,45,0.0,-52,-995,-23,-11,0,4480
52,230986246,46,0.0,-53,-995,-28,-9,-3,4480
53,231086199,44,0.0,-56,-994,-32,-12,0,4480
54,231186245,43,0.0,-56,-993,-28,-9,-2,4432
55,231286180,42,0.0,-57,-994,-25,-9,-2,4480
56,231386214,44,0.0,-55,-995,-27,-9,-1,4432
57,231486249,42,0.0,-57,-995,-24,-6,-2,4480
58,231586192,42,0.0,-56,-995,-25,-10,-1,4480
59,231686214,43,0.0,-55,-995,-25,-11,0,4432
60,231786237,44,0.0,-55,-995,-24,-5,0,4480
61,231886179,41,0.0,-56,-996,-22,-5,-2,4480
62,231986192,42,0.0,-56,-995,-24,-10,-1,4480
63,232086256,43,0.0,-54,-996,-22,-7,-1,4480
64,232186191,43,0.0,-55,-996,-23,-9,0,4480
65,232286223,41,0.0,-54,-996,-22,-7,0,4480
66,232386238,42,0.0,-55,-996,-20,-9,-1,4480
67,232486203,42,0.0,-54,-996,-22,-9,0,4480
68,232586210,41,0.0,-54,-996,-23,-6,-3,4480
69,232686252,41,0.0,-53,-997,-22,-9,-3,4480
70,232786183,41,0.0,-55,-997,-22,-4,-1,4432
71,232886124,43,0.0,-54,-997,-20,-7,-1,4480
72,232986241,42,0.0,-55,-997,-20,-9,-1,4480
73,233086182,42,0.0,-55,-997,-25,-7,0,4480
74,233186215,41,0.0,-55,-996,-22,-9,-2,4432
75,233286245,42,0.0,-54,-998,-24,-5,-1,4480
76,233386252,42,0.0,-54,-998,-23,-7,0,4480
77,233486257,43,0.0,-53,-998,-24,-10,-2,4480
78,233586179,39,0.0,-55,-995,-27,-7,-1,4432
79,233686212,41,0.0,-51,-996,-27,-7,-1,4432
80,233786243,38,0.0,-55,-996,-26,-12,0,4480
81,233886238,36,0.0,-49,-994,-27,-6,-2,4432
82,233986242,41,0.0,-51,-998,-26,-10,0,4480
83,234086261,43,0.0,-52,-998,-27,-11,-2,4480
84,234186205,43,0.0,-55,-999,-23,-9,-3,4432
85,234286241,38,0.0,-54,-994,-27,-10,-1,4480
86,234386177,42,0.0,-51,-1000,-21,-4,-2,4432
87,234486211,43,0.0,-56,-998,-23,-4,0,4480
88,234586240,44,0.0,-52,-994,-22,-4,-3,4480
89,234686249,35,0.0,-54,-997,-25,-10,-4,4432
90,234786217,42,0.0,-49,-996,-27,-12,0,4480
91,234886217,42,0.0,-52,-996,-23,-11,-2,4432
92,234986247,42,0.0,-54,-995,-28,-10,0,4480
93,235086177,36,0.0,-53,-994,-23,-7,-1,4480
94,235186212,40,0.0,-52,-994,-26,-10,0,4432
95,235286229,42,0.0,-50,-995,-21,-9,-1,4432
96,235386188,40,0.0,-52,-996,-25,-12,0,4432
97,235486211,38,0.0,-53,-996,-21,-2,-2,4432
98,235586253,41,0.0,-51,-996,-25,-10,-1,4480
99,235686180,41,0.0,-52,-996,-21,-6,-3,4480
100,235786204,40,0.0,-51,-996,-24,-7,0,4432
101,235886267,38,0.0,-53,-995,-21,-6,-1,4480
102,235986244,40,0.0,-51,-995,-23,-7,0,4432
103,236086204,41,0.0,-51,-995,-23,-9,0,4432
104,236186213,39,0.0,-51,-995,-23,-11,-2,4480
105,236286239,39,0.0,-52,-995,-23,-9,-1,4432
106,236386180,39,0.0,-51,-995,-22,-10,0,4480
107,236486194,41,0.0,-52,-995,-24,-7,1,4480
108,236586242,39,0.0,-51,-995,-22,-7,1,4432
109,236686226,40,0.0,-52,-995,-24,-7,0,4480
110,236786222,39,0.0,-51,-995,-22,-7,0,4480
111,236886231,40,0.0,-52,-995,-23,-9,-2,4480
112,236986250,39,0.0,-51,-995,-24,-7,-1,4480
113,237086239,39,0.0,-52,-996,-25,-7,0,4480
114,237186198,40,0.0,-51,-995,-23,-6,-1,4480
115,237286200,40,0.0,-52,-995,-22,-6,-1,4480
116,237386265,40,0.0,-51,-995,-22,-5,0,4480
117,237486233,39,0.0,-52,-995,-24,-9,-2,4480
118,237586207,40,0.0,-51,-996,-23,-7,0,4480
119,237686257,40,0.0,-52,-996,-24,-6,-1,4480
120,237786203,40,0.0,-51,-995,-22,-6,-2,4480
121,237886195,40,0.0,-51,-995,-22,-7,-1,4432
122,237986244,40,0.0,-52,-995,-25,-9,-1,4480
123,238086197,40,0.0,-51,-995,-22,-7,-1,4480
124,238186210,40,0.0,-52,-996,-24,-6,0,4432
125,238286237,39,0.0,-51,-995,-25,-4,-1,4480
126,238386269,40,0.0,-52,-995,-23,-9,0,4480
127,238486202,40,0.0,-52,-995,-22,-7,-1,4480
128,238586238,40,0.0,-52,-995,-25,-11,-1,4480
129,238686198,40,0.0,-52,-996,-24,-7,-2,4480
130,238786217,40,0.0,-52,-996,-25,-11,-1,4480
131,238886262,40,0.0,-51,-996,-25,-7,-1,4480
132,238986249,40,0.0,-52,-996,-24,-7,-2,4480
133,239086203,40,0.0,-51,-996,-26,-7,-1,4480
134,239186208,40,0.0,-52,-997,-24,-9,-1,4480
135,239286286,40,0.0,-51,-997,-24,-9,-1,4480
136,239386224,40,0.0,-51,-996,-24,-5,-1,4480
137,239486205,40,0.0,-51,-996,-24,-6,-1,4480
138,239586264,40,0.0,-52,-997,-23,-10,-1,4480
139,239686180,40,0.0,-51,-997,-25,-7,0,4480
140,239786212,40,0.0,-51,-997,-21,-9,-1,4480
141,239886202,40,0.0,-52,-997,-22,-9,-2,4432
142,239986215,40,0.0,-52,-997,-23,-6,0,4432
143,240086253,40,0.0,-51,-997,-23,-7,-2,4480
144,240186272,40,0.0,-51,-996,-23,-9,-1,4480
145,240286212,40,0.0,-52,-996,-23,-9,-1,4480
146,240386236,40,0.0,-51,-997,-22,-4,-2,4480
147,240486241,40,0.0,-51,-996,-24,-5,-2,4480
148,240586181,40,0.0,-51,-997,-23,-10,0,4432
149,240686214,40,0.0,-51,-996,-24,-10,0,4480
150,240786245,39,0.0,-52,-997,-24,-9,-1,4480
151,240886207,41,0.0,-52,-997,-22,-9,-1,4432
152,240986220,40,0.0,-52,-997,-23,-10,-1,4432
153,241086252,40,0.0,-51,-997,-23,-7,-2,4480
154,241186181,40,0.0,-51,-997,-22,-9,-1,4480
155,241286184,39,0.0,-51,-997,-21,-6,-2,4480
156,241386205,40,0.0,-51,-996,-27,-11,0,4480
157,241486207,40,0.0,-52,-996,-21,-9,-1,4480
158,241586241,40,0.0,-51,-996,-20,-6,-1,4480
159,241686209,39,0.0,-51,-996,-22,-9,-1,4480
160,241786207,40,0.0,-51,-995,-22,-6,-3,4480
161,241886210,40,0.0,-51,-996,-23,-10,-2,4432
162,241986214,40,0.0,-52,-996,-24,-6,-1,4480
163,242086241,40,0.0,-51,-996,-24,-7,0,4480
164,242186252,40,0.0,-51,-996,-23,-11,0,4480
165,242286213,40,0.0,-51,-996,-23,-10,-2,4480
166,242386238,40,0.0,-51,-996,-22,-10,0,4480
167,242486183,40,0.0,-51,-996,-25,-7,-2,4480
168,242586193,40,0.0,-52,-995,-24,-9,0,4432
169,242686240,40,0.0,-51,-996,-24,-9,0,4480
170,242786261,40,0.0,-51,-995,-23,-7,0,4480
171,242886231,40,0.0,-51,-996,-22,-7,-1,4480
172,242986245,40,0.0,-51,-996,-24,-9,-2,4480
173,243086179,40,0.0,-51,-995,-21,-4,-1,4480
174,243186207,40,0.0,-52,-995,-21,-5,-1,4480
175,243286240,40,0.0,-52,-995,-24,-6,0,4480
176,243386177,40,0.0,-52,-996,-23,-10,1,4480
177,243486205,40,0.0,-51,-996,-23,-12,-1,4480
178,243586261,40,0.0,-51,-996,-22,-9,0,4480
179,243686205,40,0.0,-52,-996,-24,-10,-2,4480
180,243786214,40,0.0,-52,-996,-23,-7,1,4480
181,243886247,40,0.0,-51,-996,-25,-5,-1,4480
182,243986217,40,0.0,-51,-996,-25,-5,-4,4480
183,244086211,40,0.0,-51,-995,-24,-6,0,4480
184,244186244,40,0.0,-51,-995,-22,-7,-2,4432
185,244286254,40,0.0,-52,-996,-23,-10,0,4480
186,244386181,40,0.0,-51,-996,-24,-7,-3,4432
187,244486222,40,0.0,-52,-995,-21,-7,0,4480
188,244586236,40,0.0,-51,-996,-21,-5,-1,4480
189,244686260,40,0.0,-52,-995,-22,-7,-1,4480
190,244786212,40,0.0,-52,-996,-22,-7,-1,4480
191,244886247,40,0.0,-52,-996,-21,-6,-1,4432
192,244986182,40,0.0,-52,-996,-23,-7,0,4528
193,245086196,40,0.0,-51,-996,-24,-11,-2,4432
194,245186242,40,0.0,-51,-996,-24,-6,-1,4432
195,245286226,40,0.0,-52,-995,-24,-7,0,4480
196,245386260,39,0.0,-51,-995,-23,-10,0,4480
197,245486218,40,0.0,-51,-996,-25,-10,0,4432
198,245586207,40,0.0,-52,-996,-22,-7,0,4480
199,245686255,40,0.0,-51,-996,-25,-10,0,4480
200,252086177,38,25000.0,-52,-996,-22,-7,-1,4432
201,252186199,40,25000.0,-50,-996,-24,-11,0,4480
202,252286258,39,25000.0,-52,-995,-24,-10,0,4432
203,252386251,40,25000.0,-51,-996,-24,-5,-2,4480
204,252486195,39,25000.0,-51,-996,-23,-7,0,4480
205,252586241,40,25000.0,-51,-996,-23,-7,0,4480
206,252686184,39,25000.0,-51,-996,-20,-7,0,4480
207,252786209,40,25000.0,-52,-997,-23,-6,-2,4480
208,252886236,41,25000.0,-51,-996,-21,-7,0,4480
209,252986215,39,25000.0,-51,-996,-25,-9,-2,4480
210,253086209,42,25000.0,-51,-996,-22,-7,-2,4432
211,253186243,40,25000.0,-53,-996,-22,-10,-1,4480
212,253286198,41,25000.0,-51,-995,-25,-10,0,4480
213,253386160,39,25000.0,-52,-995,-25,-7,-1,4480
214,253486242,40,25000.0,-51,-996,-22,-9,-2,4480
215,253586202,39,25000.0,-52,-996,-25,-6,-1,4480
216,253686262,39,25000.0,-52,-996,-22,-5,0,4432
217,253786179,41,25000.0,-51,-996,-23,-10,-3,4480
218,253886194,40,25000.0,-51,-997,-23,-5,-3,4432
219,253986145,40,25000.0,-51,-996,-22,-7,-1,4480
220,254086245,39,25000.0,-52,-996,-23,-7,-1,4480
221,254186181,40,25000.0,-51,-997,-23,-7,0,4480
222,254286200,39,25000.0,-51,-996,-22,-9,-1,4480
223,254386202,40,25000.0,-51,-996,-21,-5,0,4480
224,254486246,39,25000.0,-52,-996,-21,-7,0,4480
225,254586212,42,25000.0,-57,-993,-29,-9,-2,4480
226,254686202,44,25000.0,-56,-993,-24,-11,0,4480
227,254786245,37,25000.0,-49,-997,-19,-3,0,4432
228,254886181,38,25000.0,-49,-996,-25,-10,0,4480
229,254986213,38,25000.0,-51,-994,-28,-9,-1,4432
230,255086241,42,25000.0,-50,-998,-20,-7,-1,4432
231,255186208,37,25000.0,-52,-995,-24,-6,-2,4480
232,255286213,40,25000.0,-52,-996,-23,-7,0,4480
233,255386237,39,25000.0,-52,-996,-23,-7,0,4480
234,255486214,41,25000.0,-51,-996,-24,-10,-3,4480
235,255586207,38,25000.0,-52,-996,-25,-11,0,4480
236,255686246,40,25000.0,-51,-996,-22,-9,0,4480
237,255786243,41,25000.0,-51,-996,-22,-6,-1,4480
238,255886206,40,25000.0,-51,-996,-25,-10,0,4480
239,255986205,40,25000.0,-51,-996,-23,-7,0,4480
240,256086236,47,25000.0,-50,-987,-22,26,2,4480
241,256186213,41,25000.0,-52,-993,-26,0,-2,4480
242,256286207,40,25000.0,-52,-996,-21,0,-3,4480
243,256386219,40,25000.0,-49,-996,-23,-3,0,4480
244,256486218,39,25000.0,-52,-997,-19,-5,-1,4480
245,256586257,40,25000.0,-49,-999,-22,-10,0,4480
246,256686207,39,25000.0,-50,-995,-23,-7,-1,4480
247,256786241,40,25000.0,-51,-997,-24,-9,-1,4432
248,256886227,40,25000.0,-54,-996,-28,-12,0,4480
249,256986218,32,25000.0,-48,-996,-24,-7,0,4432
250,259186192,42,25100.0,-51,-996,-24,-11,-1,4432
251,259286198,40,25100.0,-54,-994,-32,-11,0,4480
252,259386242,39,25100.0,-51,-997,-21,-3,0,4480
253,259486185,40,25100.0,-51,-996,-21,-9,0,4432
254,259586179,40,25100.0,-49,-996,-21,-5,0,4480
255,259686195,39,25100.0,-51,-997,-23,-12,0,4432
256,259786243,38,25100.0,-51,-996,-19,-6,-1,4432
257,259886191,40,25100.0,-50,-996,-21,-5,0,4480
258,259986208,41,25100.0,-51,-996,-23,-6,0,4432
259,260086242,39,25100.0,-51,-996,-23,-10,-1,4480
260,260186213,38,25100.0,-52,-996,-24,-9,0,4432
261,260286206,40,25100.0,-50,-996,-23,-6,0,4480
262,260386243,40,25100.0,-51,-996,-23,-6,-1,4480
263,260486200,39,25100.0,-51,-995,-25,-6,-1,4480
264,260586204,39,25100.0,-52,-995,-22,-4,0,4480
265,260686244,39,25100.0,-50,-995,-23,-6,-2,4480
266,260786238,41,25100.0,-51,-995,-23,-6,-1,4432
267,260886199,39,25100.0,-51,-995,-23,-9,-3,4480
268,260986204,40,25100.0,-52,-996,-24,-9,-1,4432
269,261086253,40,25100.0,-50,-996,-22,-7,-1,4480
270,261186203,40,25100.0,-51,-996,-22,-9,0,4480
271,261286195,39,25100.0,-51,-996,-25,-6,-1,4432
272,261386240,39,25100.0,-51,-995,-24,-10,0,4480
273,261486186,40,25100.0,-51,-996,-22,-7,0,4432
274,261586206,39,25100.0,-51,-996,-22,-11,-1,4480
275,261686243,40,25100.0,-51,-994,-22,-10,-2,4480
276,261786268,39,25100.0,-51,-995,-23,-6,0,4480
277,261886193,39,25100.0,-51,-996,-22,-6,-1,4480
278,261986240,40,25100.0,-51,-996,-21,-7,-2,4480
279,262086188,40,25100.0,-52,-996,-22,-7,-1,4480
280,262186199,39,25100.0,-51,-996,-24,-7,-1,4480
281,262286244,39,25100.0,-51,-996,-23,-7,-1,4480
282,262386265,39,25100.0,-51,-998,-22,-5,-3,4480
283,262486214,40,25100.0,-50,-996,-22,-5,0,4480
284,262586200,40,25100.0,-51,-996,-22,-6,0,4480
285,262686271,40,25100.0,-51,-996,-23,-6,0,4480
286,262786194,40,25100.0,-51,-996,-23,-10,0,4480
287,262886230,40,25100.0,-51,-996,-23,-7,0,4480
288,262986235,40,25100.0,-51,-996,-25,-7,0,4480
289,263086193,40,25100.0,-51,-997,-23,-5,-1,4432
290,263186211,40,25100.0,-51,-997,-22,-3,-2,4480
291,263286243,39,25100.0,-51,-997,-24,-12,0,4480
292,263386177,39,25100.0,-51,-997,-22,-10,-1,4432
293,263486200,40,25100.0,-51,-996,-22,-7,0,4480
294,263586244,40,25100.0,-51,-996,-22,-9,-2,4432
295,263686207,39,25100.0,-51,-997,-25,-6,-1,4432
296,263786199,40,25100.0,-52,-996,-25,-7,-1,4480
297,263886216,40,25100.0,-51,-996,-23,-9,0,4480
298,263986240,40,25100.0,-51,-997,-24,-9,0,4480
299,264086185,40,25100.0,-51,-996,-23,-7,0,4480
300,266186198,41,25200.0,-54,-996,-24,-7,-1,4432
301,266286256,41,25200.0,-52,-996,-23,-6,0,4432
302,266386255,40,25200.0,-52,-996,-22,-9,0,4432
303,266486208,40,25200.0,-51,-997,-23,-7,0,4480
304,266586199,40,25200.0,-51,-996,-22,-7,-1,4480
305,266686247,40,25200.0,-51,-996,-22,-10,0,4480
306,266786247,39,25200.0,-51,-996,-23,-6,0,4480
307,266886182,39,25200.0,-51,-996,-23,-10,1,4432
308,266986218,40,25200.0,-51,-996,-24,-9,0,4480
309,267086257,40,25200.0,-51,-996,-23,-9,0,4432
310,267186264,40,25200.0,-51,-996,-22,-7,0,4432
311,267286175,39,25200.0,-51,-996,-22,-6,-1,4480
312,267386195,40,25200.0,-51,-996,-22,-5,0,4480
313,267486242,40,25200.0,-51,-996,-21,-5,0,4480
314,267586177,40,25200.0,-51,-995,-21,-9,-1,4480
315,267686235,39,25200.0,-51,-995,-22,-7,-1,4480
316,267786226,40,25200.0,-51,-995,-23,-10,0,4480
317,267886205,40,25200.0,-53,-996,-23,-7,-3,4432
318,267986246,40,25200.0,-51,-999,-24,-9,-3,4480
319,268086253,39,25200.0,-54,-986,-22,15,-6,4480
320,268186207,38,25200.0,-59,-982,-115,68,-26,4432
321,268286241,29,25200.0,-34,-983,-52,-39,4,4432
322,268386177,56,25200.0,-64,-998,9,34,-6,4480
323,268486196,36,25200.0,-32,-997,-5,-12,-1,4480
324,268586259,42,25200.0,-31,-997,-2,9,-1,4480
325,268686191,47,25200.0,-49,-996,-9,4,0,4432
326,268786178,52,25200.0,-44,-990,-21,16,-4,4480
327,268886199,57,25200.0,-42,-999,14,-26,0,4432
328,268986210,38,25200.0,-73,-983,-77,18,0,4480
329,269086243,60,25200.0,-48,-993,-8,-50,0,4480
330,269186261,51,25200.0,-54,-992,-8,-5,-2,4480
331,269286192,44,25200.0,-51,-989,-87,-17,2,4480
332,269386240,50,25200.0,-14,-988,48,8,-2,4480
333,269486209,52,25200.0,-67,-987,-60,-14,3,4480
334,269586202,44,25200.0,-45,-1000,-37,-9,0,4432
335,269686250,53,25200.0,-62,-995,-25,-10,0,4432
336,269786256,48,25200.0,-50,-995,-25,-5,-1,4480
337,269886216,45,25200.0,-64,-996,-19,-12,0,4480
338,269986211,54,25200.0,-44,-996,-24,-9,-1,4432
339,270086245,46,25200.0,-61,-996,-22,-10,0,4480
340,270186276,53,25200.0,-47,-996,-25,-10,-1,4480
341,270286238,43,25200.0,-62,-996,-23,-9,0,4432
342,270386189,54,25200.0,-47,-996,-24,-6,0,4480
343,270486180,44,25200.0,-60,-996,-24,-6,-1,4480
344,270586219,52,25200.0,-48,-995,-22,-9,-1,4480
345,270686204,47,25200.0,-59,-996,-24,-9,0,4480
346,270786267,50,25200.0,-50,-996,-23,-10,-3,4480
347,270886210,49,25200.0,-57,-996,-24,-7,-2,4480
348,270986194,48,25200.0,-51,-996,-20,-10,-1,4480
349,271086239,50,25200.0,-56,-996,-25,-12,-1,4480
350,273386254,49,25300.0,-54,-995,-24,-6,-1,4432
351,273486273,49,25300.0,-54,-995,-23,-6,-2,4480
352,273586224,49,25300.0,-54,-995,-24,-4,-1,4480
353,273686238,49,25300.0,-54,-996,-22,-10,0,4480
354,273786252,49,25300.0,-54,-996,-24,-6,0,4480
355,273886239,49,25300.0,-53,-996,-22,-9,0,4480
356,273986178,48,25300.0,-53,-996,-25,-9,-1,4480
357,274086185,49,25300.0,-54,-996,-25,-7,0,4480
358,274186211,48,25300.0,-54,-995,-25,-6,0,4480
359,274286248,49,25300.0,-53,-996,-23,-9,-1,4480
360,274386241,49,25300.0,-53,-996,-24,-7,-2,4480
361,274486184,49,25300.0,-54,-995,-23,-3,-2,4480
362,274586176,49,25300.0,-54,-996,-25,-7,0,4480
363,274686208,48,25300.0,-54,-996,-22,-5,-2,4480
364,274786252,49,25300.0,-54,-996,-25,-6,-1,4480
365,274886178,49,25300.0,-54,-996,-24,-6,0,4480
366,274986249,49,25300.0,-53,-996,-24,-6,-2,4480
367,275086208,48,25300.0,-54,-996,-23,-6,-2,4480
368,275186210,49,25300.0,-51,-995,-12,-11,0,4480
369,275286246,47,25300.0,-56,-995,-8,-17,-3,4480
370,275386198,47,25300.0,-55,-994,-27,-5,0,4432
371,275486200,48,25300.0,-53,-995,-27,-10,0,4480
372,275586241,50,25300.0,-53,-995,-28,-4,-1,4480
373,275686215,49,25300.0,-55,-994,-25,-6,-1,4480
374,275786209,49,25300.0,-55,-996,-26,-5,-1,4480
375,275886251,48,25300.0,-54,-996,-22,-7,1,4432
376,275986185,50,25300.0,-51,-997,-23,-6,-1,4480
377,276086199,48,25300.0,-53,-995,-26,-7,0,4480
378,276186254,49,25300.0,-53,-997,-18,-7,-2,4480
379,276286240,49,25300.0,-55,-996,-22,-11,0,4480
380,276386176,48,25300.0,-58,-998,-25,-13,0,4480
381,276486216,49,25300.0,-55,-997,-27,-10,-3,4432
382,276586238,49,25300.0,-54,-995,-22,-7,0,4480
383,276686187,50,25300.0,-55,-996,-27,-10,0,4480
384,276786206,50,25300.0,-55,-996,-24,-9,0,4480
385,276886248,50,25300.0,-56,-996,-20,-12,0,4432
386,276986191,50,25300.0,-57,-997,-21,-9,-2,4480
387,277086202,49,25300.0,-55,-996,-25,-4,-2,4480
388,277186246,49,25300.0,-55,-995,-21,-9,0,4480
389,277286179,48,25300.0,-52,-996,-23,-7,-1,4480
390,277386210,48,25300.0,-53,-995,-22,-7,-2,4480
391,277486248,48,25300.0,-54,-997,-22,-4,0,4480
392,277586180,49,25300.0,-58,-996,-26,-10,0,4480
393,277686209,49,25300.0,-53,-995,-22,-7,-1,4480
394,277786210,49,25300.0,-55,-996,-25,-9,-1,4480
395,277886255,49,25300.0,-53,-996,-23,-6,-1,4432
396,277986243,47,25300.0,-54,-995,-22,-9,0,4480
397,278086186,48,25300.0,-54,-996,-19,-7,-1,4480
398,278186198,48,25300.0,-53,-996,-22,-9,0,4432
399,278286238,49,25300.0,-53,-997,-20,-6,-1,4480
400,280386204,48,25400.0,-54,-995,-23,-6,-2,4480
401,280486252,49,25400.0,-54,-995,-23,-5,0,4480
402,280586176,48,25400.0,-53,-995,-20,-5,-2,4432
403,280686220,48,25400.0,-54,-995,-22,-6,-1,4480
404,280786229,49,25400.0,-53,-995,-26,-9,-1,4480
405,280886182,48,25400.0,-55,-995,-23,-10,-2,4480
406,280986206,49,25400.0,-53,-996,-24,-7,-2,4480
407,281086211,49,25400.0,-54,-995,-24,-7,-1,4480
408,281186247,48,25400.0,-53,-995,-23,-7,-3,4432
409,281286182,48,25400.0,-54,-995,-24,-10,-1,4480
410,281386229,49,25400.0,-53,-995,-23,-10,0,4480
411,281486245,49,25400.0,-54,-995,-23,-7,-1,4480
412,281586245,48,25400.0,-53,-995,-23,-6,0,4480
413,281686181,49,25400.0,-54,-996,-25,-7,-2,4480
414,281786210,48,25400.0,-54,-995,-22,-6,-1,4480
415,281886249,49,25400.0,-53,-996,-24,-7,-2,4432
416,281986178,48,25400.0,-53,-996,-23,-9,-1,4432
417,282086178,49,25400.0,-53,-995,-25,-9,0,4480
418,282186222,48,25400.0,-54,-996,-23,-6,0,4480
419,282286254,49,25400.0,-54,-996,-22,-12,-2,4480
420,282386174,48,25400.0,-54,-996,-24,-5,-2,4480
421,282486199,49,25400.0,-54,-995,-27,-6,-2,4432
422,282586238,49,25400.0,-54,-996,-22,-7,-4,4480
423,282686187,48,25400.0,-54,-996,-23,-10,1,4480
424,282786224,49,25400.0,-54,-996,-23,-6,1,4480
425,282886246,49,25400.0,-54,-996,-23,-6,0,4480
426,282986178,48,25400.0,-53,-996,-24,-6,-1,4480
427,283086193,49,25400.0,-54,-995,-24,-9,0,4432
428,283186217,49,25400.0,-53,-996,-21,-6,-2,4480
429,283286202,49,25400.0,-54,-996,-24,-9,0,4480
430,283386247,48,25400.0,-54,-996,-23,-10,-2,4480
431,283486205,48,25400.0,-54,-996,-24,-9,-3,4432
432,283586205,48,25400.0,-53,-996,-24,-6,0,4480
433,283686248,49,25400.0,-54,-996,-24,-9,-2,4480
434,283786201,49,25400.0,-54,-996,-26,-9,-2,4480
435,283886232,49,25400.0,-54,-996,-24,-10,-1,4480
436,283986249,49,25400.0,-54,-996,-22,-9,-2,4480
437,284086234,48,25400.0,-54,-996,-23,-9,-1,4432
438,284186212,48,25400.0,-54,-996,-23,-5,0,4480
439,284286211,48,25400.0,-53,-996,-23,-7,-1,4480
440,284386250,48,25400.0,-53,-996,-23,-9,-1,4480
441,284486189,48,25400.0,-53,-995,-26,-9,-1,4480
442,284586199,49,25400.0,-54,-996,-24,-9,-1,4480
443,284686242,48,25400.0,-54,-996,-23,-7,-3,4480
444,284786202,49,25400.0,-54,-996,-24,-7,-2,4432
445,284886260,48,25400.0,-54,-996,-24,-9,0,4480
446,284986212,49,25400.0,-54,-996,-25,-7,-1,4480
447,285086251,48,25400.0,-54,-996,-22,-12,-1,4480
448,285186191,49,25400.0,-54,-996,-24,-7,-1,4480
449,285286203,48,25400.0,-54,-996,-24,-10,1,4480
450,287686255,49,25500.0,-54,-995,-25,-5,-3,4480
451,287786198,49,25500.0,-54,-995,-23,-9,-1,4480
452,287886241,48,25500.0,-53,-995,-24,-7,-1,4480
453,287986199,48,25500.0,-53,-996,-25,-6,-2,4480
454,288086243,49,25500.0,-54,-995,-24,-9,-1,4480
455,288186188,49,25500.0,-54,-996,-24,-7,-2,4480
456,288286200,48,25500.0,-54,-995,-23,-10,-1,4480
457,288386240,48,25500.0,-54,-995,-25,-3,-1,4432
458,288486178,48,25500.0,-54,-996,-23,-9,-3,4480
459,288586207,48,25500.0,-54,-996,-27,-12,-1,4480
460,288686240,49,25500.0,-54,-996,-23,-9,0,4480
461,288786237,49,25500.0,-53,-996,-22,-7,0,4432
462,288886211,49,25500.0,-54,-996,-23,-9,0,4480
463,288986211,48,25500.0,-54,-996,-25,-7,-2,4480
464,289086248,48,25500.0,-54,-996,-24,-6,-1,4480
465,289186187,49,25500.0,-54,-996,-24,-6,-2,4480
466,289286198,48,25500.0,-53,-996,-22,-7,-1,4480
467,289386250,49,25500.0,-54,-997,-24,-10,-1,4480
468,289486250,48,25500.0,-53,-996,-22,-6,0,4480
469,289586205,48,25500.0,-53,-996,-23,-7,-1,4480
470,289686240,49,25500.0,-54,-997,-23,-10,0,4480
471,289786182,49,25500.0,-54,-996,-23,-11,-3,4480
472,289886222,48,25500.0,-54,-996,-24,-9,-1,4480
473,289986197,49,25500.0,-54,-996,-25,-7,0,4432
474,290086244,48,25500.0,-53,-997,-23,-11,0,4480
475,290186205,48,25500.0,-54,-996,-21,-6,-3,4480
476,290286205,49,25500.0,-54,-997,-22,-7,0,4432
477,290386266,49,25500.0,-54,-996,-25,-7,-2,4480
478,290486235,48,25500.0,-54,-996,-23,-6,-2,4480
479,290586207,48,25500.0,-54,-996,-24,-9,0,4480
480,290686205,48,25500.0,-54,-996,-24,-10,-2,4480
481,290786245,48,25500.0,-54,-997,-22,-6,0,4480
482,290886208,48,25500.0,-54,-997,-25,-10,0,4480
483,290986214,49,25500.0,-53,-996,-26,-4,0,4432
484,291086199,49,25500.0,-53,-997,-21,-9,-1,4432
485,291186253,48,25500.0,-53,-996,-25,-10,-2,4480
486,291286250,48,25500.0,-53,-996,-23,-9,1,4480
487,291386194,48,25500.0,-54,-997,-23,-9,0,4480
488,291486248,49,25500.0,-53,-996,-23,-6,0,4480
489,291586252,49,25500.0,-53,-996,-24,-7,-2,4480
490,291686208,49,25500.0,-54,-996,-24,-7,0,4432
491,291786245,48,25500.0,-54,-996,-23,-6,0,4480
492,291886202,48,25500.0,-54,-996,-24,-5,0,4480
493,291986174,49,25500.0,-54,-996,-20,-5,-1,4480
494,292086213,48,25500.0,-54,-996,-26,-11,-1,4480
495,292186222,48,25500.0,-53,-996,-23,-10,-2,4480
496,292286256,49,25500.0,-54,-996,-26,-9,0,4432
497,292386201,48,25500.0,-54,-996,-22,-7,-1,4480
498,292486201,48,25500.0,-53,-995,-23,-10,-1,4480
499,292586196,48,25500.0,-53,-996,-22,-7,-1,4480
500,294586191,49,25600.0,-54,-995,-24,-7,-1,4480
501,294686186,48,25600.0,-53,-996,-21,-5,0,4480
502,294786209,49,25600.0,-54,-996,-24,-5,0,4480
503,294886211,49,25600.0,-54,-995,-23,-7,-1,4480
504,294986250,49,25600.0,-54,-996,-24,-9,0,4480
505,295086238,48,25600.0,-54,-995,-24,-7,0,4480
506,295186199,49,25600.0,-54,-995,-22,-4,0,4480
507,295286240,48,25600.0,-53,-995,-21,-4,0,4480
508,295386259,48,25600.0,-54,-996,-25,-11,0,4432
509,295486196,49,25600.0,-54,-995,-26,-9,0,4480
510,295586250,48,25600.0,-53,-995,-23,-6,0,4480
511,295686213,48,25600.0,-54,-995,-21,-9,-3,4480
512,295786209,48,25600.0,-54,-995,-25,-7,0,4480
513,295886251,49,25600.0,-53,-995,-22,-7,-1,4480
514,295986179,48,25600.0,-54,-995,-23,-7,0,4432
515,296086202,49,25600.0,-53,-995,-23,-6,0,4480
516,296186241,49,25600.0,-53,-996,-22,-6,-2,4480
517,296286183,49,25600.0,-54,-996,-22,-11,-1,4480
518,296386204,49,25600.0,-53,-996,-25,-6,0,4480
519,296486200,48,25600.0,-53,-996,-24,-6,0,4480
520,296586238,49,25600.0,-54,-996,-25,-7,-2,4480
521,296686258,49,25600.0,-53,-996,-24,-9,-1,4432
522,296786184,49,25600.0,-53,-996,-23,-7,0,4432
523,296886209,48,25600.0,-53,-995,-23,-10,-1,4480
524,296986245,48,25600.0,-54,-996,-23,-7,-2,4480
525,297086236,48,25600.0,-54,-996,-23,-11,0,4480
526,297186210,48,25600.0,-53,-996,-24,-10,-2,4480
527,297286207,48,25600.0,-54,-995,-23,-11,0,4480
528,297386244,48,25600.0,-53,-996,-23,-9,0,4480
529,297486205,49,25600.0,-54,-996,-24,-9,-2,4480
530,297586214,49,25600.0,-54,-996,-24,-10,-1,4480
531,297686258,49,25600.0,-53,-996,-24,-9,0,4480
532,297786185,48,25600.0,-53,-996,-23,-7,-2,4480
533,297886205,48,25600.0,-54,-996,-23,-10,1,4480
534,297986231,49,25600.0,-54,-996,-22,-5,-2,4480
535,298086178,49,25600.0,-54,-996,-23,-11,0,4480
536,298186203,49,25600.0,-54,-996,-24,-7,-1,4480
537,298286263,48,25600.0,-53,-996,-25,-5,0,4480
538,298386211,49,25600.0,-53,-996,-24,-7,-2,4432
539,298486225,49,25600.0,-53,-996,-25,-9,-1,4480
540,298586241,49,25600.0,-54,-996,-24,-7,-1,4480
541,298686181,48,25600.0,-54,-996,-25,-9,0,4480
542,298786197,49,25600.0,-54,-996,-26,-6,0,4480
543,298886241,48,25600.0,-53,-996,-24,-7,0,4480
544,298986200,48,25600.0,-54,-996,-24,-7,0,4480
545,299086232,48,25600.0,-54,-996,-25,-6,0,4432
546,299186231,48,25600.0,-53,-996,-23,-10,0,4480
547,299286248,48,25600.0,-54,-996,-24,-7,-2,4480
548,299386253,49,25600.0,-54,-996,-24,-7,0,4480
549,299486178,49,25600.0,-54,-996,-23,-7,0,4480
550,301586176,48,25700.0,-54,-996,-22,-7,-1,4480
551,301686217,49,25700.0,-53,-996,-25,-9,0,4480
552,301786199,49,25700.0,-53,-996,-23,-10,-2,4480
553,301886244,49,25700.0,-53,-996,-23,-7,0,4480
554,301986186,48,25700.0,-53,-996,-23,-9,-2,4432
555,302086226,49,25700.0,-54,-996,-25,-7,0,4480
556,302186241,49,25700.0,-54,-996,-25,-9,0,4480
557,302286252,48,25700.0,-53,-995,-22,-10,-2,4480
558,302386177,49,25700.0,-53,-996,-25,-11,-1,4480
559,302486198,49,25700.0,-53,-996,-24,-6,-2,4480
560,302586226,49,25700.0,-54,-995,-23,-9,-1,4480
561,302686245,49,25700.0,-53,-996,-24,-7,-1,4480
562,302786185,48,25700.0,-53,-995,-23,-9,-1,4480
563,302886213,48,25700.0,-54,-996,-22,-7,-1,4480
564,302986239,48,25700.0,-54,-996,-24,-7,0,4480
565,303086238,48,25700.0,-53,-995,-23,-5,-3,4480
566,303186181,49,25700.0,-53,-996,-25,-10,0,4480
567,303286206,49,25700.0,-54,-995,-22,-7,-1,4432
568,303386231,49,25700.0,-53,-997,-25,-9,0,4480
569,303486183,49,25700.0,-54,-996,-23,-6,1,4480
570,303586208,48,25700.0,-54,-995,-23,-9,0,4480
571,303686249,49,25700.0,-53,-995,-23,-7,-2,4480
572,303786223,48,25700.0,-53,-996,-23,-5,-1,4480
573,303886209,48,25700.0,-54,-996,-25,-4,0,4480
574,303986238,48,25700.0,-54,-996,-22,-7,1,4480
575,304086184,49,25700.0,-53,-997,-25,-6,-1,4480
576,304186216,48,25700.0,-54,-996,-23,-9,-1,4480
577,304286247,47,25700.0,-53,-996,-24,-6,0,4480
578,304386241,48,25700.0,-53,-995,-23,-7,-2,4480
579,304486178,49,25700.0,-53,-995,-23,-9,-2,4480
580,304586205,48,25700.0,-54,-995,-24,-9,-1,4480
581,304686245,49,25700.0,-53,-996,-24,-10,0,4480
582,304786193,48,25700.0,-54,-995,-23,-10,0,4480
583,304886209,49,25700.0,-53,-996,-24,-4,0,4432
584,304986252,49,25700.0,-53,-996,-23,-4,-2,4480
585,305086182,49,25700.0,-54,-996,-21,-7,-1,4480
586,305186201,49,25700.0,-53,-996,-22,-7,-1,4480
587,305286232,48,25700.0,-54,-997,-23,-11,0,4480
588,305386178,49,25700.0,-53,-996,-23,-7,-2,4432
589,305486209,49,25700.0,-53,-996,-24,-9,0,4480
590,305586259,48,25700.0,-53,-996,-25,-11,-1,4480
591,305686248,49,25700.0,-53,-997,-23,-4,-1,4432
592,305786225,48,25700.0,-53,-995,-24,-5,-1,4480
593,305886247,48,25700.0,-53,-996,-23,-9,0,4480
594,305986236,49,25700.0,-53,-996,-21,-7,0,4480
595,306086174,49,25700.0,-54,-996,-22,-9,0,4480
596,306186225,49,25700.0,-54,-996,-22,-9,-2,4432
597,306286195,48,25700.0,-53,-997,-23,-9,-1,4480
598,306386254,49,25700.0,-53,-997,-26,-7,-1,4480
599,306486194,49,25700.0,-53,-997,-24,-7,0,4480
600,308686214,48,25800.0,-53,-996,-24,-7,0,4480
601,308786242,49,25800.0,-53,-996,-24,-11,-2,4480
602,308886186,48,25800.0,-53,-995,-22,-10,0,4432
603,308986213,49,25800.0,-53,-996,-25,-6,-1,4480
604,309086260,48,25800.0,-54,-996,-24,-9,-1,4432
605,309186210,48,25800.0,-53,-996,-23,-10,-2,4480
606,309286206,49,25800.0,-53,-996,-24,-4,-2,4480
607,309386245,49,25800.0,-53,-996,-24,-6,-2,4480
608,309486188,49,25800.0,-53,-996,-24,-9,0,4432
609,309586208,49,25800.0,-53,-996,-25,-9,0,4432
610,309686252,49,25800.0,-53,-997,-23,-10,-4,4480
611,309786184,49,25800.0,-53,-997,-23,-11,0,4480
612,309886221,49,25800.0,-53,-996,-24,-7,0,4480
613,309986244,49,25800.0,-54,-996,-25,-9,0,4480
614,310086212,49,25800.0,-53,-996,-23,-7,-2,4480
615,310186219,48,25800.0,-54,-996,-24,-11,0,4480
616,310286255,49,25800.0,-54,-995,-22,-6,0,4480
617,310386182,49,25800.0,-53,-996,-26,-7,0,4432
618,310486209,48,25800.0,-54,-995,-22,-10,0,4480
619,310586242,49,25800.0,-53,-995,-22,-11,0,4480
620,310686183,48,25800.0,-54,-996,-23,-10,-2,4480
621,310786196,49,25800.0,-53,-995,-24,-7,0,4480
622,310886239,49,25800.0,-53,-996,-24,-9,-1,4480
623,310986179,48,25800.0,-53,-996,-23,-9,-2,4480
624,311086218,49,25800.0,-53,-995,-22,-7,0,4480
625,311186245,48,25800.0,-53,-995,-23,-10,0,4480
626,311286179,49,25800.0,-53,-996,-25,-10,0,4480
627,311386207,49,25800.0,-53,-995,-23,-7,-2,4480
628,311486243,48,25800.0,-54,-996,-23,-9,-2,4480
629,311586179,48,25800.0,-53,-996,-26,-7,-2,4480
630,311686210,48,25800.0,-54,-995,-25,-7,0,4480
631,311786212,49,25800.0,-54,-996,-23,-9,-1,4480
632,311886202,48,25800.0,-53,-996,-26,-7,-1,4480
633,311986258,49,25800.0,-53,-995,-25,-6,0,4480
634,312086181,48,25800.0,-53,-996,-22,-10,-2,4480
635,312186233,48,25800.0,-53,-996,-24,-10,-2,4480
636,312286239,49,25800.0,-53,-995,-22,-6,-2,4432
637,312386211,49,25800.0,-54,-996,-23,-9,0,4480
638,312486221,48,25800.0,-53,-996,-23,-7,-1,4480
639,312586251,49,25800.0,-53,-996,-22,-9,0,4480
640,312686186,49,25800.0,-53,-996,-24,-7,0,4480
641,312786198,49,25800.0,-54,-996,-23,-7,-1,4480
642,312886210,49,25800.0,-53,-996,-25,-11,-1,4480
643,312986198,49,25800.0,-53,-996,-23,-9,-1,4480
644,313086252,48,25800.0,-53,-996,-25,-9,0,4480
645,313186247,49,25800.0,-53,-996,-23,-6,-1,4480
646,313286201,49,25800.0,-53,-996,-22,-7,-2,4432
647,313386211,49,25800.0,-53,-997,-20,-7,-3,4480
648,313486243,47,25800.0,-57,-997,-26,-5,-1,4480
649,313586241,50,25800.0,-52,-996,-21,-12,-1,4480
650,315886241,48,25900.0,-53,-996,-23,-6,-3,4480
651,315986179,47,25900.0,-55,-995,-26,-7,1,4480
652,316086198,47,25900.0,-54,-996,-22,-7,0,4432
653,316186249,48,25900.0,-54,-996,-22,-6,-1,4480
654,316286229,48,25900.0,-54,-995,-22,-6,-1,4480
655,316386216,47,25900.0,-54,-996,-24,-11,0,4432
656,316486244,47,25900.0,-55,-995,-21,-4,-2,4432
657,316586228,48,25900.0,-54,-995,-25,-6,-1,4480
658,316686245,48,25900.0,-54,-995,-24,-10,-2,4480
659,316786180,48,25900.0,-53,-995,-22,-9,-1,4480
660,316886210,48,25900.0,-55,-996,-25,-9,-2,4480
661,316986202,48,25900.0,-54,-996,-24,-9,0,4480
662,317086253,47,25900.0,-55,-995,-23,-10,-1,4480
663,317186259,48,25900.0,-54,-996,-26,-7,0,4432
664,317286177,48,25900.0,-54,-995,-24,-10,1,4480
665,317386200,48,25900.0,-54,-995,-21,-6,-3,4480
666,317486248,48,25900.0,-54,-996,-22,-6,-1,4480
667,317586190,47,25900.0,-54,-995,-23,-7,0,4432
668,317686188,48,25900.0,-54,-996,-25,-10,0,4480
669,317786198,47,25900.0,-55,-996,-24,-6,0,4480
670,317886184,48,25900.0,-53,-996,-23,-9,-1,4480
671,317986196,48,25900.0,-55,-996,-24,-10,0,4480
672,318086256,48,25900.0,-54,-996,-23,-6,-1,4480
673,318186238,48,25900.0,-54,-996,-22,-6,-1,4480
674,318286213,48,25900.0,-54,-995,-25,-12,0,4480
675,318386201,47,25900.0,-54,-996,-24,-10,-2,4480
676,318486250,48,25900.0,-54,-996,-24,-6,0,4480
677,318586227,47,25900.0,-54,-996,-22,-10,-1,4480
678,318686203,48,25900.0,-55,-996,-24,-7,-1,4480
679,318786203,48,25900.0,-54,-995,-22,-9,-2,4480
680,318886253,48,25900.0,-54,-996,-26,-11,0,4480
681,318986264,48,25900.0,-54,-996,-25,-10,0,4480
682,319086205,48,25900.0,-54,-996,-21,-9,-1,4480
683,319186249,48,25900.0,-54,-996,-26,-5,0,4480
684,319286181,48,25900.0,-54,-996,-23,-7,-1,4432
685,319386232,48,25900.0,-54,-996,-24,-7,0,4480
686,319486189,48,25900.0,-54,-996,-24,-11,-1,4480
687,319586222,48,25900.0,-54,-996,-23,-7,-1,4480
688,319686260,47,25900.0,-54,-996,-21,-6,-1,4480
689,319786226,47,25900.0,-54,-996,-26,-9,0,4480
690,319886224,48,25900.0,-54,-996,-24,-6,-1,4480
691,319986250,48,25900.0,-54,-997,-25,-9,0,4480
692,320086176,47,25900.0,-53,-997,-34,-13,0,4432
693,320186199,46,25900.0,-49,-998,-19,-5,-1,4432
694,320286239,47,25900.0,-53,-997,-23,-6,0,4480
695,320386214,49,25900.0,-52,-996,-24,-6,-2,4432
696,320486204,48,25900.0,-56,-997,-23,-10,0,4480
697,320586269,49,25900.0,-52,-996,-22,-7,-2,4480
698,320686186,47,25900.0,-55,-996,-25,-7,-1,4480
699,320786209,49,25900.0,-54,-996,-27,-7,-1,4480
700,322686256,49,26000.0,-54,-996,-28,-7,1,4480
701,322786193,47,26000.0,-55,-996,-26,-7,-1,4432
702,322886200,48,26000.0,-54,-996,-24,-9,0,4480
703,322986248,49,26000.0,-54,-996,-23,-9,0,4480
704,323086178,48,26000.0,-53,-996,-23,-7,0,4480
705,323186215,49,26000.0,-54,-996,-23,-7,-1,4480
706,323286248,47,26000.0,-54,-997,-25,-4,0,4480
707,323386180,48,26000.0,-54,-996,-24,-12,0,4480
708,323486206,48,26000.0,-53,-996,-27,-11,-2,4480
709,323586252,47,26000.0,-54,-996,-26,-5,0,4480
710,323686188,48,26000.0,-54,-996,-23,-9,-1,4480
711,323786217,48,26000.0,-55,-996,-24,-7,0,4480
712,323886249,48,26000.0,-54,-996,-23,-10,-1,4480
713,323986197,48,26000.0,-54,-996,-24,-7,-3,4480
714,324086206,48,26000.0,-53,-995,-23,-11,-2,4432
715,324186239,48,26000.0,-54,-996,-27,-10,0,4480
716,324286176,47,26000.0,-53,-997,-23,-11,0,4480
717,324386210,48,26000.0,-54,-995,-26,-11,1,4480
718,324486231,48,26000.0,-54,-996,-25,-5,0,4480
719,324586211,47,26000.0,-53,-996,-24,-7,-1,4480
720,324686217,48,26000.0,-54,-996,-24,-6,-2,4480
721,324786248,47,26000.0,-54,-996,-24,-6,0,4480
722,324886178,48,26000.0,-53,-997,-23,-6,0,4480
723,324986193,48,26000.0,-54,-996,-24,-10,-1,4480
724,325086218,48,26000.0,-54,-997,-22,-9,-1,4480
725,325186212,48,26000.0,-54,-996,-23,-7,-2,4480
726,325286215,48,26000.0,-54,-996,-24,-9,0,4480
727,325386235,48,26000.0,-54,-997,-24,-7,-3,4480
728,325486180,48,26000.0,-54,-997,-24,-7,0,4480
729,325586192,48,26000.0,-54,-996,-23,-7,-1,4480
730,325686198,48,26000.0,-53,-996,-22,-9,0,4480
731,325786198,48,26000.0,-54,-996,-25,-7,0,4432
732,325886232,48,26000.0,-54,-996,-26,-11,0,4480
733,325986244,48,26000.0,-54,-996,-23,-9,-1,4480
734,326086174,48,26000.0,-54,-996,-24,-4,0,4480
735,326186223,48,26000.0,-54,-996,-22,-9,0,4480
736,326286237,48,26000.0,-54,-996,-24,-9,-1,4480
737,326386176,48,26000.0,-54,-996,-24,-7,-1,4480
738,326486247,48,26000.0,-54,-996,-23,-7,0,4480
739,326586249,48,26000.0,-54,-997,-23,-9,0,4480
740,326686193,48,26000.0,-54,-996,-23,-5,-2,4480
741,326786215,48,26000.0,-54,-996,-22,-5,-1,4480
742,326886259,48,26000.0,-53,-996,-25,-11,0,4480
743,326986176,48,26000.0,-53,-996,-25,-11,-2,4480
744,327086208,48,26000.0,-54,-997,-25,-7,-1,4432
745,327186240,47,26000.0,-54,-996,-22,-10,0,4432
746,327286252,48,26000.0,-54,-997,-22,-7,0,4432
747,327386210,47,26000.0,-54,-996,-26,-7,-2,4480
748,327486211,48,26000.0,-53,-997,-24,-9,-1,4480
749,327586244,48,26000.0,-54,-997,-23,-9,0,4480
750,330086190,47,26100.0,-54,-995,-25,-6,0,4480
751,330186202,48,26100.0,-55,-997,-24,-9,0,4480
752,330286243,48,26100.0,-54,-996,-23,-11,-2,4480
753,330386191,48,26100.0,-54,-996,-25,-5,-1,4480
754,330486194,49,26100.0,-53,-996,-25,-11,0,4432
755,330586242,48,26100.0,-53,-996,-24,-9,-2,4432
756,330686213,48,26100.0,-55,-997,-22,-9,-1,4480
757,330786214,48,26100.0,-53,-996,-23,-6,-1,4480
758,330886248,47,26100.0,-53,-994,-27,-6,0,4480
759,330986193,48,26100.0,-53,-996,-23,-9,0,4480
760,331086203,46,26100.0,-54,-996,-26,-10,-1,4432
761,331186240,48,26100.0,-54,-996,-24,-10,0,4480
762,331286176,47,26100.0,-54,-996,-26,-6,0,4480
763,331386178,48,26100.0,-54,-996,-23,-9,-1,4432
764,331486192,49,26100.0,-53,-996,-24,-7,-2,4480
765,331586256,47,26100.0,-54,-996,-24,-5,0,4480
766,331686248,48,26100.0,-53,-996,-26,-9,-1,4480
767,331786206,47,26100.0,-54,-996,-24,-9,0,4480
768,331886250,48,26100.0,-54,-996,-22,-6,-1,4480
769,331986176,48,26100.0,-54,-997,-26,-11,-1,4480
770,332086194,48,26100.0,-54,-996,-25,-5,0,4480
771,332186255,48,26100.0,-54,-996,-24,-7,-3,4480
772,332286178,48,26100.0,-54,-996,-23,-6,-1,4480
773,332386201,48,26100.0,-53,-996,-24,-6,0,4480
774,332486263,47,26100.0,-54,-996,-24,-7,0,4480
775,332586206,48,26100.0,-53,-995,-21,-9,0,4480
776,332686198,48,26100.0,-54,-995,-25,-10,-1,4480
777,332786252,48,26100.0,-54,-996,-26,-10,-1,4480
778,332886182,48,26100.0,-53,-995,-24,-11,0,4480
779,332986205,48,26100.0,-53,-996,-25,-11,0,4480
780,333086232,47,26100.0,-53,-995,-24,-6,-1,4480
781,333186188,48,26100.0,-53,-995,-23,-7,-1,4480
782,333286184,48,26100.0,-53,-995,-22,-6,-1,4432
783,333386218,48,26100.0,-53,-996,-24,-7,0,4480
784,333486195,48,26100.0,-54,-995,-22,-9,0,4480
785,333586242,48,26100.0,-54,-996,-25,-10,0,4480
786,333686251,48,26100.0,-54,-995,-25,-5,1,4480
787,333786177,48,26100.0,-54,-996,-23,-9,-1,4480
788,333886196,48,26100.0,-53,-996,-24,-9,0,4480
789,333986243,48,26100.0,-54,-996,-24,-10,-1,4480
790,334086185,48,26100.0,-53,-996,-26,-9,-1,4480
791,334186210,48,26100.0,-53,-996,-24,-9,-1,4480
792,334286260,48,26100.0,-54,-996,-23,-9,-1,4480
793,334386178,48,26100.0,-54,-995,-23,-7,-1,4480
794,334486197,48,26100.0,-53,-995,-24,-9,0,4480
795,334586252,48,26100.0,-53,-996,-25,-5,-1,4432
796,334686183,48,26100.0,-54,-995,-26,-11,-1,4480
797,334786181,48,26100.0,-54,-996,-25,-6,0,4480
798,334886213,48,26100.0,-54,-996,-25,-9,0,4480
799,334986247,48,26100.0,-53,-996,-23,-10,-2,4480
800,336986241,48,26200.0,-53,-996,-26,-7,0,4480
801,337086211,48,26200.0,-54,-996,-24,-9,-2,4480
802,337186254,48,26200.0,-54,-996,-26,-11,-1,4480
803,337286254,48,26200.0,-53,-996,-25,-11,0,4480
804,337386203,48,26200.0,-54,-997,-23,-6,0,4480
805,337486256,48,26200.0,-54,-996,-26,-9,-3,4480
806,337586187,48,26200.0,-53,-997,-25,-7,0,4432
807,337686200,48,26200.0,-54,-996,-24,-7,0,4480
808,337786236,48,26200.0,-53,-996,-24,-9,-1,4480
809,337886259,48,26200.0,-53,-996,-24,-7,-1,4480
810,337986199,48,26200.0,-53,-996,-26,-7,0,4432
811,338086247,47,26200.0,-54,-997,-25,-6,-1,4432
812,338186250,47,26200.0,-54,-997,-24,-6,-2,4480
813,338286209,48,26200.0,-54,-996,-24,-9,0,4480
814,338386246,48,26200.0,-53,-997,-24,-7,-1,4480
815,338486265,48,26200.0,-53,-996,-23,-7,-1,4480
816,338586211,48,26200.0,-54,-997,-23,-9,-1,4480
817,338686209,48,26200.0,-54,-997,-23,-7,0,4480
818,338786280,48,26200.0,-54,-997,-24,-7,-1,4480
819,338886207,48,26200.0,-53,-997,-21,-6,0,4480
820,338986197,48,26200.0,-54,-997,-27,-12,0,4480
821,339086239,48,26200.0,-54,-997,-22,-4,0,4480
822,339186186,48,26200.0,-53,-996,-24,-9,0,4480
823,339286214,48,26200.0,-54,-997,-24,-9,-1,4432
824,339386244,48,26200.0,-54,-997,-26,-9,-1,4480
825,339486183,48,26200.0,-54,-997,-24,-6,-1,4480
826,339586120,48,26200.0,-54,-997,-25,-7,1,4480
827,339686257,48,26200.0,-54,-997,-22,-7,-3,4480
828,339786209,48,26200.0,-53,-997,-26,-11,-1,4432
829,339886194,47,26200.0,-53,-997,-26,-7,0,4480
830,339986239,48,26200.0,-54,-997,-22,-6,-2,4432
831,340086195,47,26200.0,-53,-997,-24,-10,-1,4480
832,340186208,48,26200.0,-53,-997,-24,-6,-2,4480
833,340286247,48,26200.0,-53,-997,-23,-7,-2,4480
834,340386245,48,26200.0,-54,-996,-24,-6,0,4480
835,340486184,48,26200.0,-54,-997,-24,-7,-1,4432
836,340586240,48,26200.0,-54,-996,-24,-6,0,4432
837,340686202,48,26200.0,-53,-996,-27,-4,-1,4480
838,340786241,48,26200.0,-53,-996,-26,-10,0,4480
839,340886179,48,26200.0,-53,-996,-24,-10,-2,4480
840,340986206,48,26200.0,-54,-996,-25,-5,-3,4480
841,341086253,48,26200.0,-54,-996,-24,-9,0,4480
842,341186210,47,26200.0,-54,-996,-24,-9,0,4480
843,341286205,48,26200.0,-54,-996,-24,-9,-1,4480
844,341386231,48,26200.0,-54,-996,-24,-6,-1,4480
845,341486187,48,26200.0,-53,-996,-25,-9,0,4480
846,341586219,48,26200.0,-53,-996,-27,-6,0,4480
847,341686259,48,26200.0,-54,-996,-26,-9,-1,4480
848,341786183,48,26200.0,-54,-996,-24,-9,-2,4480
849,341886207,47,26200.0,-54,-996,-25,-9,0,4432
850,344186265,48,26300.0,-53,-996,-26,-11,-1,4480
851,344286239,48,26300.0,-54,-996,-22,-7,-1,4480
852,344386241,48,26300.0,-53,-996,-24,-9,0,4480
853,344486247,48,26300.0,-54,-997,-26,-9,-2,4480
854,344586239,47,26300.0,-54,-996,-24,-6,0,4480
855,344686197,48,26300.0,-53,-996,-24,-10,-2,4480
856,344786224,47,26300.0,-54,-996,-23,-7,0,4432
857,344886244,48,26300.0,-53,-996,-24,-9,-1,4432
858,344986184,48,26300.0,-54,-996,-25,-9,-1,4480
859,345086215,48,26300.0,-53,-996,-23,-7,1,4480
860,345186243,48,26300.0,-53,-996,-25,-11,0,4480
861,345286240,48,26300.0,-53,-996,-24,-7,0,4480
862,345386193,48,26300.0,-53,-996,-24,-5,-1,4480
863,345486212,48,26300.0,-54,-996,-24,-7,0,4528
864,345586242,48,26300.0,-53,-996,-24,-7,0,4480
865,345686179,48,26300.0,-54,-995,-24,-6,-1,4480
866,345786200,47,26300.0,-53,-996,-23,-7,-1,4480
867,345886265,47,26300.0,-54,-996,-25,-11,-1,4480
868,345986242,48,26300.0,-54,-996,-24,-7,-1,4480
869,346086191,48,26300.0,-54,-995,-26,-10,-1,4480
870,346186197,48,26300.0,-53,-996,-25,-10,0,4432
871,346286252,48,26300.0,-54,-995,-23,-5,0,4480
872,346386177,47,26300.0,-54,-995,-24,-6,0,4480
873,346486200,48,26300.0,-54,-996,-23,-9,-1,4480
874,346586212,48,26300.0,-53,-996,-26,-11,-2,4480
875,346686247,48,26300.0,-53,-996,-24,-6,0,4480
876,346786178,48,26300.0,-53,-996,-25,-6,0,4480
877,346886209,48,26300.0,-53,-996,-26,-6,0,4480
878,346986232,48,26300.0,-54,-996,-23,-10,0,4480
879,347086187,48,26300.0,-54,-996,-25,-10,0,4480
880,347186208,48,26300.0,-53,-996,-25,-9,-2,4480
881,347286246,47,26300.0,-54,-996,-23,-7,-3,4480
882,347386186,48,26300.0,-54,-996,-25,-9,-1,4480
883,347486196,48,26300.0,-54,-996,-25,-10,0,4480
884,347586221,48,26300.0,-54,-996,-22,-7,0,4480
885,347686182,48,26300.0,-53,-996,-23,-4,0,4480
886,347786209,47,26300.0,-54,-996,-27,-7,-1,4480
887,347886212,48,26300.0,-53,-996,-26,-10,-1,4480
888,347986260,48,26300.0,-54,-997,-26,-9,0,4480
889,348086182,48,26300.0,-54,-997,-26,-9,0,4480
890,348186228,48,26300.0,-53,-997,-24,-5,-1,4480
891,348286243,48,26300.0,-53,-996,-26,-10,-1,4480
892,348386238,48,26300.0,-53,-997,-25,-7,0,4432
893,348486190,48,26300.0,-54,-997,-24,-9,0,4480
894,348586209,48,26300.0,-53,-997,-24,-11,0,4480
895,348686220,48,26300.0,-53,-997,-26,-10,-1,4480
896,348786236,48,26300.0,-53,-997,-21,-7,-1,4480
897,348886180,48,26300.0,-54,-997,-25,-9,0,4480
898,348986232,48,26300.0,-53,-997,-26,-7,0,4432
899,349086207,48,26300.0,-54,-997,-23,-7,-2,4480
900,351186238,48,26400.0,-53,-997,-24,-7,0,4480
901,351286240,47,26400.0,-54,-996,-21,-5,0,4480
902,351386239,47,26400.0,-53,-996,-23,-12,0,4432
903,351486195,48,26400.0,-54,-996,-22,-9,0,4432
904,351586198,48,26400.0,-53,-997,-22,-7,-1,4480
905,351686233,48,26400.0,-53,-996,-24,-10,0,4480
906,351786183,48,26400.0,-54,-997,-22,-9,-1,4480
907,351886212,48,26400.0,-54,-997,-23,-7,0,4480
908,351986241,48,26400.0,-54,-997,-22,-5,-1,4480
909,352086179,47,26400.0,-53,-996,-25,-10,-2,4480
910,352186204,48,26400.0,-53,-996,-21,-7,0,4480
911,352286254,48,26400.0,-54,-997,-23,-6,-1,4480
912,352386178,48,26400.0,-53,-996,-23,-6,-1,4432
913,352486200,48,26400.0,-54,-996,-23,-6,-1,4480
914,352586249,48,26400.0,-53,-996,-22,-9,-3,4480
915,352686196,48,26400.0,-53,-995,-24,-6,0,4480
916,352786206,47,26400.0,-53,-995,-24,-11,-1,4480
917,352886243,48,26400.0,-53,-996,-22,-7,-1,4432
918,352986249,48,26400.0,-53,-995,-24,-6,0,4480
919,353086198,48,26400.0,-54,-995,-20,-10,-2,4432
920,353186251,48,26400.0,-53,-995,-22,-9,-2,4480
921,353286183,48,26400.0,-53,-996,-24,-9,0,4480
922,353386203,48,26400.0,-53,-995,-24,-10,-1,4432
923,353486205,48,26400.0,-54,-996,-24,-7,-2,4480
924,353586243,47,26400.0,-53,-995,-24,-9,0,4480
925,353686190,48,26400.0,-53,-996,-22,-6,-1,4480
926,353786200,48,26400.0,-54,-996,-22,-5,-1,4480
927,353886195,48,26400.0,-54,-996,-23,-11,0,4432
928,353986249,48,26400.0,-53,-996,-27,-10,-1,4480
929,354086241,48,26400.0,-54,-995,-25,-6,0,4480
930,354186202,48,26400.0,-53,-995,-24,-6,0,4480
931,354286197,48,26400.0,-53,-995,-24,-9,-3,4480
932,354386245,48,26400.0,-53,-996,-25,-9,0,4480
933,354486190,48,26400.0,-54,-996,-22,-10,-1,4480
934,354586204,47,26400.0,-53,-996,-26,-7,-1,4480
935,354686200,48,26400.0,-53,-996,-22,-2,-1,4480
936,354786220,48,26400.0,-53,-996,-24,-10,-1,4480
937,354886237,48,26400.0,-53,-996,-24,-5,0,4480
938,354986207,48,26400.0,-54,-996,-25,-9,0,4480
939,355086167,47,26400.0,-54,-996,-24,-9,0,4480
940,355186203,48,26400.0,-53,-995,-24,-10,0,4480
941,355286255,47,26400.0,-53,-996,-22,-11,-1,4480
942,355386237,48,26400.0,-53,-996,-24,-9,0,4480
943,355486254,48,26400.0,-53,-996,-22,-7,-1,4432
944,355586184,48,26400.0,-53,-996,-25,-5,0,4480
945,355686226,48,26400.0,-54,-995,-27,-7,0,4480
946,355786246,48,26400.0,-53,-996,-24,-9,-1,4480
947,355886180,48,26400.0,-53,-996,-25,-7,0,4480
948,355986194,48,26400.0,-54,-996,-23,-11,0,4480
949,356086253,47,26400.0,-54,-996,-25,-7,0,4480
950,358186211,48,26500.0,-54,-997,-24,-6,-2,4480
951,358286245,48,26500.0,-54,-997,-20,-10,-3,4480
952,358386245,48,26500.0,-53,-996,-27,-9,0,4480
953,358486199,48,26500.0,-53,-997,-24,-9,-1,4480
954,358586204,48,26500.0,-53,-996,-24,-5,0,4480
955,358686247,48,26500.0,-53,-997,-23,-7,-1,4480
956,358786203,48,26500.0,-53,-997,-24,-7,0,4480
957,358886209,48,26500.0,-53,-997,-22,-9,0,4480
958,358986235,48,26500.0,-54,-996,-25,-6,-1,4480
959,359086243,48,26500.0,-54,-996,-28,-10,-1,4480
960,359186197,47,26500.0,-53,-997,-23,-11,0,4432
961,359286248,48,26500.0,-54,-997,-26,-7,0,4480
962,359386196,48,26500.0,-53,-997,-23,-7,-1,4480
963,359486259,48,26500.0,-54,-996,-24,-10,0,4480
964,359586212,48,26500.0,-54,-996,-24,-5,-2,4480
965,359686209,47,26500.0,-54,-997,-25,-6,0,4480
966,359786248,48,26500.0,-53,-997,-25,-7,-1,4432
967,359886241,48,26500.0,-53,-997,-24,-12,0,4480
968,359986176,48,26500.0,-54,-997,-23,-6,-2,4480
969,360086195,48,26500.0,-53,-997,-22,-7,-1,4480
970,360186273,48,26500.0,-53,-997,-22,-7,-3,4480
971,360286250,47,26500.0,-53,-997,-24,-10,0,4480
972,360386202,47,26500.0,-53,-997,-26,-10,0,4480
973,360486239,48,26500.0,-53,-997,-23,-6,-1,4480
974,360586197,48,26500.0,-53,-997,-24,-9,-2,4480
975,360686196,47,26500.0,-54,-997,-25,-5,0,4480
976,360786255,48,26500.0,-54,-997,-25,-7,0,4480
977,360886192,47,26500.0,-53,-997,-26,-7,0,4480
978,360986216,48,26500.0,-53,-997,-22,-7,-2,4480
979,361086272,48,26500.0,-53,-997,-24,-7,-1,4480
980,361186184,48,26500.0,-54,-998,-23,-12,0,4432
981,361286203,48,26500.0,-53,-997,-25,-6,0,4480
982,361386247,48,26500.0,-53,-998,-25,-9,-1,4480
983,361486176,48,26500.0,-54,-997,-23,-9,0,4480
984,361586203,48,26500.0,-54,-997,-23,-9,-1,4480
985,361686232,48,26500.0,-53,-996,-20,-10,1,4480
986,361786207,48,26500.0,-54,-997,-25,-7,-1,4480
987,361886236,47,26500.0,-53,-997,-24,-11,0,4480
988,361986252,48,26500.0,-53,-996,-25,-10,0,4480
989,362086205,48,26500.0,-53,-996,-25,-9,-1,4480
990,362186256,48,26500.0,-54,-997,-23,-9,0,4480
991,362286189,48,26500.0,-54,-997,-24,-9,-1,4480
992,362386186,48,26500.0,-54,-996,-25,-9,0,4480
993,362486226,48,26500.0,-54,-996,-23,-10,-1,4480
994,362586180,47,26500.0,-53,-996,-22,-12,0,4480
995,362686202,47,26500.0,-53,-996,-21,-11,0,4432
996,362786233,48,26500.0,-54,-996,-24,-9,0,4480
997,362886215,48,26500.0,-54,-996,-25,-9,0,4480
998,362986204,47,26500.0,-54,-996,-23,-7,-1,4480
999,363086206,47,26500.0,-54,-995,-23,-7,-1,4480
1000,365186201,47,26600.0,-54,-995,-22,-4,0,4480
1001,365286212,47,26600.0,-54,-996,-26,-9,-1,4480
1002,365386241,48,26600.0,-54,-996,-26,-7,-1,4480
1003,365486259,47,26600.0,-54,-996,-26,-9,0,4480
1004,365586253,48,26600.0,-53,-996,-24,-9,-1,4480
1005,365686195,47,26600.0,-53,-996,-23,-6,-1,4480
1006,365786184,48,26600.0,-54,-996,-24,-7,-1,4480
1007,365886244,48,26600.0,-54,-996,-22,-9,0,4480
1008,365986181,48,26600.0,-53,-996,-24,-9,-2,4480
1009,366086238,48,26600.0,-54,-996,-22,-4,0,4480
1010,366186201,48,26600.0,-54,-996,-25,-11,-1,4480
1011,366286204,48,26600.0,-53,-997,-22,-9,-2,4480
1012,366386205,48,26600.0,-54,-996,-23,-6,0,4480
1013,366486250,48,26600.0,-53,-996,-25,-10,0,4480
1014,366586261,48,26600.0,-54,-997,-23,-10,0,4480
1015,366686217,47,26600.0,-54,-997,-24,-7,-1,4480
1016,366786260,48,26600.0,-54,-997,-22,-7,-2,4480
1017,366886185,48,26600.0,-53,-997,-24,-6,0,4480
1018,366986213,48,26600.0,-54,-997,-24,-4,0,4480
1019,367086243,48,26600.0,-54,-997,-25,-5,-1,4480
1020,367186207,48,26600.0,-53,-997,-23,-6,-1,4480
1021,367286205,47,26600.0,-54,-997,-23,-6,0,4480
1022,367386259,48,26600.0,-54,-997,-24,-10,0,4480
1023,367486181,48,26600.0,-53,-997,-24,-9,-2,4480
1024,367586183,48,26600.0,-53,-997,-24,-7,0,4480
1025,367686200,48,26600.0,-54,-997,-25,-9,0,4480
1026,367786252,48,26600.0,-54,-997,-26,-10,-1,4480
1027,367886250,47,26600.0,-53,-997,-26,-11,0,4480
1028,367986208,48,26600.0,-54,-997,-28,-7,-2,4480
1029,368086238,48,26600.0,-53,-996,-23,-10,-2,4480
1030,368186221,47,26600.0,-53,-996,-24,-11,0,4480
1031,368286212,47,26600.0,-53,-996,-25,-6,-1,4480
1032,368386262,48,26600.0,-54,-996,-24,-5,-1,4480
1033,368486177,48,26600.0,-53,-997,-25,-7,-2,4480
1034,368586204,47,26600.0,-53,-997,-25,-9,0,4480
1035,368686266,48,26600.0,-53,-997,-22,-7,0,4480
1036,368786183,48,26600.0,-54,-997,-25,-10,-1,4480
1037,368886225,47,26600.0,-53,-997,-23,-11,0,4480
1038,368986244,48,26600.0,-53,-997,-23,-7,-1,4480
1039,369086180,47,26600.0,-53,-997,-23,-6,-2,4480
1040,369186207,48,26600.0,-54,-996,-23,-9,-3,4480
1041,369286240,48,26600.0,-54,-996,-25,-10,0,4480
1042,369386254,48,26600.0,-53,-996,-25,-7,0,4480
1043,369486174,48,26600.0,-53,-997,-25,-7,-1,4480
1044,369586195,48,26600.0,-53,-997,-25,-6,-2,4480
1045,369686234,48,26600.0,-54,-996,-27,-10,0,4480
1046,369786191,48,26600.0,-53,-996,-24,-7,0,4480
1047,369886209,48,26600.0,-53,-996,-25,-9,0,4528
1048,369986252,48,26600.0,-54,-997,-24,-9,0,4480
1049,370086246,48,26600.0,-53,-997,-23,-10,0,4480
1050,372386183,48,26700.0,-53,-996,-23,-7,0,4480
1051,372486185,47,26700.0,-54,-996,-24,-9,-1,4480
1052,372586213,48,26700.0,-53,-996,-23,-5,0,4480
1053,372686205,48,26700.0,-53,-996,-23,-7,-3,4480
1054,372786261,48,26700.0,-53,-996,-22,-7,-1,4480
1055,372886180,48,26700.0,-53,-996,-25,-7,-1,4480
1056,372986209,47,26700.0,-53,-996,-24,-9,0,4480
1057,373086255,48,26700.0,-53,-996,-23,-9,-2,4480
1058,373186248,48,26700.0,-53,-997,-23,-10,-1,4480
1059,373286185,48,26700.0,-53,-996,-25,-10,0,4480
1060,373386190,48,26700.0,-54,-997,-23,-6,-1,4480
1061,373486203,48,26700.0,-54,-996,-24,-10,1,4480
1062,373586247,48,26700.0,-53,-997,-24,-10,-1,4480
1063,373686226,48,26700.0,-53,-996,-25,-5,-1,4480
1064,373786203,48,26700.0,-53,-997,-25,-10,-1,4480
1065,373886237,48,26700.0,-53,-996,-23,-10,-1,4480
1066,373986207,48,26700.0,-53,-997,-25,-10,-2,4480
1067,374086191,48,26700.0,-53,-996,-22,-6,-1,4480
1068,374186245,48,26700.0,-53,-996,-22,-6,-1,4480
1069,374286182,48,26700.0,-53,-997,-23,-10,-4,4480
1070,374386203,48,26700.0,-53,-996,-24,-7,-1,4480
1071,374486242,48,26700.0,-53,-996,-25,-9,0,4480
1072,374586251,48,26700.0,-54,-997,-24,-6,-1,4480
1073,374686203,48,26700.0,-53,-997,-23,-10,0,4480
1074,374786245,48,26700.0,-53,-997,-23,-10,-1,4480
1075,374886185,48,26700.0,-53,-997,-25,-5,0,4480
1076,374986202,48,26700.0,-54,-997,-26,-11,0,4480
1077,375086255,47,26700.0,-53,-997,-23,-7,0,4480
1078,375186249,47,26700.0,-53,-997,-24,-9,-1,4480
1079,375286220,48,26700.0,-54,-997,-26,-7,-1,4480
1080,375386258,48,26700.0,-53,-997,-24,-9,-2,4480
1081,375486254,48,26700.0,-54,-996,-24,-9,-1,4480
1082,375586194,48,26700.0,-53,-997,-27,-11,-1,4432
1083,375686250,48,26700.0,-54,-997,-23,-9,-1,4432
1084,375786176,48,26700.0,-53,-996,-23,-7,-1,4480
1085,375886169,48,26700.0,-54,-997,-23,-9,0,4480
1086,375986203,48,26700.0,-53,-997,-24,-7,-2,4480
1087,376086255,48,26700.0,-53,-997,-23,-7,0,4480
1088,376186182,48,26700.0,-54,-997,-24,-7,-1,4480
1089,376286180,48,26700.0,-53,-996,-24,-7,-1,4480
1090,376386227,47,26700.0,-53,-997,-27,-10,0,4480
1091,376486216,48,26700.0,-53,-997,-24,-11,-1,4480
1092,376586253,48,26700.0,-53,-997,-23,-10,-1,4480
1093,376686209,48,26700.0,-53,-997,-23,-9,-1,4480
1094,376786237,48,26700.0,-54,-997,-23,-9,0,4480
1095,376886181,48,26700.0,-54,-996,-24,-10,0,4480
1096,376986214,48,26700.0,-53,-997,-25,-9,0,4480
1097,377086245,48,26700.0,-54,-996,-23,-7,-1,4480
1098,377186183,48,26700.0,-54,-997,-24,-7,0,4480
1099,377286216,48,26700.0,-53,-996,-24,-10,0,4480
1100,379386218,47,26800.0,-54,-996,-25,-9,0,4432
1101,379486271,48,26800.0,-54,-997,-24,-7,-2,4480
1102,379586185,48,26800.0,-53,-997,-25,-10,-1,4480
1103,379686182,48,26800.0,-53,-997,-22,-7,-2,4480
1104,379786261,48,26800.0,-53,-996,-24,-9,0,4480
1105,379886180,47,26800.0,-54,-996,-26,-7,0,4432
1106,379986217,48,26800.0,-53,-997,-22,-10,-2,4432
1107,380086258,48,26800.0,-54,-996,-22,-7,-2,4480
1108,380186178,48,26800.0,-54,-996,-24,-7,1,4480
1109,380286219,48,26800.0,-53,-997,-24,-9,-1,4480
1110,380386210,48,26800.0,-53,-996,-26,-7,-1,4480
1111,380486259,47,26800.0,-54,-996,-24,-11,-2,4480
1112,380586246,48,26800.0,-53,-996,-26,-6,0,4480
1113,380686188,48,26800.0,-54,-996,-24,-7,0,4480
1114,380786181,48,26800.0,-53,-996,-24,-6,-1,4480
1115,380886204,47,26800.0,-53,-996,-24,-12,1,4480
1116,380986242,48,26800.0,-53,-996,-25,-6,-1,4480
1117,381086201,48,26800.0,-54,-997,-23,-6,0,4480
1118,381186200,48,26800.0,-53,-996,-25,-7,-2,4480
1119,381286204,48,26800.0,-53,-996,-25,-7,0,4480
1120,381386255,48,26800.0,-54,-996,-24,-7,-1,4480
1121,381486257,48,26800.0,-53,-995,-25,-6,0,4480
1122,381586203,48,26800.0,-54,-996,-25,-5,-1,4480
1123,381686241,48,26800.0,-54,-995,-24,-11,0,4480
1124,381786216,48,26800.0,-54,-995,-24,-10,-1,4480
1125,381886199,48,26800.0,-53,-995,-25,-11,-1,4480
1126,381986246,48,26800.0,-54,-996,-24,-7,0,4480
1127,382086190,47,26800.0,-54,-995,-24,-9,-1,4480
1128,382186214,48,26800.0,-53,-995,-23,-7,0,4480
1129,382286249,48,26800.0,-54,-996,-25,-6,0,4480
1130,382386178,48,26800.0,-53,-995,-24,-9,0,4480
1131,382486203,48,26800.0,-54,-995,-23,-7,0,4480
1132,382586241,48,26800.0,-54,-996,-22,-5,-1,4480
1133,382686249,48,26800.0,-53,-996,-23,-4,-1,4480
1134,382786208,48,26800.0,-53,-996,-25,-9,-3,4480
1135,382886248,48,26800.0,-53,-995,-25,-10,-2,4480
1136,382986183,48,26800.0,-54,-996,-25,-10,0,4480
1137,383086199,48,26800.0,-53,-996,-25,-6,-2,4480
1138,383186240,48,26800.0,-54,-996,-22,-10,-2,4480
1139,383286232,48,26800.0,-54,-996,-25,-6,-1,4480
1140,383386207,48,26800.0,-53,-995,-21,-6,-1,4480
1141,383486243,48,26800.0,-53,-996,-23,-9,0,4480
1142,383586260,48,26800.0,-53,-996,-26,-11,-1,4480
1143,383686211,48,26800.0,-54,-995,-25,-7,-1,4480
1144,383786233,48,26800.0,-53,-995,-24,-9,-1,4480
1145,383886248,48,26800.0,-54,-996,-24,-9,0,4480
1146,383986188,48,26800.0,-53,-996,-22,-7,-2,4480
1147,384086199,48,26800.0,-54,-996,-22,-9,0,4480
1148,384186240,48,26800.0,-53,-996,-25,-9,0,4480
1149,384286243,48,26800.0,-54,-996,-21,-6,0,4480
1150,386586210,47,26900.0,-54,-996,-23,-9,0,4480
1151,386686247,47,26900.0,-53,-996,-24,-10,0,4480
1152,386786178,48,26900.0,-53,-997,-25,-4,0,4480
1153,386886198,47,26900.0,-53,-997,-26,-9,0,4480
1154,386986244,48,26900.0,-53,-997,-24,-10,-1,4480
1155,387086186,48,26900.0,-54,-996,-24,-11,0,4480
1156,387186201,48,26900.0,-54,-997,-25,-9,-1,4480
1157,387286240,48,26900.0,-53,-996,-23,-9,-1,4480
1158,387386182,48,26900.0,-53,-998,-26,-6,0,4480
1159,387486201,48,26900.0,-53,-997,-25,-9,0,4480
1160,387586241,47,26900.0,-54,-997,-25,-10,0,4480
1161,387686195,48,26900.0,-53,-997,-23,-6,-1,4528
1162,387786209,48,26900.0,-54,-998,-24,-6,0,4480
1163,387886227,48,26900.0,-53,-997,-27,-11,0,4528
1164,387986189,48,26900.0,-54,-998,-24,-9,0,4480
1165,388086218,48,26900.0,-53,-998,-25,-6,0,4480
1166,388186246,48,26900.0,-54,-998,-24,-9,-2,4480
1167,388286187,48,26900.0,-54,-998,-23,-9,0,4480
1168,388386242,48,26900.0,-53,-997,-23,-9,-1,4480
1169,388486186,47,26900.0,-53,-997,-24,-7,0,4480
1170,388586178,48,26900.0,-53,-997,-23,-9,-1,4480
1171,388686218,48,26900.0,-54,-997,-27,-10,-1,4480
1172,388786246,48,26900.0,-53,-998,-24,-5,0,4480
1173,388886184,48,26900.0,-53,-997,-22,-9,-2,4480
1174,388986218,48,26900.0,-54,-997,-23,-6,0,4480
1175,389086239,48,26900.0,-53,-997,-25,-9,0,4480
1176,389186268,48,26900.0,-53,-997,-24,-10,-1,4480
1177,389286181,48,26900.0,-53,-997,-25,-10,-2,4480
1178,389386234,48,26900.0,-53,-997,-23,-6,0,4480
1179,389486248,48,26900.0,-54,-997,-24,-6,0,4480
1180,389586246,48,26900.0,-53,-997,-26,-5,-2,4480
1181,389686183,48,26900.0,-53,-998,-21,-7,-1,4480
1182,389786200,47,26900.0,-53,-997,-25,-7,0,4480
1183,389886266,48,26900.0,-53,-997,-23,-7,0,4480
1184,389986208,48,26900.0,-54,-997,-24,-5,-2,4480
1185,390086187,48,26900.0,-53,-997,-22,-7,-1,4480
1186,390186211,48,26900.0,-54,-997,-26,-7,-1,4480
1187,390286238,48,26900.0,-54,-997,-23,-6,0,4480
1188,390386176,48,26900.0,-53,-998,-23,-6,-2,4480
1189,390486208,48,26900.0,-54,-997,-27,-7,-3,4480
1190,390586236,48,26900.0,-53,-996,-24,-9,-1,4480
1191,390686181,48,26900.0,-53,-997,-23,-7,-1,4480
1192,390786214,48,26900.0,-53,-997,-25,-11,0,4480
1193,390886242,48,26900.0,-53,-996,-25,-6,0,4480
1194,390986257,48,26900.0,-54,-997,-23,-9,0,4480
1195,391086175,48,26900.0,-53,-997,-26,-10,0,4480
1196,391186206,48,26900.0,-53,-997,-23,-10,0,4480
1197,391286241,48,26900.0,-53,-998,-23,-12,-1,4480
1198,391386206,48,26900.0,-53,-997,-25,-9,0,4480
1199,391486210,48,26900.0,-54,-997,-24,-10,1,4480
1200,393586209,48,27000.0,-53,-996,-25,-7,-2,4480
1201,393686209,48,27000.0,-54,-996,-24,-9,-2,4480
1202,393786236,49,27000.0,-53,-996,-23,-6,0,4480
1203,393886194,48,27000.0,-53,-996,-22,-6,-2,4480
1204,393986248,48,27000.0,-53,-996,-24,-3,-2,4480
1205,394086219,48,27000.0,-53,-996,-24,-6,-1,4480
1206,394186224,48,27000.0,-54,-997,-24,-6,0,4480
1207,394286238,48,27000.0,-53,-996,-25,-7,-1,4480
1208,394386189,48,27000.0,-54,-997,-24,-7,-1,4480
1209,394486203,47,27000.0,-53,-997,-24,-10,0,4480
1210,394586225,47,27000.0,-53,-996,-25,-6,-1,4480
1211,394686263,48,27000.0,-54,-996,-25,-10,0,4480
1212,394786244,48,27000.0,-54,-997,-22,-10,0,4480
1213,394886179,48,27000.0,-53,-997,-21,-7,-2,4480
1214,394986201,47,27000.0,-53,-997,-28,-9,-3,4480
1215,395086267,48,27000.0,-54,-997,-24,-5,0,4480
1216,395186189,48,27000.0,-53,-996,-25,-10,0,4480
1217,395286213,48,27000.0,-54,-997,-24,-10,0,4480
1218,395386209,48,27000.0,-54,-997,-25,-7,-2,4480
1219,395486246,48,27000.0,-53,-996,-24,-9,0,4480
1220,395586180,48,27000.0,-53,-997,-24,-9,-2,4480
1221,395686206,47,27000.0,-54,-996,-26,-11,-1,4480
1222,395786246,48,27000.0,-53,-997,-26,-11,-1,4480
1223,395886180,48,27000.0,-54,-997,-25,-12,0,4480
1224,395986213,48,27000.0,-54,-996,-23,-6,-1,4480
1225,396086238,48,27000.0,-53,-996,-24,-5,1,4480
1226,396186261,48,27000.0,-53,-996,-23,-7,0,4480
1227,396286202,48,27000.0,-54,-996,-23,-10,-1,4480
1228,396386248,48,27000.0,-53,-997,-23,-6,-1,4480
1229,396486183,48,27000.0,-53,-996,-24,-9,0,4480
1230,396586201,48,27000.0,-53,-996,-26,-11,0,4432
1231,396686253,48,27000.0,-54,-997,-26,-7,-1,4480
1232,396786186,48,27000.0,-53,-995,-22,-7,-3,4480
1233,396886175,48,27000.0,-53,-997,-25,-9,-1,4480
1234,396986197,47,27000.0,-53,-996,-25,-11,0,4480
1235,397086215,48,27000.0,-54,-996,-25,-9,-1,4480
1236,397186257,48,27000.0,-53,-996,-23,-9,-1,4480
1237,397286185,48,27000.0,-53,-996,-25,-10,0,4480
1238,397386208,48,27000.0,-53,-996,-25,-12,-1,4480
1239,397486240,47,27000.0,-54,-996,-23,-7,-1,4480
1240,397586178,48,27000.0,-53,-996,-24,-3,-1,4480
1241,397686198,48,27000.0,-54,-996,-23,-7,-2,4480
