,time_usec,xacc,frequency,yacc,zacc,xgyro,ygyro,zgyro,temperature
0,834952884,13,0.0,-13,-1002,-25,-11,0,4528
1,835212891,14,0.0,-13,-1001,-24,-8,0,4480
2,835412884,14,0.0,-13,-1001,-25,-11,0,4528
3,835612897,14,0.0,-13,-1001,-25,-8,0,4480
4,835812902,14,0.0,-13,-1001,-25,-8,-1,4480
5,836012872,14,0.0,-13,-1001,-24,-9,-1,4480
6,836212885,14,0.0,-13,-1001,-24,-6,-2,4480
7,836412840,13,0.0,-13,-1001,-25,-6,0,4480
8,836612877,13,0.0,-13,-1001,-26,-8,0,4480
9,836812882,13,0.0,-13,-1000,-27,-8,-2,4528
10,837012850,14,0.0,-13,-1000,-24,-9,-1,4480
11,837212883,13,0.0,-13,-1000,-26,-5,0,4528
12,837412887,13,0.0,-13,-1000,-20,-6,-2,4480
13,837612847,13,0.0,-12,-1000,-25,-6,-2,4528
14,837812862,14,0.0,-13,-999,-21,-9,-1,4528
15,838012896,14,0.0,-13,-1000,-22,-11,0,4528
16,838212896,14,0.0,-12,-1000,-25,-9,0,4528
17,838412838,14,0.0,-13,-1000,-25,-9,0,4528
18,838612881,14,0.0,-13,-1000,-27,-8,0,4528
19,838812903,14,0.0,-13,-1001,-25,-9,0,4480
20,839012861,14,0.0,-13,-1001,-27,-12,-2,4528
21,839212896,13,0.0,-12,-1001,-25,-10,0,4528
22,839412860,13,0.0,-12,-1001,-26,-8,-1,4528
23,839612836,13,0.0,-13,-1001,-26,-10,-1,4480
24,839812849,13,0.0,-12,-1001,-20,-8,-1,4528
25,840012867,13,0.0,-13,-1001,-21,-6,-1,4480
26,840212842,13,0.0,-13,-1001,-27,-5,-1,4528
27,840412854,13,0.0,-13,-1001,-25,-11,0,4480
28,840612867,14,0.0,-13,-1001,-24,-6,0,4528
29,840812834,14,0.0,-13,-1001,-24,-6,0,4480
30,841012853,13,0.0,-13,-1001,-25,-11,-3,4528
31,841212837,13,0.0,-12,-1001,-24,-10,-1,4528
32,841412884,13,0.0,-13,-1001,-24,-9,-1,4480
33,841612889,14,0.0,-13,-1001,-26,-9,-1,4480
34,841812893,13,0.0,-13,-1001,-25,-8,-2,4528
35,842012877,14,0.0,-12,-1001,-26,-6,0,4480
36,842212888,14,0.0,-13,-1001,-21,-5,0,4528
37,842412898,14,0.0,-12,-1001,-25,-5,-1,4480
38,842612886,14,0.0,-12,-1001,-24,-10,-1,4528
39,842812898,14,0.0,-13,-1001,-25,-9,-1,4528
40,843012861,14,0.0,-12,-1001,-26,-5,0,4480
41,843212846,14,0.0,-13,-1001,-25,-6,0,4480
42,843412847,13,0.0,-13,-1000,-28,-9,0,4480
43,843612895,14,0.0,-12,-1000,-21,-9,-3,4528
44,843812883,13,0.0,-13,-1001,-24,-10,0,4480
45,844012890,13,0.0,-13,-1000,-27,-9,-1,4480
46,844212889,13,0.0,-13,-1000,-21,-8,-1,4480
47,844412882,13,0.0,-13,-1000,-25,-6,0,4480
48,844612881,14,0.0,-12,-1000,-24,-10,0,4528
49,844812881,13,0.0,-13,-1001,-21,-6,0,4528
50,845012840,14,0.0,-13,-1000,-22,-9,0,4480
51,845212840,13,0.0,-13,-1001,-26,-10,0,4480
52,845412838,14,0.0,-13,-1001,-22,-8,-1,4528
53,845612869,14,0.0,-13,-1001,-25,-10,1,4528
54,845812840,14,0.0,-13,-1001,-24,-9,0,4480
55,846012858,14,0.0,-13,-1001,-24,-10,-1,4480
56,846212879,13,0.0,-12,-1001,-26,-10,0,4480
57,846412906,14,0.0,-12,-1000,-25,-9,-1,4480
58,846612880,13,0.0,-13,-1002,-22,-8,-3,4480
59,846812885,13,0.0,-13,-1001,-26,-9,-1,4528
60,847012842,14,0.0,-13,-1001,-25,-6,1,4528
61,847212848,14,0.0,-12,-1002,-26,-13,-1,4480
62,847412888,13,0.0,-13,-1001,-25,-9,0,4480
63,847612840,14,0.0,-13,-1002,-22,-10,0,4480
64,847812885,14,0.0,-13,-1002,-25,-8,-1,4480
65,848012883,13,0.0,-13,-1001,-24,-10,0,4528
66,848212902,14,0.0,-13,-1001,-22,-10,-1,4480
67,848412894,14,0.0,-12,-1001,-28,-6,0,4480
68,848612835,14,0.0,-13,-1002,-25,-8,0,4480
69,848812886,13,0.0,-13,-1001,-27,-11,0,4528
70,849012881,14,0.0,-13,-1001,-27,-8,-2,4480
71,849212887,13,0.0,-13,-1000,-24,-10,0,4480
72,849412892,13,0.0,-13,-1001,-25,-10,0,4480
73,849612840,14,0.0,-13,-1000,-28,-6,2,4480
74,849812892,14,0.0,-13,-1000,-24,-9,-3,4480
75,850012904,13,0.0,-13,-1001,-26,-6,-1,4480
76,850212853,13,0.0,-13,-1001,-25,-8,0,4480
77,850412890,14,0.0,-13,-1000,-24,-8,-1,4528
78,850612838,14,0.0,-12,-1000,-25,-9,0,4528
79,850812875,14,0.0,-13,-1000,-26,-11,-1,4528
80,851012837,14,0.0,-13,-1001,-24,-8,0,4480
81,851212877,14,0.0,-13,-1000,-25,-9,1,4528
82,851412889,14,0.0,-13,-1000,-24,-6,0,4480
83,851612872,13,0.0,-13,-1000,-22,-9,0,4480
84,851812858,14,0.0,-13,-1001,-22,-5,0,4528
85,852012852,14,0.0,-13,-1000,-24,-8,-1,4528
86,852212824,13,0.0,-13,-1001,-25,-8,-1,4528
87,852412891,13,0.0,-14,-1001,-24,-10,0,4480
88,852612836,14,0.0,-12,-1001,-24,-9,-3,4480
89,852812830,13,0.0,-13,-1000,-27,-10,0,4480
90,853012839,14,0.0,-12,-1000,-26,-9,0,4480
91,853212874,14,0.0,-13,-1001,-24,-9,0,4480
92,853412852,14,0.0,-12,-1001,-20,-6,-1,4528
93,853612910,13,0.0,-12,-1001,-24,-6,-1,4528
94,853812880,13,0.0,-13,-1001,-24,-9,0,4528
95,854012860,13,0.0,-13,-1002,-25,-8,0,4528
96,854212840,14,0.0,-13,-1002,-26,-11,0,4480
97,854412887,14,0.0,-13,-1001,-24,-6,0,4480
98,854612840,13,0.0,-12,-1001,-21,-10,0,4528
99,854812840,13,0.0,-13,-1001,-24,-9,0,4480
100,855012888,13,0.0,-13,-1001,-24,-6,-1,4480
101,855212886,14,0.0,-13,-1001,-25,-8,-1,4480
102,855412827,14,0.0,-13,-1001,-20,-8,-1,4480
103,855612900,14,0.0,-12,-1001,-22,-8,0,4480
104,855812892,14,0.0,-13,-1001,-24,-8,0,4480
105,856012862,13,0.0,-13,-1001,-27,-6,0,4480
106,856212843,13,0.0,-13,-1001,-24,-6,0,4528
107,856412882,13,0.0,-13,-1001,-22,-6,-1,4528
108,856612863,14,0.0,-13,-1001,-24,-12,0,4480
109,856812875,13,0.0,-13,-1001,-22,-11,0,4480
110,857012849,13,0.0,-12,-1001,-20,-9,0,4528
111,857212852,14,0.0,-13,-1001,-25,-9,0,4528
112,857412832,14,0.0,-13,-1001,-26,-10,-1,4528
113,857612885,13,0.0,-13,-1001,-24,-13,-1,4480
114,857812880,14,0.0,-13,-1001,-25,-10,-1,4528
115,858012877,13,0.0,-13,-1001,-25,-8,0,4528
116,858212839,14,0.0,-13,-1001,-28,-8,-1,4480
117,858412893,13,0.0,-13,-1001,-25,-9,0,4480
118,858612882,13,0.0,-13,-1001,-22,-6,-1,4480
119,858812843,13,0.0,-12,-1001,-22,-12,0,4480
120,859012849,14,0.0,-13,-1001,-21,-8,0,4528
121,859212834,14,0.0,-13,-1000,-25,-10,1,4528
122,859412882,13,0.0,-13,-1001,-25,-11,0,4480
123,859612834,13,0.0,-13,-1001,-25,-9,0,4480
124,859812871,13,0.0,-13,-1000,-22,-9,0,4480
125,860012847,14,0.0,-13,-1001,-28,-10,0,4480
126,860212872,14,0.0,-13,-1000,-27,-8,-1,4528
127,860412847,14,0.0,-13,-1000,-22,-10,-1,4480
128,860612870,14,0.0,-13,-1000,-22,-4,-1,4480
129,860812846,13,0.0,-13,-1000,-21,-6,-1,4528
130,861012867,13,0.0,-12,-1000,-24,-10,0,4480
131,861212883,14,0.0,-12,-1000,-24,-8,0,4528
132,861412847,14,0.0,-13,-1001,-21,-10,0,4480
133,861612881,13,0.0,-13,-1000,-27,-9,0,4480
134,861812884,14,0.0,-13,-1001,-26,-11,0,4528
135,862012874,14,0.0,-13,-1001,-21,-4,-1,4480
136,862212880,14,0.0,-13,-1001,-25,-11,-2,4480
137,862412890,14,0.0,-13,-1001,-21,-10,1,4528
138,862612886,14,0.0,-13,-1002,-24,-9,0,4480
139,862812839,14,0.0,-13,-1001,-22,-9,-1,4480
140,863012866,13,0.0,-12,-1001,-22,-6,0,4528
141,863212867,13,0.0,-13,-1002,-24,-10,-2,4528
142,863412883,14,0.0,-13,-1002,-24,-8,-1,4480
143,863612842,14,0.0,-13,-1002,-22,-9,0,4480
144,863812873,14,0.0,-13,-1002,-24,-9,-1,4528
145,864012897,14,0.0,-13,-1001,-25,-8,0,4480
146,864212846,14,0.0,-13,-1002,-25,-12,0,4480
147,864412857,14,0.0,-13,-1002,-26,-6,-1,4480
148,864612863,13,0.0,-13,-1001,-25,-9,1,4480
149,864812893,14,0.0,-13,-1001,-21,-9,0,4480
150,865012877,13,0.0,-12,-1001,-26,-9,-1,4480
151,865212882,14,0.0,-12,-1000,-24,-9,0,4480
152,865412862,14,0.0,-13,-1000,-27,-8,-2,4480
153,865612842,14,0.0,-13,-1001,-24,-9,0,4480
154,865812845,13,0.0,-13,-1000,-26,-9,0,4480
155,866012837,13,0.0,-13,-1000,-24,-8,-2,4480
156,866212892,14,0.0,-12,-1000,-22,-8,0,4528
157,866412850,14,0.0,-13,-1000,-25,-8,0,4480
158,866612858,14,0.0,-13,-1000,-22,-11,0,4528
159,866812873,13,0.0,-12,-1000,-26,-11,0,4480
160,867012891,14,0.0,-13,-1000,-26,-9,-2,4528
161,867212844,13,0.0,-13,-1000,-21,-6,0,4528
162,867412837,13,0.0,-13,-1001,-24,-6,0,4528
163,867612894,14,0.0,-12,-1001,-24,-5,0,4480
164,867812878,14,0.0,-12,-1001,-22,-8,0,4528
165,868012851,13,0.0,-13,-1001,-25,-10,0,4528
166,868212860,14,0.0,-13,-1001,-28,-9,-1,4480
167,868412880,14,0.0,-13,-1001,-25,-8,-1,4480
168,868612872,14,0.0,-12,-1002,-24,-9,0,4480
169,868812834,13,0.0,-13,-1002,-24,-6,-2,4480
170,869012875,14,0.0,-12,-1002,-24,-9,0,4480
171,869212850,14,0.0,-12,-1001,-25,-10,0,4480
172,869412889,14,0.0,-13,-1001,-21,-5,-1,4480
173,869612831,13,0.0,-12,-1002,-26,-8,-1,4480
174,869812853,13,0.0,-12,-1001,-24,-6,-1,4528
175,870012877,14,0.0,-13,-1001,-24,-4,0,4480
176,870212885,14,0.0,-13,-1002,-25,-8,0,4480
177,870412841,14,0.0,-13,-1001,-22,-9,-1,4528
178,870612864,14,0.0,-13,-1000,-26,-11,-1,4480
179,870812830,13,0.0,-13,-1001,-27,-9,-1,4480
180,871012843,14,0.0,-13,-1001,-25,-8,0,4480
181,871212849,14,0.0,-13,-1001,-22,-5,-1,4480
182,871412891,13,0.0,-13,-1001,-24,-9,0,4480
183,871612877,14,0.0,-13,-1000,-24,-5,-3,4480
184,871812883,14,0.0,-13,-1000,-24,-8,-1,4480
185,872012874,13,0.0,-13,-1000,-26,-9,0,4480
186,872212864,13,0.0,-12,-1000,-25,-10,-1,4480
187,872412904,14,0.0,-13,-1000,-26,-8,0,4480
188,872612845,13,0.0,-12,-1000,-22,-9,1,4528
189,872812880,14,0.0,-13,-1000,-26,-8,0,4528
190,873012877,13,0.0,-13,-1000,-25,-10,-2,4528
191,873212877,14,0.0,-13,-1000,-25,-9,-1,4528
192,873412835,14,0.0,-13,-1000,-27,-8,0,4528
193,873612861,13,0.0,-13,-1001,-26,-9,1,4480
194,873812830,14,0.0,-12,-1001,-22,-9,0,4528
195,874012885,13,0.0,-13,-1001,-22,-5,-1,4480
196,874212883,13,0.0,-13,-1001,-24,-9,-1,4480
197,874412878,13,0.0,-13,-1001,-24,-12,0,4480
198,874612881,14,0.0,-13,-1001,-21,-6,0,4480
199,874812884,14,0.0,-12,-1002,-26,-9,0,4480
200,875412843,14,25000.0,-13,-1002,-24,-9,-1,4480
201,875612858,13,25000.0,-13,-1003,-25,-9,-1,4480
202,875812849,13,25000.0,-12,-1002,-24,-6,0,4528
203,876012889,13,25000.0,-13,-1002,-24,-9,-1,4528
204,876212833,13,25000.0,-12,-1001,-24,-6,-3,4528
205,876412855,14,25000.0,-13,-1002,-20,-9,-1,4528
206,876612897,14,25000.0,-13,-1001,-25,-10,0,4480
207,876812889,13,25000.0,-13,-1001,-25,-10,0,4480
208,877012895,14,25000.0,-12,-1002,-25,-9,0,4480
209,877212838,14,25000.0,-12,-1001,-21,-6,0,4528
210,877412870,14,25000.0,-12,-1001,-22,-8,-1,4480
211,877612894,14,25000.0,-13,-1001,-22,-6,-1,4528
212,877812881,14,25000.0,-13,-1001,-25,-8,0,4480
213,878012903,14,25000.0,-13,-1001,-25,-5,-2,4480
214,878212847,14,25000.0,-13,-1001,-22,-12,0,4480
215,878412874,13,25000.0,-13,-1001,-25,-9,-2,4480
216,878612906,14,25000.0,-13,-1001,-22,-9,-1,4480
217,878812842,14,25000.0,-13,-1001,-27,-11,0,4480
218,879012886,14,25000.0,-12,-1001,-22,-10,0,4480
219,879212846,14,25000.0,-12,-1000,-28,-10,0,4528
220,879412886,14,25000.0,-12,-1001,-25,-9,0,4480
221,879612871,13,25000.0,-12,-1001,-22,-8,-2,4528
222,879812892,14,25000.0,-12,-1000,-25,-11,0,4480
223,880012831,14,25000.0,-12,-1000,-20,-9,0,4480
224,880212878,14,25000.0,-12,-1000,-22,-9,-1,4480
225,880412889,14,25000.0,-13,-1000,-24,-10,0,4528
226,880612895,14,25000.0,-12,-1000,-25,-11,0,4480
227,880812850,14,25000.0,-13,-1000,-25,-9,0,4480
228,881012889,14,25000.0,-13,-1000,-25,-10,-1,4528
229,881212826,14,25000.0,-13,-999,-25,-11,-3,4480
230,881412870,14,25000.0,-13,-1000,-22,-8,0,4528
231,881612831,14,25000.0,-13,-1000,-25,-9,-1,4480
232,881812841,14,25000.0,-13,-1000,-22,-8,-1,4528
233,882012875,13,25000.0,-12,-1001,-26,-6,-3,4528
234,882212854,14,25000.0,-13,-1000,-24,-10,0,4480
235,882412833,14,25000.0,-13,-1000,-25,-9,-1,4480
236,882612830,14,25000.0,-13,-1001,-26,-11,-2,4528
237,882812846,14,25000.0,-12,-1001,-21,-6,-2,4528
238,883012878,14,25000.0,-13,-1001,-21,-9,-2,4480
239,883212894,13,25000.0,-12,-1001,-27,-8,-1,4528
240,883412890,13,25000.0,-13,-1001,-24,-8,-2,4528
241,883612842,14,25000.0,-12,-1002,-25,-8,-1,4480
242,883812843,14,25000.0,-13,-1002,-26,-10,-1,4528
243,884012863,14,25000.0,-13,-1002,-22,-8,-2,4480
244,884212858,13,25000.0,-12,-1002,-24,-10,-1,4528
245,884412890,14,25000.0,-13,-1002,-28,-11,0,4480
246,884612876,13,25000.0,-13,-1002,-25,-10,0,4528
247,884812839,14,25000.0,-12,-1002,-24,-8,0,4480
248,885012900,14,25000.0,-13,-1002,-22,-5,0,4528
249,885212878,13,25000.0,-13,-1002,-24,-10,0,4480
250,887412834,13,25025.0,-12,-1000,-27,-8,-1,4480
251,887612856,13,25025.0,-13,-999,-24,-9,-1,4480
252,887812871,14,25025.0,-12,-999,-24,-5,-1,4480
253,888012844,14,25025.0,-13,-999,-25,-9,-1,4480
254,888212898,14,25025.0,-12,-1000,-24,-6,0,4480
255,888412834,13,25025.0,-13,-1000,-20,-5,-1,4480
256,888612894,14,25025.0,-13,-1000,-25,-9,0,4528
257,888812884,14,25025.0,-13,-1000,-25,-10,0,4528
258,889012891,14,25025.0,-13,-1000,-24,-6,-1,4528
259,889212882,13,25025.0,-12,-1000,-26,-9,-2,4528
260,889412912,14,25025.0,-12,-1000,-26,-5,0,4480
261,889612868,14,25025.0,-13,-1000,-27,-9,0,4480
262,889812889,14,25025.0,-13,-1000,-22,-8,0,4528
263,890012851,13,25025.0,-13,-1001,-24,-11,0,4480
264,890212832,14,25025.0,-13,-1001,-24,-11,0,4480
265,890412880,13,25025.0,-13,-1001,-24,-6,-1,4480
266,890612880,13,25025.0,-13,-1001,-22,-5,0,4480
267,890812881,13,25025.0,-13,-1001,-21,-6,-1,4528
268,891012830,14,25025.0,-13,-1002,-26,-8,-1,4528
269,891212900,13,25025.0,-13,-1002,-25,-6,0,4528
270,891412853,14,25025.0,-12,-1001,-22,-8,0,4528
271,891612843,13,25025.0,-13,-1002,-22,-12,-1,4528
272,891812841,13,25025.0,-13,-1002,-20,-6,0,4528
273,892012876,13,25025.0,-13,-1001,-22,-6,-1,4528
274,892212885,13,25025.0,-12,-1001,-24,-10,-1,4528
275,892412816,14,25025.0,-13,-1002,-20,-8,-1,4480
276,892612893,14,25025.0,-13,-1002,-22,-6,0,4480
277,892812835,14,25025.0,-12,-1001,-28,-11,0,4480
278,893012889,13,25025.0,-12,-1001,-24,-6,-1,4480
279,893212874,14,25025.0,-13,-1001,-26,-9,-1,4480
280,893412855,14,25025.0,-13,-1001,-27,-9,-2,4480
281,893612873,14,25025.0,-13,-1001,-26,-8,-1,4528
282,893812904,14,25025.0,-13,-1001,-22,-9,0,4480
283,894012840,14,25025.0,-12,-1001,-24,-12,0,4480
284,894212876,14,25025.0,-13,-1001,-26,-9,0,4480
285,894412888,13,25025.0,-13,-1001,-25,-10,0,4528
286,894612900,13,25025.0,-13,-1001,-22,-9,-2,4528
287,894812857,14,25025.0,-13,-1001,-22,-8,-1,4480
288,895012884,14,25025.0,-12,-1001,-24,-11,-2,4480
289,895212891,14,25025.0,-13,-1001,-22,-11,0,4528
290,895412881,14,25025.0,-13,-1001,-25,-5,-1,4480
291,895612881,14,25025.0,-13,-1001,-22,-9,-2,4480
292,895812876,14,25025.0,-12,-1001,-22,-4,-3,4528
293,896012831,14,25025.0,-12,-1001,-26,-8,0,4528
294,896212861,14,25025.0,-13,-1000,-22,-6,-2,4528
295,896412839,14,25025.0,-13,-1000,-27,-8,0,4528
296,896612904,14,25025.0,-13,-1000,-22,-8,0,4480
297,896812845,14,25025.0,-12,-1001,-24,-11,0,4480
298,897012874,13,25025.0,-13,-1000,-22,-10,-1,4528
299,897212884,13,25025.0,-12,-1001,-27,-6,-2,4480
300,899412839,13,25050.0,-13,-1001,-25,-9,0,4480
301,899612840,14,25050.0,-12,-1001,-24,-8,0,4480
302,899812844,14,25050.0,-13,-1002,-21,-10,-2,4528
303,900012884,14,25050.0,-13,-1000,-20,-10,-1,4528
304,900212897,14,25050.0,-12,-1001,-24,-9,-1,4480
305,900412891,14,25050.0,-12,-1001,-24,-9,-1,4480
306,900612847,14,25050.0,-13,-1000,-24,-10,0,4528
307,900812843,14,25050.0,-12,-1001,-24,-8,-1,4480
308,901012827,13,25050.0,-14,-1000,-26,-8,-1,4528
309,901212887,14,25050.0,-12,-1001,-25,-9,-3,4528
310,901412839,14,25050.0,-13,-1001,-25,-9,-2,4480
311,901612827,14,25050.0,-12,-1001,-22,-9,0,4480
312,901812851,13,25050.0,-13,-1000,-26,-11,-4,4480
313,902012852,13,25050.0,-12,-1000,-25,-11,-1,4480
314,902212843,13,25050.0,-13,-1001,-25,-9,-1,4528
315,902412882,14,25050.0,-13,-1001,-24,-8,0,4480
316,902612841,14,25050.0,-12,-1001,-27,-6,-1,4480
317,902812882,14,25050.0,-13,-1001,-27,-11,-1,4528
318,903012864,13,25050.0,-12,-1001,-22,-6,-1,4528
319,903212837,14,25050.0,-13,-1001,-25,-9,0,4480
320,903412847,14,25050.0,-12,-1000,-21,-10,-1,4480
321,903612829,14,25050.0,-13,-1002,-27,-8,0,4480
322,903812894,14,25050.0,-12,-1001,-25,-8,0,4528
323,904012854,13,25050.0,-13,-1002,-24,-8,-1,4528
324,904212834,14,25050.0,-12,-1002,-22,-4,-1,4528
325,904412838,14,25050.0,-13,-1001,-24,-9,-1,4480
326,904612894,14,25050.0,-13,-1001,-25,-8,-1,4528
327,904812900,14,25050.0,-12,-1002,-25,-9,-1,4480
328,905012893,14,25050.0,-12,-1001,-22,-10,-1,4480
329,905212891,13,25050.0,-12,-1001,-22,-8,-1,4480
330,905412837,13,25050.0,-13,-1001,-25,-8,-1,4480
331,905612894,13,25050.0,-13,-1001,-25,-9,-1,4480
332,905812843,14,25050.0,-13,-1001,-24,-11,0,4528
333,906012853,13,25050.0,-13,-1001,-22,-11,-2,4480
334,906212884,13,25050.0,-13,-1000,-25,-9,-2,4480
335,906412834,13,25050.0,-13,-1000,-22,-8,-1,4528
336,906612890,14,25050.0,-13,-1001,-26,-9,0,4528
337,906812896,14,25050.0,-12,-1001,-22,-8,0,4528
338,907012838,14,25050.0,-12,-1001,-27,-11,0,4528
339,907212841,14,25050.0,-13,-1000,-25,-8,0,4528
340,907412854,14,25050.0,-12,-1000,-27,-8,0,4528
341,907612833,14,25050.0,-12,-1001,-21,-8,-1,4480
342,907812840,13,25050.0,-12,-1000,-25,-10,0,4528
343,908012892,14,25050.0,-13,-1001,-25,-8,-1,4480
344,908212840,14,25050.0,-12,-1002,-27,-9,1,4528
345,908412852,14,25050.0,-13,-1001,-22,-9,-2,4528
346,908612885,14,25050.0,-13,-1001,-25,-9,-2,4528
347,908812871,14,25050.0,-12,-1001,-22,-10,1,4480
348,909012882,14,25050.0,-13,-1001,-22,-9,0,4528
349,909212867,14,25050.0,-12,-1001,-26,-10,-2,4528
350,911612839,14,25075.0,-12,-1001,-21,-10,-1,4480
351,911812883,13,25075.0,-13,-1002,-24,-9,-1,4480
352,912012889,13,25075.0,-13,-1001,-24,-8,-2,4528
353,912212876,14,25075.0,-13,-1002,-22,-6,0,4480
354,912412858,14,25075.0,-13,-1001,-21,-9,-1,4528
355,912612893,14,25075.0,-13,-1001,-25,-10,-2,4480
356,912812872,13,25075.0,-13,-1001,-27,-11,-1,4528
357,913012873,14,25075.0,-12,-1000,-24,-6,0,4480
358,913212872,14,25075.0,-13,-1001,-24,-9,0,4528
359,913412879,13,25075.0,-12,-1002,-25,-5,0,4480
360,913612878,13,25075.0,-13,-1001,-25,-9,0,4480
361,913812897,14,25075.0,-12,-1001,-22,-6,-2,4480
362,914012837,14,25075.0,-12,-1001,-25,-8,0,4480
363,914212838,14,25075.0,-13,-1001,-21,-8,0,4480
364,914412904,14,25075.0,-12,-1001,-25,-13,-1,4480
365,914612837,13,25075.0,-13,-1001,-26,-9,0,4480
366,914812892,14,25075.0,-13,-1001,-25,-14,0,4528
367,915012847,13,25075.0,-13,-1001,-21,-8,0,4528
368,915212829,14,25075.0,-13,-1001,-25,-9,-1,4528
369,915412892,13,25075.0,-13,-1001,-22,-4,1,4480
370,915612827,14,25075.0,-12,-1001,-24,-6,-1,4480
371,915812880,14,25075.0,-12,-1001,-26,-8,-2,4528
372,916012889,13,25075.0,-13,-1001,-19,-8,-2,4480
373,916212850,14,25075.0,-12,-1001,-21,-11,0,4528
374,916412833,13,25075.0,-13,-1001,-24,-10,-1,4480
375,916612841,14,25075.0,-13,-1001,-25,-13,0,4480
376,916812880,13,25075.0,-13,-1001,-22,-10,0,4528
377,917012839,14,25075.0,-12,-1000,-22,-10,0,4480
378,917212837,14,25075.0,-13,-1001,-24,-6,-2,4480
379,917412888,13,25075.0,-13,-1001,-26,-10,0,4528
380,917612895,13,25075.0,-13,-1001,-24,-8,0,4528
381,917812876,14,25075.0,-13,-1001,-25,-12,-1,4528
382,918012846,14,25075.0,-12,-1001,-21,-11,0,4480
383,918212871,14,25075.0,-13,-1001,-25,-9,-2,4480
384,918412878,14,25075.0,-13,-1001,-22,-5,1,4528
385,918612924,14,25075.0,-13,-1001,-25,-9,-1,4480
386,918812860,14,25075.0,-13,-1001,-22,-4,0,4480
387,919012880,14,25075.0,-12,-1001,-21,-8,-1,4480
388,919212847,14,25075.0,-13,-1000,-25,-8,-2,4528
389,919412862,13,25075.0,-13,-1001,-24,-12,0,4480
390,919612843,14,25075.0,-13,-1001,-25,-9,-1,4480
391,919812860,14,25075.0,-13,-1001,-25,-8,-2,4480
392,920012873,14,25075.0,-12,-1001,-26,-9,0,4528
393,920212841,14,25075.0,-13,-1001,-24,-9,-1,4480
394,920412866,13,25075.0,-13,-1002,-25,-9,0,4480
395,920612870,13,25075.0,-12,-1002,-22,-10,-1,4480
396,920812888,14,25075.0,-13,-1001,-21,-10,-1,4480
397,921012873,14,25075.0,-12,-1002,-22,-6,-1,4480
398,921212841,14,25075.0,-13,-1001,-27,-8,-1,4480
399,921412840,14,25075.0,-12,-1001,-25,-10,0,4480
400,923412904,14,25100.0,-13,-1000,-24,-6,-1,4480
401,923612848,14,25100.0,-13,-1000,-25,-10,0,4528
402,923812902,14,25100.0,-13,-1000,-24,-8,-2,4480
403,924012880,13,25100.0,-13,-1000,-22,-9,-1,4480
404,924212896,14,25100.0,-13,-1000,-27,-11,-1,4528
405,924412877,14,25100.0,-13,-1000,-24,-10,-2,4480
406,924612879,14,25100.0,-12,-1000,-26,-9,0,4528
407,924812880,14,25100.0,-13,-1001,-25,-10,-1,4480
408,925012834,13,25100.0,-13,-1001,-25,-10,-1,4528
409,925212853,14,25100.0,-12,-1001,-26,-10,-2,4528
410,925412879,14,25100.0,-13,-1001,-24,-4,0,4528
411,925612878,13,25100.0,-12,-1001,-25,-9,0,4528
412,925812872,15,25100.0,-12,-1001,-24,-6,-1,4480
413,926012856,14,25100.0,-12,-1001,-25,-11,0,4480
414,926212844,13,25100.0,-12,-1002,-22,-10,0,4528
415,926412884,14,25100.0,-12,-1001,-21,-10,0,4480
416,926612826,14,25100.0,-12,-1001,-26,-9,0,4480
417,926812843,14,25100.0,-13,-1002,-24,-9,-1,4528
418,927012894,14,25100.0,-12,-1002,-24,-11,-1,4480
419,927212897,14,25100.0,-13,-1002,-22,-5,-2,4480
420,927412835,13,25100.0,-13,-1002,-24,-10,0,4528
421,927612888,14,25100.0,-12,-1002,-29,-10,0,4480
422,927812882,13,25100.0,-13,-1002,-25,-12,-1,4528
423,928012889,14,25100.0,-12,-1002,-25,-5,0,4480
424,928212848,13,25100.0,-12,-1002,-25,-8,-1,4480
425,928412874,13,25100.0,-13,-1001,-22,-6,0,4528
426,928612887,14,25100.0,-12,-1001,-25,-6,-2,4528
427,928812888,13,25100.0,-12,-1001,-24,-5,-2,4480
428,929012880,14,25100.0,-13,-1000,-26,-12,0,4480
429,929212837,14,25100.0,-13,-1001,-25,-6,-2,4480
430,929412893,14,25100.0,-13,-1001,-22,-6,0,4528
431,929612840,13,25100.0,-13,-1000,-28,-6,-1,4528
432,929812875,14,25100.0,-13,-1000,-22,-8,0,4480
433,930012882,14,25100.0,-13,-1000,-24,-9,0,4528
434,930212829,14,25100.0,-12,-1000,-21,-10,-1,4528
435,930412844,14,25100.0,-13,-1000,-25,-9,0,4528
436,930612854,13,25100.0,-12,-1000,-25,-8,0,4528
437,930812872,14,25100.0,-13,-1001,-24,-8,-1,4480
438,931012885,14,25100.0,-13,-1000,-24,-10,-1,4528
439,931212880,13,25100.0,-12,-1001,-24,-6,-1,4528
440,931412918,13,25100.0,-12,-1000,-22,-12,0,4528
441,931612887,14,25100.0,-13,-1001,-22,-6,-1,4480
442,931812895,14,25100.0,-13,-1001,-25,-5,0,4480
443,932012846,13,25100.0,-13,-1002,-22,-8,-2,4480
444,932212864,14,25100.0,-12,-1002,-26,-9,-1,4480
445,932412874,13,25100.0,-12,-1001,-24,-9,-1,4480
446,932612857,14,25100.0,-12,-1002,-24,-6,0,4480
447,932812898,14,25100.0,-13,-1002,-22,-10,0,4480
448,933012873,14,25100.0,-12,-1003,-25,-9,0,4480
449,933212882,14,25100.0,-12,-1001,-26,-10,0,4480
450,935612887,14,25125.0,-13,-1001,-25,-5,-1,4480
451,935812881,13,25125.0,-13,-1000,-24,-9,0,4480
452,936012846,14,25125.0,-12,-1001,-22,-10,-2,4528
453,936212887,14,25125.0,-13,-1001,-26,-9,-1,4480
454,936412902,13,25125.0,-12,-1001,-26,-6,-1,4480
455,936612840,14,25125.0,-13,-1001,-26,-9,0,4480
456,936812883,14,25125.0,-13,-1000,-24,-4,-2,4480
457,937012874,13,25125.0,-12,-1001,-24,-5,0,4528
458,937212852,14,25125.0,-13,-1001,-22,-10,0,4480
459,937412839,14,25125.0,-13,-1000,-25,-12,1,4480
460,937612899,14,25125.0,-13,-1000,-26,-4,0,4528
461,937812876,14,25125.0,-13,-1001,-24,-6,-2,4480
462,938012870,14,25125.0,-13,-1001,-21,-9,-1,4480
463,938212841,14,25125.0,-13,-1001,-27,-10,-2,4528
464,938412884,14,25125.0,-13,-1002,-25,-10,0,4480
465,938612894,14,25125.0,-12,-1002,-22,-8,-1,4480
466,938812876,14,25125.0,-13,-1001,-20,-9,0,4528
467,939012851,14,25125.0,-12,-1001,-26,-8,0,4528
468,939212869,14,25125.0,-13,-1001,-26,-9,-1,4480
469,939412867,14,25125.0,-13,-1001,-25,-9,0,4480
470,939612895,14,25125.0,-12,-1001,-26,-9,1,4480
471,939812832,14,25125.0,-13,-1001,-25,-9,1,4480
472,940012872,14,25125.0,-13,-1000,-21,-8,0,4480
473,940212875,14,25125.0,-12,-1000,-25,-11,0,4480
474,940412843,13,25125.0,-12,-1000,-24,-3,-1,4528
475,940612892,13,25125.0,-12,-1001,-24,-8,0,4480
476,940812875,13,25125.0,-12,-1000,-25,-10,-1,4480
477,941012878,13,25125.0,-12,-1001,-22,-10,-1,4528
478,941212888,14,25125.0,-12,-1001,-25,-11,-1,4528
479,941412895,14,25125.0,-13,-1000,-20,-8,-2,4528
480,941612897,14,25125.0,-13,-1000,-27,-6,0,4528
481,941812843,13,25125.0,-13,-1001,-24,-6,-2,4528
482,942012843,14,25125.0,-13,-1001,-26,-8,0,4480
483,942212855,14,25125.0,-12,-1001,-21,-9,0,4480
484,942412895,14,25125.0,-13,-1002,-25,-10,-1,4528
485,942612830,14,25125.0,-13,-1001,-21,-9,0,4528
486,942812844,14,25125.0,-13,-1001,-25,-11,0,4480
487,943012878,14,25125.0,-13,-1001,-24,-5,0,4528
488,943212853,14,25125.0,-13,-1002,-25,-9,-1,4528
489,943412839,14,25125.0,-12,-1001,-28,-6,0,4528
490,943612857,14,25125.0,-13,-1002,-24,-10,1,4480
491,943812882,14,25125.0,-12,-1002,-25,-8,0,4480
492,944012880,14,25125.0,-12,-1002,-22,-10,0,4480
493,944212843,14,25125.0,-12,-1001,-25,-9,0,4528
494,944412902,13,25125.0,-12,-1002,-25,-8,0,4480
495,944612867,13,25125.0,-13,-1001,-21,-5,0,4528
496,944812883,14,25125.0,-13,-1001,-24,-11,0,4480
497,945012894,14,25125.0,-13,-1001,-22,-9,0,4480
498,945212845,14,25125.0,-13,-1001,-22,-8,-2,4528
499,945412873,14,25125.0,-12,-1002,-21,-8,0,4480
500,947612829,13,25150.0,-13,-1000,-25,-8,-1,4480
501,947812861,13,25150.0,-12,-1000,-24,-10,-1,4528
502,948012880,13,25150.0,-13,-1001,-27,-6,-1,4480
503,948212839,14,25150.0,-13,-1000,-26,-9,-2,4480
504,948412832,14,25150.0,-13,-1001,-22,-5,0,4480
505,948612897,14,25150.0,-12,-1000,-21,-11,-1,4528
506,948812876,14,25150.0,-13,-1000,-21,-8,-2,4528
507,949012892,14,25150.0,-12,-1001,-20,-9,0,4528
508,949212876,14,25150.0,-12,-1001,-26,-10,0,4528
509,949412839,14,25150.0,-13,-1002,-22,-8,-1,4528
510,949612893,13,25150.0,-13,-1002,-25,-9,1,4480
511,949812874,14,25150.0,-13,-1002,-24,-8,0,4528
512,950012869,13,25150.0,-13,-1002,-25,-10,-3,4528
513,950212892,14,25150.0,-12,-1002,-22,-9,-1,4528
514,950412844,14,25150.0,-12,-1002,-21,-6,-1,4480
515,950612871,14,25150.0,-13,-1002,-22,-6,0,4480
516,950812899,14,25150.0,-13,-1001,-26,-9,-1,4480
517,951012862,14,25150.0,-13,-1002,-25,-8,-1,4480
518,951212882,14,25150.0,-13,-1002,-27,-11,0,4528
519,951412876,14,25150.0,-12,-1001,-26,-9,-1,4528
520,951612881,13,25150.0,-13,-1002,-25,-9,-2,4480
521,951812873,13,25150.0,-13,-1001,-24,-6,-1,4480
522,952012896,13,25150.0,-12,-1001,-25,-8,0,4480
523,952212887,14,25150.0,-12,-1001,-24,-12,0,4480
524,952412879,14,25150.0,-13,-1001,-25,-8,0,4480
525,952612875,14,25150.0,-13,-1001,-26,-10,0,4480
526,952812833,14,25150.0,-13,-1001,-28,-10,-1,4480
527,953012850,14,25150.0,-13,-1001,-25,-10,0,4528
528,953212901,14,25150.0,-13,-1001,-25,-9,0,4480
529,953412831,14,25150.0,-13,-1000,-26,-10,0,4528
530,953612891,14,25150.0,-12,-1001,-21,-10,0,4528
531,953812895,14,25150.0,-12,-1001,-27,-10,-1,4528
532,954012888,14,25150.0,-13,-1001,-22,-6,-1,4528
533,954212835,13,25150.0,-13,-1001,-24,-8,0,4528
534,954412873,14,25150.0,-12,-1000,-26,-8,0,4480
535,954612880,14,25150.0,-13,-1001,-25,-9,0,4528
536,954812837,14,25150.0,-12,-1001,-25,-9,-3,4480
537,955012884,14,25150.0,-13,-1001,-26,-5,0,4528
538,955212895,13,25150.0,-12,-1001,-22,-8,-1,4528
539,955412835,13,25150.0,-12,-1001,-25,-8,0,4528
540,955612888,13,25150.0,-12,-1001,-22,-8,-1,4528
541,955812844,14,25150.0,-12,-1002,-26,-10,-1,4528
542,956012898,13,25150.0,-13,-1001,-25,-9,-2,4480
543,956212836,14,25150.0,-13,-1001,-24,-9,0,4480
544,956412868,14,25150.0,-12,-1001,-21,-11,0,4480
545,956612879,14,25150.0,-12,-1002,-22,-6,0,4480
546,956812830,13,25150.0,-13,-1002,-27,-8,0,4528
547,957012902,14,25150.0,-13,-1002,-22,-6,-3,4528
548,957212841,14,25150.0,-13,-1002,-26,-8,-1,4528
549,957412897,13,25150.0,-13,-1002,-26,-9,0,4528
550,959612836,14,25175.0,-13,-1001,-21,-9,-1,4480
551,959812840,13,25175.0,-12,-1001,-24,-8,-1,4480
552,960012832,13,25175.0,-13,-1000,-26,-5,-2,4480
553,960212834,13,25175.0,-13,-1001,-24,-9,0,4480
554,960412845,14,25175.0,-12,-1001,-26,-9,0,4480
555,960612833,14,25175.0,-13,-1001,-20,-11,-1,4528
556,960812830,14,25175.0,-12,-1001,-24,-6,-1,4528
557,961012894,14,25175.0,-12,-1001,-25,-8,0,4528
558,961212880,14,25175.0,-13,-1001,-26,-9,0,4480
559,961412839,14,25175.0,-12,-1001,-24,-6,0,4528
560,961612900,13,25175.0,-12,-1001,-24,-10,-2,4528
561,961812836,14,25175.0,-12,-1001,-26,-9,-1,4480
562,962012897,13,25175.0,-13,-1001,-24,-5,-2,4528
563,962212887,14,25175.0,-12,-1001,-25,-8,-1,4528
564,962412875,14,25175.0,-13,-1001,-22,-6,-2,4480
565,962612892,14,25175.0,-13,-1000,-22,-9,-1,4480
566,962812898,14,25175.0,-12,-1001,-22,-9,0,4480
567,963012886,14,25175.0,-13,-1000,-26,-10,0,4528
568,963212853,13,25175.0,-12,-1000,-24,-9,-2,4528
569,963412830,14,25175.0,-13,-1001,-26,-8,0,4528
570,963612881,14,25175.0,-12,-1001,-26,-5,0,4480
571,963812879,13,25175.0,-12,-1001,-25,-6,0,4480
572,964012846,13,25175.0,-13,-1001,-25,-8,-1,4480
573,964212881,13,25175.0,-13,-1001,-24,-10,1,4480
574,964412844,14,25175.0,-12,-1001,-22,-10,-1,4480
575,964612887,13,25175.0,-12,-1001,-24,-10,-1,4480
576,964812892,14,25175.0,-12,-1001,-25,-5,-1,4528
577,965012836,13,25175.0,-12,-1001,-22,-9,0,4480
578,965212882,13,25175.0,-12,-1001,-22,-8,0,4480
579,965412877,14,25175.0,-12,-1001,-22,-11,0,4528
580,965612845,14,25175.0,-13,-1001,-25,-9,-1,4528
581,965812850,14,25175.0,-13,-1000,-24,-6,0,4480
582,966012870,14,25175.0,-12,-1002,-26,-11,-2,4480
583,966212845,13,25175.0,-12,-1001,-24,-8,0,4528
584,966412859,14,25175.0,-12,-1001,-25,-10,0,4480
585,966612882,14,25175.0,-13,-1001,-22,-9,0,4528
586,966812833,14,25175.0,-12,-1001,-22,-9,-1,4528
587,967012843,14,25175.0,-13,-1002,-26,-10,-2,4480
588,967212876,14,25175.0,-12,-1001,-24,-5,0,4480
589,967412900,14,25175.0,-13,-1000,-24,-9,0,4480
590,967612848,13,25175.0,-12,-1001,-25,-10,0,4528
591,967812830,14,25175.0,-13,-1001,-27,-9,0,4528
592,968012845,14,25175.0,-12,-1001,-25,-8,0,4480
593,968212885,14,25175.0,-12,-1001,-28,-8,0,4528
594,968412842,14,25175.0,-12,-1000,-25,-8,-2,4480
595,968612878,14,25175.0,-12,-1001,-22,-8,-3,4528
596,968812866,13,25175.0,-13,-1001,-24,-8,-1,4528
597,969012874,14,25175.0,-13,-1001,-24,-8,0,4528
598,969212837,14,25175.0,-12,-1001,-24,-9,0,4528
599,969412872,14,25175.0,-13,-1001,-22,-10,-1,4480
600,971612902,14,25200.0,-13,-1002,-25,-8,0,4528
601,971812857,13,25200.0,-13,-1002,-24,-8,-1,4480
602,972012877,14,25200.0,-12,-1001,-21,-6,0,4480
603,972212849,14,25200.0,-13,-1001,-26,-11,0,4528
604,972412843,14,25200.0,-13,-1002,-25,-10,1,4528
605,972612874,14,25200.0,-13,-1001,-25,-8,0,4480
606,972812870,14,25200.0,-12,-1001,-26,-6,0,4480
607,973012861,14,25200.0,-13,-1001,-22,-10,-1,4528
608,973212883,13,25200.0,-12,-1001,-24,-9,-1,4528
609,973412876,14,25200.0,-12,-1001,-24,-9,-2,4528
610,973612890,13,25200.0,-12,-1001,-24,-10,0,4480
611,973812890,14,25200.0,-12,-1001,-22,-10,0,4480
612,974012879,14,25200.0,-13,-1002,-22,-9,-2,4528
613,974212908,14,25200.0,-12,-1001,-26,-11,0,4480
614,974412838,14,25200.0,-12,-1001,-21,-8,0,4480
615,974612891,14,25200.0,-12,-1001,-24,-9,0,4528
616,974812861,14,25200.0,-12,-1001,-24,-6,-1,4528
617,975012832,14,25200.0,-12,-1002,-27,-11,0,4480
618,975212858,14,25200.0,-13,-1001,-25,-9,0,4480
619,975412896,13,25200.0,-12,-1002,-26,-9,0,4480
620,975612829,14,25200.0,-12,-1001,-27,-12,0,4480
621,975812876,13,25200.0,-12,-1000,-25,-10,-1,4528
622,976012844,14,25200.0,-13,-1001,-22,-11,0,4480
623,976212883,14,25200.0,-12,-1000,-27,-10,-3,4480
624,976412867,14,25200.0,-13,-1001,-21,-8,0,4528
625,976612883,14,25200.0,-13,-1001,-24,-9,1,4480
626,976812879,14,25200.0,-13,-1001,-24,-6,0,4528
627,977012853,14,25200.0,-12,-1002,-25,-8,-2,4528
628,977212879,14,25200.0,-12,-1001,-27,-12,0,4528
629,977412832,14,25200.0,-12,-1001,-25,-11,0,4480
630,977612879,13,25200.0,-13,-1002,-26,-9,0,4528
631,977812877,13,25200.0,-12,-1001,-22,-9,-2,4480
632,978012874,14,25200.0,-13,-1001,-24,-8,-1,4528
633,978212872,14,25200.0,-12,-1002,-24,-10,-1,4480
634,978412888,14,25200.0,-13,-1001,-24,-12,0,4528
635,978612839,14,25200.0,-12,-1001,-25,-9,0,4480
636,978812848,13,25200.0,-13,-1001,-25,-9,-1,4528
637,979012847,14,25200.0,-12,-1001,-24,-9,0,4528
638,979212837,14,25200.0,-13,-1001,-25,-11,0,4480
639,979412892,14,25200.0,-13,-1001,-22,-9,-1,4528
640,979612832,14,25200.0,-12,-1002,-24,-9,-3,4480
641,979812886,14,25200.0,-12,-1001,-24,-9,-1,4480
642,980012834,13,25200.0,-13,-1001,-22,-9,-2,4528
643,980212875,14,25200.0,-12,-1001,-26,-9,-1,4480
644,980412833,13,25200.0,-12,-1000,-22,-9,0,4528
645,980612891,14,25200.0,-13,-1001,-25,-8,0,4528
646,980812909,14,25200.0,-13,-1001,-25,-8,-2,4528
647,981012878,14,25200.0,-13,-1001,-25,-9,0,4480
648,981212847,14,25200.0,-12,-1001,-24,-12,1,4480
649,981412833,14,25200.0,-13,-1002,-25,-8,0,4480
650,983812847,14,25225.0,-13,-1001,-26,-8,-3,4528
651,984012881,14,25225.0,-13,-1001,-22,-10,-1,4480
652,984212872,13,25225.0,-13,-1001,-26,-11,0,4480
653,984412913,14,25225.0,-13,-1001,-24,-9,0,4480
654,984612890,14,25225.0,-13,-1001,-27,-9,0,4528
655,984812892,14,25225.0,-13,-1001,-20,-5,0,4528
656,985012869,14,25225.0,-13,-1001,-24,-10,-1,4528
657,985212835,14,25225.0,-13,-1001,-25,-11,-1,4528
658,985412838,14,25225.0,-13,-1001,-22,-6,0,4528
659,985612886,13,25225.0,-12,-1002,-25,-11,1,4480
660,985812897,14,25225.0,-12,-1001,-25,-10,-1,4528
661,986012831,14,25225.0,-12,-1001,-26,-9,0,4480
662,986212901,13,25225.0,-13,-1001,-25,-8,0,4480
663,986412837,13,25225.0,-12,-1001,-25,-9,0,4528
664,986612890,14,25225.0,-12,-1001,-21,-9,-1,4480
665,986812847,14,25225.0,-13,-1001,-25,-9,0,4528
666,987012842,14,25225.0,-13,-1001,-21,-9,1,4528
667,987212869,14,25225.0,-13,-1001,-24,-10,0,4480
668,987412887,14,25225.0,-12,-1001,-24,-9,0,4528
669,987612842,14,25225.0,-13,-1001,-25,-6,0,4528
670,987812889,14,25225.0,-13,-1001,-20,-5,0,4528
671,988012854,14,25225.0,-12,-1000,-24,-9,-1,4480
672,988212895,14,25225.0,-13,-1001,-26,-12,-1,4528
673,988412856,14,25225.0,-13,-1001,-21,-4,-1,4528
674,988612877,13,25225.0,-12,-1002,-25,-8,0,4480
675,988812892,13,25225.0,-13,-1001,-24,-8,0,4528
676,989012830,13,25225.0,-12,-1001,-27,-11,-1,4528
677,989212887,13,25225.0,-12,-1001,-22,-10,-1,4480
678,989412843,14,25225.0,-13,-1001,-25,-8,1,4528
679,989612850,14,25225.0,-13,-1001,-28,-10,-2,4480
680,989812884,14,25225.0,-12,-1001,-27,-8,-1,4480
681,990012860,14,25225.0,-13,-1001,-26,-8,-2,4528
682,990212829,14,25225.0,-12,-1001,-22,-11,1,4480
683,990412879,14,25225.0,-13,-1002,-27,-8,0,4480
684,990612843,14,25225.0,-13,-1002,-26,-11,0,4528
685,990812880,14,25225.0,-13,-1002,-21,-8,-1,4480
686,991012902,13,25225.0,-12,-1002,-25,-6,0,4480
687,991212842,14,25225.0,-13,-1001,-25,-10,-1,4480
688,991412898,14,25225.0,-12,-1001,-27,-13,-2,4528
689,991612835,14,25225.0,-12,-1002,-24,-8,0,4528
690,991812876,14,25225.0,-13,-1001,-22,-6,-1,4528
691,992012887,13,25225.0,-13,-1001,-22,-9,0,4480
692,992212884,13,25225.0,-12,-1001,-25,-6,0,4480
693,992412875,14,25225.0,-13,-1002,-22,-10,0,4528
694,992612878,14,25225.0,-12,-1002,-24,-5,0,4480
695,992812896,13,25225.0,-13,-1001,-24,-8,-2,4480
696,993012830,13,25225.0,-12,-1001,-22,-10,0,4528
697,993212902,14,25225.0,-12,-1001,-24,-5,0,4480
698,993412885,14,25225.0,-12,-1001,-26,-5,-1,4528
699,993612834,14,25225.0,-13,-1001,-26,-5,0,4528
700,996612896,13,25250.0,-12,-1002,-25,-9,0,4480
701,996812892,14,25250.0,-13,-1002,-27,-11,0,4480
702,997012883,13,25250.0,-13,-1002,-21,-9,0,4480
703,997212892,14,25250.0,-13,-1002,-24,-8,0,4528
704,997412829,13,25250.0,-13,-1002,-25,-8,-1,4480
705,997612864,13,25250.0,-12,-1002,-26,-9,-1,4480
706,997812839,14,25250.0,-13,-1002,-25,-9,-1,4528
707,998012867,14,25250.0,-12,-1002,-25,-6,-1,4528
708,998212834,14,25250.0,-12,-1001,-24,-9,0,4480
709,998412888,14,25250.0,-13,-1002,-25,-14,0,4480
710,998612849,14,25250.0,-13,-1001,-25,-6,1,4480
711,998812881,14,25250.0,-13,-1001,-25,-10,-1,4480
712,999012875,14,25250.0,-12,-1001,-26,-6,0,4480
713,999212829,14,25250.0,-13,-1001,-24,-5,0,4480
714,999412887,14,25250.0,-13,-1000,-24,-11,0,4528
715,999612848,14,25250.0,-13,-1001,-25,-4,0,4480
716,999812844,14,25250.0,-13,-1001,-26,-8,0,4528
717,1000012859,14,25250.0,-13,-1001,-25,-9,-1,4480
718,1000212849,14,25250.0,-13,-1001,-28,-9,0,4528
719,1000412896,14,25250.0,-12,-1001,-22,-8,-2,4528
720,1000612839,13,25250.0,-12,-1001,-24,-10,0,4528
721,1000812850,14,25250.0,-13,-1001,-20,-10,-1,4528
722,1001012898,13,25250.0,-13,-1001,-24,-10,0,4528
723,1001212884,14,25250.0,-13,-1001,-20,-10,-1,4480
724,1001412891,13,25250.0,-12,-1001,-25,-9,-1,4480
725,1001612845,14,25250.0,-12,-1001,-22,-5,-1,4528
726,1001812855,14,25250.0,-12,-1001,-22,-10,1,4528
727,1002012845,14,25250.0,-13,-1001,-24,-8,-1,4528
728,1002212879,14,25250.0,-12,-1001,-22,-6,1,4480
729,1002412893,14,25250.0,-13,-1001,-25,-6,1,4528
730,1002612847,14,25250.0,-13,-1002,-22,-9,0,4480
731,1002812842,13,25250.0,-13,-1001,-22,-10,-1,4528
732,1003012888,13,25250.0,-12,-1001,-26,-11,-1,4528
733,1003212858,14,25250.0,-12,-1001,-22,-9,-2,4528
734,1003412852,14,25250.0,-13,-1001,-25,-10,0,4480
735,1003612901,14,25250.0,-13,-1001,-26,-10,0,4480
736,1003812832,14,25250.0,-13,-1002,-28,-10,0,4528
737,1004012889,14,25250.0,-12,-1001,-24,-9,-2,4528
738,1004212866,14,25250.0,-13,-1001,-22,-11,1,4528
739,1004412875,13,25250.0,-13,-1001,-24,-6,0,4528
740,1004612875,14,25250.0,-13,-1001,-24,-8,0,4480
741,1004812831,14,25250.0,-12,-1001,-21,-6,-2,4480
742,1005012859,14,25250.0,-13,-1001,-21,-9,0,4480
743,1005212839,14,25250.0,-13,-1000,-25,-8,0,4528
744,1005412832,14,25250.0,-13,-1001,-20,-8,-1,4528
745,1005612884,13,25250.0,-13,-1000,-27,-10,0,4480
746,1005812898,13,25250.0,-13,-1001,-25,-6,0,4480
747,1006012869,14,25250.0,-12,-1001,-20,-6,-1,4528
748,1006212828,14,25250.0,-12,-1001,-26,-9,-1,4528
749,1006412893,14,25250.0,-12,-1001,-25,-6,0,4480
750,1007812846,14,25275.0,-13,-1002,-26,-11,2,4528
751,1008012846,14,25275.0,-12,-1001,-24,-8,0,4480
752,1008212838,14,25275.0,-12,-1002,-26,-11,-1,4480
753,1008412891,14,25275.0,-12,-1001,-25,-11,-1,4528
754,1008612842,14,25275.0,-13,-1001,-27,-8,1,4528
755,1008812904,14,25275.0,-12,-1001,-25,-11,-2,4480
756,1009012884,14,25275.0,-13,-1001,-26,-10,-2,4480
757,1009212847,14,25275.0,-13,-1001,-29,-6,0,4480
758,1009412864,14,25275.0,-12,-1001,-22,-8,1,4480
759,1009612871,14,25275.0,-13,-1001,-26,-10,0,4528
760,1009812861,13,25275.0,-13,-1001,-28,-8,0,4480
761,1010012876,13,25275.0,-13,-1001,-22,-10,-2,4528
762,1010212898,14,25275.0,-13,-1001,-25,-8,0,4480
763,1010412900,14,25275.0,-12,-1002,-26,-8,-1,4528
764,1010612889,14,25275.0,-12,-1002,-21,-8,-1,4528
765,1010812875,13,25275.0,-13,-1002,-27,-9,-1,4528
766,1011012903,13,25275.0,-13,-1001,-21,-5,0,4528
767,1011212850,13,25275.0,-13,-1001,-22,-5,0,4480
768,1011412832,14,25275.0,-13,-1001,-24,-9,0,4480
769,1011612879,14,25275.0,-12,-1002,-21,-8,-1,4480
770,1011812835,13,25275.0,-12,-1001,-24,-8,0,4528
771,1012012901,14,25275.0,-13,-1001,-26,-8,-1,4528
772,1012212880,14,25275.0,-13,-1002,-19,-6,1,4480
773,1012412838,14,25275.0,-12,-1001,-26,-10,0,4480
774,1012612868,13,25275.0,-12,-1001,-24,-8,-2,4480
775,1012812877,14,25275.0,-13,-1001,-24,-8,-2,4528
776,1013012891,14,25275.0,-13,-1001,-24,-8,0,4480
777,1013212874,14,25275.0,-12,-1001,-25,-8,0,4528
778,1013412880,14,25275.0,-13,-1001,-25,-8,-1,4528
779,1013612880,14,25275.0,-12,-1001,-24,-9,-1,4480
780,1013812839,13,25275.0,-13,-1001,-25,-6,0,4528
781,1014012834,14,25275.0,-12,-1001,-26,-5,0,4480
782,1014212834,14,25275.0,-12,-1000,-26,-10,-2,4528
783,1014412884,14,25275.0,-12,-1000,-26,-10,-1,4528
784,1014612843,14,25275.0,-13,-1000,-22,-6,-1,4480
785,1014812899,14,25275.0,-12,-1000,-22,-8,-1,4480
786,1015012883,14,25275.0,-13,-1001,-24,-10,0,4480
787,1015212834,13,25275.0,-13,-1001,-24,-9,-1,4528
788,1015412839,13,25275.0,-12,-1002,-22,-9,0,4480
789,1015612880,13,25275.0,-12,-1002,-27,-11,-1,4528
790,1015812838,14,25275.0,-12,-1002,-26,-9,0,4528
791,1016012881,14,25275.0,-12,-1002,-26,-8,0,4528
792,1016212845,14,25275.0,-13,-1001,-26,-5,-1,4480
793,1016412841,14,25275.0,-13,-1001,-25,-9,-1,4480
794,1016612858,13,25275.0,-13,-1002,-25,-9,0,4528
795,1016812883,14,25275.0,-12,-1002,-21,-6,0,4480
796,1017012840,14,25275.0,-13,-1002,-25,-11,-1,4480
797,1017212900,14,25275.0,-13,-1002,-22,-11,-2,4480
798,1017412845,14,25275.0,-13,-1002,-25,-8,-1,4528
799,1017612878,14,25275.0,-12,-1001,-20,-10,0,4480
800,1020012841,14,25300.0,-12,-1001,-26,-10,-1,4480
801,1020212889,14,25300.0,-13,-1001,-25,-10,-1,4528
802,1020412840,13,25300.0,-12,-1002,-24,-8,0,4480
803,1020612865,14,25300.0,-13,-1001,-25,-4,-1,4528
804,1020812897,14,25300.0,-13,-1001,-25,-9,0,4528
805,1021012841,13,25300.0,-13,-1001,-24,-6,-2,4480
806,1021212874,14,25300.0,-12,-1001,-28,-10,-1,4528
807,1021412834,13,25300.0,-12,-1001,-24,-9,-1,4480
808,1021612886,13,25300.0,-13,-1001,-24,-5,-1,4480
809,1021812837,14,25300.0,-12,-1000,-26,-8,0,4528
810,1022012893,13,25300.0,-12,-1001,-24,-10,0,4528
811,1022212834,13,25300.0,-13,-1000,-24,-8,0,4528
812,1022412878,14,25300.0,-13,-1001,-25,-6,0,4480
813,1022612880,14,25300.0,-12,-1001,-22,-9,0,4480
814,1022812833,13,25300.0,-13,-1000,-21,-9,-1,4480
815,1023012883,13,25300.0,-12,-1001,-24,-10,0,4480
816,1023212841,14,25300.0,-12,-1001,-24,-12,0,4528
817,1023412879,14,25300.0,-13,-1001,-27,-8,0,4528
818,1023612841,14,25300.0,-13,-1001,-26,-10,0,4480
819,1023812898,14,25300.0,-13,-1002,-27,-10,0,4480
820,1024012844,14,25300.0,-12,-1002,-25,-11,-2,4528
821,1024212849,13,25300.0,-12,-1002,-25,-9,0,4480
822,1024412878,14,25300.0,-12,-1002,-20,-8,0,4480
823,1024612861,14,25300.0,-12,-1001,-26,-8,0,4528
824,1024812834,14,25300.0,-13,-1002,-25,-10,-1,4528
825,1025012876,14,25300.0,-12,-1002,-27,-9,0,4480
826,1025212862,14,25300.0,-13,-1002,-22,-9,-1,4528
827,1025412868,14,25300.0,-12,-1002,-22,-5,-2,4480
828,1025612912,15,25300.0,-13,-1001,-24,-6,0,4480
829,1025812840,13,25300.0,-13,-1001,-25,-9,0,4480
830,1026012838,13,25300.0,-12,-1001,-21,-10,-1,4480
831,1026212874,14,25300.0,-12,-1001,-24,-10,0,4480
832,1026412886,14,25300.0,-12,-1001,-24,-10,0,4528
833,1026612886,14,25300.0,-12,-1001,-22,-6,-2,4480
834,1026812840,14,25300.0,-12,-1001,-22,-13,0,4528
835,1027012884,14,25300.0,-13,-1001,-24,-8,-1,4480
836,1027212906,13,25300.0,-12,-1001,-22,-8,-1,4480
837,1027412840,13,25300.0,-12,-1000,-28,-8,-1,4480
838,1027612877,14,25300.0,-13,-1001,-24,-9,0,4528
839,1027812839,14,25300.0,-13,-1001,-25,-12,-2,4480
840,1028012880,14,25300.0,-12,-1001,-30,-10,0,4528
841,1028212847,14,25300.0,-13,-1001,-22,-10,-1,4528
842,1028412890,14,25300.0,-13,-1001,-22,-8,-1,4528
843,1028612831,14,25300.0,-13,-1001,-20,-5,-1,4480
844,1028812851,14,25300.0,-12,-1002,-24,-10,-2,4528
845,1029012896,14,25300.0,-12,-1002,-22,-8,0,4528
846,1029212846,14,25300.0,-13,-1002,-26,-11,0,4480
847,1029412872,14,25300.0,-12,-1002,-25,-9,0,4528
848,1029612885,14,25300.0,-12,-1002,-22,-10,0,4480
849,1029812886,14,25300.0,-12,-1002,-25,-9,0,4528
850,1032012894,13,25325.0,-12,-1002,-26,-4,0,4528
851,1032212835,14,25325.0,-13,-1001,-24,-9,-2,4528
852,1032412841,14,25325.0,-13,-1001,-22,-8,0,4480
853,1032612909,14,25325.0,-12,-1001,-27,-11,-1,4480
854,1032812882,14,25325.0,-13,-1002,-25,-8,0,4480
855,1033012889,14,25325.0,-12,-1001,-22,-10,0,4528
856,1033212840,14,25325.0,-13,-1001,-27,-8,-1,4528
857,1033412844,14,25325.0,-13,-1001,-26,-9,-1,4528
858,1033612830,14,25325.0,-12,-1002,-26,-11,0,4480
859,1033812866,13,25325.0,-12,-1001,-22,-10,-1,4480
860,1034012851,14,25325.0,-12,-1001,-24,-8,-1,4528
861,1034212898,13,25325.0,-13,-1001,-22,-8,0,4480
862,1034412892,13,25325.0,-12,-1001,-25,-8,-1,4480
863,1034612888,14,25325.0,-13,-1001,-25,-10,1,4480
864,1034812842,14,25325.0,-13,-1001,-26,-6,-1,4528
865,1035012898,13,25325.0,-12,-1002,-22,-11,1,4480
866,1035212860,13,25325.0,-13,-1002,-24,-9,-1,4480
867,1035412842,13,25325.0,-12,-1002,-26,-8,-1,4528
868,1035612872,14,25325.0,-12,-1002,-25,-10,0,4480
869,1035812838,14,25325.0,-13,-1002,-25,-9,1,4528
870,1036012902,14,25325.0,-13,-1002,-24,-8,0,4480
871,1036212893,14,25325.0,-13,-1002,-26,-8,1,4528
872,1036412892,14,25325.0,-12,-1002,-24,-8,-1,4528
873,1036612851,14,25325.0,-13,-1001,-22,-8,-1,4480
874,1036812862,13,25325.0,-12,-1002,-26,-11,0,4480
875,1037012845,14,25325.0,-13,-1002,-24,-8,0,4480
876,1037212841,14,25325.0,-12,-1001,-24,-11,-1,4528
877,1037412888,14,25325.0,-13,-1002,-24,-5,-1,4480
878,1037612842,14,25325.0,-13,-1001,-22,-10,-1,4480
879,1037812852,14,25325.0,-13,-1001,-24,-8,-1,4480
880,1038012918,13,25325.0,-13,-1001,-25,-9,0,4480
881,1038212902,14,25325.0,-12,-1001,-22,-8,-1,4480
882,1038412824,13,25325.0,-12,-1001,-21,-6,0,4528
883,1038612899,14,25325.0,-12,-1001,-21,-11,-1,4528
884,1038812880,13,25325.0,-12,-1001,-25,-9,0,4528
885,1039012882,14,25325.0,-12,-1001,-24,-9,-1,4480
886,1039212884,14,25325.0,-12,-1001,-25,-10,-1,4528
887,1039412874,14,25325.0,-13,-1001,-24,-9,0,4528
888,1039612846,14,25325.0,-12,-1000,-21,-11,0,4480
889,1039812883,13,25325.0,-13,-1000,-22,-10,-2,4528
890,1040012877,14,25325.0,-13,-1001,-25,-9,-1,4480
891,1040212904,14,25325.0,-13,-1001,-24,-12,-1,4528
892,1040412835,13,25325.0,-12,-1001,-24,-10,-1,4480
893,1040612881,14,25325.0,-13,-1001,-27,-10,0,4480
894,1040812889,14,25325.0,-13,-1001,-25,-9,-1,4528
895,1041012868,13,25325.0,-13,-1001,-22,-8,0,4480
896,1041212831,14,25325.0,-13,-1002,-25,-8,-1,4480
897,1041412855,14,25325.0,-12,-1002,-25,-11,-1,4528
898,1041612834,14,25325.0,-13,-1001,-26,-10,0,4528
899,1041812830,14,25325.0,-13,-1002,-24,-10,-1,4528
900,1044012864,13,25350.0,-12,-1001,-24,-10,0,4480
901,1044212883,14,25350.0,-13,-1001,-25,-9,0,4528
902,1044412838,14,25350.0,-13,-1001,-21,-10,-1,4528
903,1044612898,14,25350.0,-12,-1001,-25,-9,0,4528
904,1044812830,14,25350.0,-12,-1001,-25,-8,-1,4480
905,1045012855,13,25350.0,-12,-1001,-26,-12,-1,4480
906,1045212896,14,25350.0,-13,-1000,-22,-10,0,4480
907,1045412831,13,25350.0,-13,-1000,-22,-9,-2,4480
908,1045612867,14,25350.0,-13,-1001,-20,-8,0,4480
909,1045812831,13,25350.0,-12,-1001,-21,-9,0,4480
910,1046012842,14,25350.0,-12,-1001,-24,-9,-2,4528
911,1046212885,14,25350.0,-13,-1001,-21,-9,0,4528
912,1046412880,14,25350.0,-12,-1001,-24,-10,0,4480
913,1046612892,14,25350.0,-12,-1001,-21,-8,-1,4480
914,1046812848,14,25350.0,-13,-1001,-22,-8,0,4480
915,1047012845,14,25350.0,-13,-1002,-25,-10,0,4528
916,1047212885,13,25350.0,-13,-1001,-25,-9,0,4528
917,1047412867,14,25350.0,-13,-1001,-24,-9,-1,4528
918,1047612842,14,25350.0,-13,-1002,-25,-6,-2,4480
919,1047812841,14,25350.0,-12,-1001,-25,-9,-1,4528
920,1048012845,14,25350.0,-12,-1002,-25,-4,-1,4528
921,1048212892,14,25350.0,-12,-1001,-25,-10,-2,4528
922,1048412853,14,25350.0,-13,-1002,-26,-9,0,4528
923,1048612897,14,25350.0,-13,-1002,-22,-8,0,4528
924,1048812887,14,25350.0,-12,-1002,-26,-9,-1,4528
925,1049012833,13,25350.0,-12,-1001,-21,-6,0,4480
926,1049212838,14,25350.0,-12,-1002,-26,-12,0,4528
927,1049412868,13,25350.0,-13,-1002,-24,-9,0,4528
928,1049612884,14,25350.0,-12,-1002,-22,-11,0,4480
929,1049812864,14,25350.0,-12,-1002,-22,-6,0,4480
930,1050012831,14,25350.0,-13,-1002,-25,-11,-2,4528
931,1050212860,14,25350.0,-13,-1002,-24,-6,-2,4480
932,1050412842,14,25350.0,-13,-1002,-22,-6,0,4528
933,1050612856,14,25350.0,-12,-1002,-22,-6,0,4480
934,1050812901,14,25350.0,-13,-1002,-24,-6,1,4480
935,1051012862,14,25350.0,-12,-1002,-24,-8,0,4480
936,1051212873,13,25350.0,-13,-1002,-24,-8,-1,4480
937,1051412883,14,25350.0,-12,-1001,-22,-8,0,4528
938,1051612876,14,25350.0,-13,-1001,-21,-8,0,4480
939,1051812844,13,25350.0,-12,-1001,-26,-9,-1,4528
940,1052012840,14,25350.0,-13,-1001,-22,-9,-1,4528
941,1052212877,13,25350.0,-12,-1001,-22,-5,0,4480
942,1052412875,14,25350.0,-12,-1001,-26,-8,0,4480
943,1052612842,14,25350.0,-13,-1001,-25,-5,0,4480
944,1052812839,14,25350.0,-12,-1001,-21,-6,-2,4480
945,1053012838,14,25350.0,-12,-1001,-24,-12,0,4528
946,1053212840,14,25350.0,-13,-1001,-24,-11,0,4480
947,1053412855,14,25350.0,-13,-1001,-25,-8,0,4480
948,1053612871,14,25350.0,-13,-1001,-24,-6,-1,4480
949,1053812885,14,25350.0,-13,-1001,-21,-9,0,4480
950,1056012897,13,25375.0,-13,-1001,-24,-9,0,4480
951,1056212879,14,25375.0,-13,-1001,-24,-10,0,4528
952,1056412879,14,25375.0,-12,-1002,-24,-10,-2,4480
953,1056612879,14,25375.0,-13,-1001,-22,-10,0,4528
954,1056812878,14,25375.0,-12,-1002,-22,-12,1,4480
955,1057012890,13,25375.0,-13,-1001,-25,-10,0,4480
956,1057212884,14,25375.0,-13,-1001,-26,-10,-1,4480
957,1057412843,14,25375.0,-12,-1001,-26,-4,0,4480
958,1057612862,13,25375.0,-12,-1002,-26,-9,1,4528
959,1057812902,14,25375.0,-12,-1002,-24,-10,0,4528
960,1058012841,13,25375.0,-12,-1002,-26,-9,0,4480
961,1058212885,14,25375.0,-12,-1001,-24,-10,1,4528
962,1058412888,13,25375.0,-12,-1002,-25,-10,0,4480
963,1058612840,14,25375.0,-13,-1002,-25,-6,-1,4528
964,1058812876,13,25375.0,-12,-1001,-24,-10,-1,4480
965,1059012859,14,25375.0,-13,-1001,-22,-11,0,4480
966,1059212887,14,25375.0,-12,-1001,-25,-9,0,4528
967,1059412828,14,25375.0,-12,-1001,-25,-6,-1,4480
968,1059612855,14,25375.0,-12,-1001,-25,-9,-3,4528
969,1059812882,13,25375.0,-13,-1000,-24,-8,-1,4528
970,1060012882,14,25375.0,-12,-1001,-27,-10,0,4480
971,1060212857,14,25375.0,-13,-1000,-26,-5,-1,4528
972,1060412895,13,25375.0,-13,-1001,-22,-8,-1,4528
973,1060612830,13,25375.0,-13,-1001,-27,-8,0,4528
974,1060812881,14,25375.0,-12,-1001,-25,-10,0,4480
975,1061012833,14,25375.0,-13,-1001,-22,-6,-1,4528
976,1061212895,14,25375.0,-13,-1001,-25,-5,0,4480
977,1061412903,14,25375.0,-13,-1001,-24,-10,0,4480
978,1061612882,14,25375.0,-13,-1001,-24,-9,0,4480
979,1061812819,14,25375.0,-13,-1001,-26,-8,-1,4528
980,1062012882,14,25375.0,-12,-1001,-26,-6,0,4528
981,1062212897,14,25375.0,-13,-1002,-24,-9,0,4480
982,1062412837,14,25375.0,-13,-1002,-21,-5,0,4480
983,1062612881,14,25375.0,-12,-1002,-25,-10,0,4528
984,1062812870,14,25375.0,-13,-1002,-24,-10,-1,4528
985,1063012868,13,25375.0,-12,-1002,-21,-6,-2,4528
986,1063212906,14,25375.0,-13,-1002,-21,-9,-1,4528
987,1063412852,14,25375.0,-13,-1003,-26,-9,-2,4480
988,1063612896,14,25375.0,-12,-1002,-24,-8,-2,4528
989,1063812882,14,25375.0,-12,-1002,-24,-6,-2,4480
990,1064012838,14,25375.0,-12,-1002,-26,-8,-1,4480
991,1064212874,13,25375.0,-13,-1002,-25,-9,-1,4480
992,1064412876,14,25375.0,-12,-1001,-24,-10,0,4528
993,1064612878,14,25375.0,-12,-1002,-24,-9,-1,4480
994,1064812886,14,25375.0,-12,-1001,-25,-8,-1,4528
995,1065012841,14,25375.0,-13,-1002,-21,-6,-2,4528
996,1065212858,13,25375.0,-12,-1002,-24,-11,-1,4480
997,1065412886,14,25375.0,-13,-1001,-25,-10,-1,4528
998,1065612850,14,25375.0,-13,-1001,-22,-10,-1,4528
999,1065812875,14,25375.0,-12,-1001,-25,-8,0,4480
1000,1068212896,13,25400.0,-13,-1001,-25,-9,0,4528
1001,1068412903,14,25400.0,-13,-1001,-26,-9,0,4528
1002,1068612843,14,25400.0,-13,-1002,-19,-6,-1,4480
1003,1068812882,14,25400.0,-12,-1001,-24,-9,-1,4528
1004,1069012846,13,25400.0,-13,-1001,-24,-9,-1,4480
1005,1069212832,14,25400.0,-12,-1002,-26,-10,0,4480
1006,1069412842,14,25400.0,-13,-1001,-25,-8,0,4528
1007,1069612835,14,25400.0,-13,-1002,-25,-8,-1,4480
1008,1069812829,13,25400.0,-13,-1002,-25,-12,0,4480
1009,1070012876,14,25400.0,-12,-1002,-21,-8,-3,4480
1010,1070212898,14,25400.0,-13,-1002,-25,-9,-1,4528
1011,1070412830,13,25400.0,-13,-1002,-24,-9,0,4480
1012,1070612900,14,25400.0,-13,-1002,-25,-8,0,4480
1013,1070812835,14,25400.0,-13,-1002,-22,-9,0,4528
1014,1071012876,14,25400.0,-13,-1002,-26,-10,0,4528
1015,1071212872,14,25400.0,-12,-1002,-29,-9,0,4480
1016,1071412875,13,25400.0,-13,-1002,-24,-8,-1,4528
1017,1071612881,14,25400.0,-12,-1002,-25,-8,-1,4480
1018,1071812903,14,25400.0,-13,-1001,-25,-8,-1,4480
1019,1072012892,14,25400.0,-12,-1002,-26,-10,-1,4480
1020,1072212829,14,25400.0,-13,-1001,-25,-9,-3,4528
1021,1072412843,13,25400.0,-12,-1001,-22,-8,-1,4528
1022,1072612850,14,25400.0,-12,-1001,-25,-9,0,4528
1023,1072812880,14,25400.0,-12,-1001,-21,-8,0,4528
1024,1073012882,14,25400.0,-12,-1001,-26,-8,-1,4480
1025,1073212897,13,25400.0,-13,-1001,-26,-9,0,4480
1026,1073412880,14,25400.0,-12,-1001,-22,-9,0,4480
1027,1073612843,14,25400.0,-12,-1000,-26,-6,0,4528
1028,1073812841,14,25400.0,-12,-1001,-24,-8,0,4528
1029,1074012894,14,25400.0,-13,-1001,-25,-8,0,4528
1030,1074212871,14,25400.0,-13,-1000,-26,-10,-1,4480
1031,1074412886,13,25400.0,-13,-1001,-25,-6,0,4480
1032,1074612868,14,25400.0,-13,-1001,-25,-8,-1,4528
1033,1074812855,14,25400.0,-13,-1001,-21,-9,1,4528
1034,1075012884,13,25400.0,-12,-1001,-24,-8,0,4480
1035,1075212886,14,25400.0,-12,-1002,-21,-8,0,4480
1036,1075412848,14,25400.0,-12,-1001,-26,-8,0,4528
1037,1075612866,13,25400.0,-12,-1002,-24,-8,0,4528
1038,1075812891,14,25400.0,-12,-1002,-25,-9,0,4528
1039,1076012893,13,25400.0,-13,-1002,-26,-8,-2,4528
1040,1076212885,14,25400.0,-13,-1002,-22,-9,0,4528
1041,1076412872,14,25400.0,-12,-1002,-24,-8,1,4480
1042,1076612831,14,25400.0,-12,-1002,-26,-9,0,4480
1043,1076812884,14,25400.0,-13,-1002,-22,-11,-1,4480
1044,1077012848,14,25400.0,-12,-1002,-24,-9,-2,4480
1045,1077212883,14,25400.0,-13,-1002,-26,-9,0,4528
1046,1077412882,14,25400.0,-12,-1002,-21,-8,-1,4480
1047,1077612882,14,25400.0,-12,-1001,-24,-6,0,4528
1048,1077812859,14,25400.0,-13,-1001,-26,-10,0,4528
1049,1078012891,14,25400.0,-13,-1002,-28,-9,-2,4480
1050,1080212890,13,25425.0,-12,-1000,-25,-9,-1,4480
1051,1080412845,13,25425.0,-13,-1001,-25,-11,0,4528
1052,1080612842,14,25425.0,-13,-1001,-25,-10,0,4528
1053,1080812849,13,25425.0,-13,-1002,-22,-8,0,4528
1054,1081012884,14,25425.0,-13,-1002,-21,-4,0,4528
1055,1081212845,14,25425.0,-12,-1002,-24,-9,0,4528
1056,1081412845,13,25425.0,-12,-1002,-25,-9,0,4480
1057,1081612883,14,25425.0,-13,-1002,-22,-10,-2,4480
1058,1081812879,14,25425.0,-13,-1002,-22,-9,-1,4528
1059,1082012885,14,25425.0,-12,-1002,-26,-8,-1,4480
1060,1082212870,14,25425.0,-12,-1002,-25,-4,0,4480
1061,1082412832,13,25425.0,-12,-1002,-26,-9,0,4528
1062,1082612883,13,25425.0,-12,-1002,-25,-6,-1,4480
1063,1082812892,13,25425.0,-12,-1001,-25,-11,-1,4480
1064,1083012885,14,25425.0,-13,-1002,-20,-8,0,4480
1065,1083212832,14,25425.0,-12,-1002,-25,-10,0,4528
1066,1083412832,14,25425.0,-12,-1001,-25,-10,-2,4528
1067,1083612843,14,25425.0,-13,-1002,-22,-8,-1,4480
1068,1083812835,14,25425.0,-12,-1001,-22,-9,1,4480
1069,1084012856,14,25425.0,-12,-1001,-22,-9,-1,4528
1070,1084212841,14,25425.0,-13,-1002,-20,-11,0,4480
1071,1084412909,13,25425.0,-13,-1001,-25,-11,-1,4528
1072,1084612850,14,25425.0,-12,-1001,-24,-10,-3,4480
1073,1084812832,14,25425.0,-13,-1001,-27,-10,-2,4480
1074,1085012891,14,25425.0,-12,-1001,-24,-10,1,4480
1075,1085212815,14,25425.0,-12,-1001,-25,-9,0,4480
1076,1085412846,14,25425.0,-12,-1000,-27,-10,0,4528
1077,1085612884,14,25425.0,-13,-1000,-22,-8,-1,4528
1078,1085812891,14,25425.0,-12,-1000,-22,-9,-1,4480
1079,1086012839,13,25425.0,-13,-1001,-27,-10,0,4480
1080,1086212886,13,25425.0,-13,-1001,-24,-10,-3,4528
1081,1086412902,14,25425.0,-13,-1001,-21,-9,0,4480
1082,1086612870,14,25425.0,-13,-1001,-21,-6,0,4528
1083,1086812836,14,25425.0,-13,-1001,-25,-6,0,4480
1084,1087012885,14,25425.0,-12,-1001,-22,-8,-1,4528
1085,1087212866,14,25425.0,-12,-1001,-26,-10,-1,4528
1086,1087412891,14,25425.0,-12,-1002,-25,-8,0,4480
1087,1087612841,14,25425.0,-12,-1002,-26,-10,0,4528
1088,1087812878,13,25425.0,-13,-1001,-22,-8,0,4528
1089,1088012880,14,25425.0,-12,-1002,-25,-6,-1,4528
1090,1088212898,14,25425.0,-13,-1002,-26,-8,-1,4528
1091,1088412848,13,25425.0,-13,-1001,-22,-10,-1,4528
1092,1088612870,13,25425.0,-12,-1002,-25,-9,0,4480
1093,1088812864,13,25425.0,-13,-1002,-25,-11,0,4480
1094,1089012869,14,25425.0,-12,-1002,-22,-10,0,4480
1095,1089212833,14,25425.0,-12,-1002,-25,-9,-1,4480
1096,1089412897,14,25425.0,-13,-1002,-27,-9,-1,4528
1097,1089612889,14,25425.0,-12,-1002,-22,-5,0,4480
1098,1089812891,14,25425.0,-12,-1002,-22,-10,0,4480
1099,1090012851,14,25425.0,-13,-1001,-22,-5,0,4480
1100,1092212846,14,25450.0,-13,-1001,-24,-9,-3,4528
1101,1092412882,14,25450.0,-13,-1001,-22,-6,0,4480
1102,1092612883,13,25450.0,-12,-1001,-22,-5,-3,4480
1103,1092812899,14,25450.0,-12,-1001,-24,-4,-2,4480
1104,1093012896,13,25450.0,-12,-1001,-25,-8,0,4528
1105,1093212891,14,25450.0,-12,-1002,-24,-6,-1,4528
1106,1093412896,14,25450.0,-12,-1001,-27,-9,0,4480
1107,1093612888,13,25450.0,-12,-1001,-24,-8,0,4480
1108,1093812882,14,25450.0,-13,-1002,-24,-8,0,4528
1109,1094012878,14,25450.0,-13,-1001,-27,-11,0,4528
1110,1094212831,14,25450.0,-13,-1002,-24,-9,0,4528
1111,1094412890,14,25450.0,-12,-1001,-25,-9,0,4480
1112,1094612869,14,25450.0,-13,-1002,-29,-10,-3,4528
1113,1094812830,14,25450.0,-13,-1001,-24,-8,0,4528
1114,1095012891,14,25450.0,-13,-1002,-25,-9,0,4528
1115,1095212834,14,25450.0,-12,-1002,-22,-11,0,4528
1116,1095412868,13,25450.0,-13,-1002,-24,-10,-1,4480
1117,1095612850,14,25450.0,-12,-1002,-26,-8,-1,4480
1118,1095812835,14,25450.0,-13,-1001,-25,-6,-2,4480
1119,1096012833,14,25450.0,-12,-1001,-25,-12,0,4528
1120,1096212853,13,25450.0,-12,-1000,-25,-8,-1,4480
1121,1096412831,13,25450.0,-13,-1001,-24,-8,-2,4480
1122,1096612883,14,25450.0,-13,-1001,-22,-6,0,4528
1123,1096812833,14,25450.0,-13,-1001,-24,-9,0,4480
1124,1097012863,14,25450.0,-12,-1000,-24,-9,-1,4528
1125,1097212898,14,25450.0,-12,-1001,-26,-13,-1,4480
1126,1097412840,13,25450.0,-13,-1001,-24,-8,0,4528
1127,1097612893,14,25450.0,-12,-1001,-26,-10,-2,4528
1128,1097812828,14,25450.0,-12,-1001,-27,-6,-1,4480
1129,1098012903,13,25450.0,-12,-1001,-25,-9,0,4480
1130,1098212879,14,25450.0,-13,-1001,-25,-6,-1,4528
1131,1098412880,14,25450.0,-12,-1002,-27,-11,0,4528
1132,1098612876,14,25450.0,-12,-1001,-24,-10,0,4528
1133,1098812842,14,25450.0,-12,-1001,-25,-9,-1,4528
1134,1099012895,14,25450.0,-13,-1001,-25,-8,-1,4528
1135,1099212852,14,25450.0,-13,-1002,-25,-11,-1,4480
1136,1099412886,14,25450.0,-13,-1002,-22,-8,-1,4528
1137,1099612883,13,25450.0,-13,-1002,-20,-8,0,4528
1138,1099812872,14,25450.0,-13,-1001,-24,-8,-1,4480
1139,1100012876,14,25450.0,-13,-1001,-24,-8,0,4528
1140,1100212843,14,25450.0,-12,-1002,-25,-8,0,4480
1141,1100412883,14,25450.0,-13,-1002,-22,-8,-2,4528
1142,1100612862,14,25450.0,-12,-1002,-28,-9,-1,4480
1143,1100812857,13,25450.0,-13,-1002,-24,-10,0,4528
1144,1101012847,14,25450.0,-13,-1002,-26,-10,0,4480
1145,1101212878,13,25450.0,-12,-1001,-24,-9,-2,4480
1146,1101412886,13,25450.0,-12,-1002,-22,-12,0,4528
1147,1101612883,14,25450.0,-12,-1001,-25,-8,0,4480
1148,1101812876,14,25450.0,-13,-1002,-22,-9,0,4528
1149,1102012904,14,25450.0,-13,-1002,-24,-11,0,4528
1150,1104212894,13,25475.0,-12,-1001,-26,-8,-3,4480
1151,1104412875,14,25475.0,-13,-1001,-25,-8,0,4480
1152,1104612884,14,25475.0,-12,-1001,-24,-10,0,4480
1153,1104812871,13,25475.0,-13,-1001,-25,-9,0,4528
1154,1105012888,14,25475.0,-13,-1001,-26,-12,0,4480
1155,1105212883,14,25475.0,-13,-1002,-24,-6,0,4480
1156,1105412855,14,25475.0,-12,-1002,-24,-10,0,4528
1157,1105612875,14,25475.0,-13,-1001,-25,-10,0,4480
1158,1105812892,14,25475.0,-12,-1001,-22,-6,0,4480
1159,1106012894,14,25475.0,-12,-1001,-26,-8,0,4480
1160,1106212844,14,25475.0,-12,-1002,-24,-6,0,4480
1161,1106412909,14,25475.0,-13,-1001,-25,-6,-2,4528
1162,1106612882,14,25475.0,-13,-1001,-26,-8,0,4528
1163,1106812883,14,25475.0,-13,-1001,-25,-6,0,4528
1164,1107012877,13,25475.0,-12,-1002,-25,-6,0,4480
1165,1107212861,13,25475.0,-12,-1001,-22,-8,-1,4528
1166,1107412865,14,25475.0,-12,-1001,-22,-11,0,4480
1167,1107612886,13,25475.0,-13,-1001,-22,-8,-1,4480
1168,1107812900,14,25475.0,-13,-1000,-22,-9,-3,4480
1169,1108012895,14,25475.0,-13,-1001,-22,-10,-2,4528
1170,1108212844,14,25475.0,-13,-1001,-24,-9,0,4480
1171,1108412888,14,25475.0,-13,-1001,-26,-9,0,4480
1172,1108612872,14,25475.0,-13,-1001,-24,-6,-2,4528
1173,1108812839,14,25475.0,-13,-1001,-21,-5,-2,4528
1174,1109012861,14,25475.0,-13,-1001,-24,-11,0,4480
1175,1109212875,14,25475.0,-12,-1001,-25,-9,0,4528
1176,1109412848,14,25475.0,-12,-1002,-28,-10,0,4528
1177,1109612897,13,25475.0,-12,-1002,-25,-5,-2,4480
1178,1109812839,14,25475.0,-12,-1002,-24,-8,-1,4528
1179,1110012886,14,25475.0,-12,-1002,-26,-10,-1,4528
1180,1110212867,14,25475.0,-13,-1002,-22,-6,0,4480
1181,1110412836,14,25475.0,-12,-1002,-26,-10,0,4480
1182,1110612893,14,25475.0,-12,-1001,-21,-6,0,4528
1183,1110812873,13,25475.0,-12,-1001,-25,-9,0,4480
1184,1111012846,14,25475.0,-12,-1002,-24,-9,-2,4480
1185,1111212883,14,25475.0,-13,-1002,-20,-5,-1,4528
1186,1111412891,13,25475.0,-12,-1001,-26,-11,-1,4480
1187,1111612890,13,25475.0,-13,-1001,-24,-5,-1,4528
1188,1111812875,13,25475.0,-13,-1001,-26,-12,0,4528
1189,1112012892,14,25475.0,-12,-1001,-25,-9,0,4480
1190,1112212866,13,25475.0,-13,-1001,-25,-9,-2,4480
1191,1112412885,14,25475.0,-13,-1001,-27,-10,0,4528
1192,1112612882,14,25475.0,-13,-1001,-25,-8,0,4528
1193,1112812895,14,25475.0,-12,-1001,-25,-10,0,4528
1194,1113012839,14,25475.0,-12,-1001,-22,-8,-1,4528
1195,1113212894,14,25475.0,-13,-1001,-25,-10,0,4480
1196,1113412840,14,25475.0,-13,-1002,-27,-6,0,4528
1197,1113612881,14,25475.0,-13,-1001,-27,-9,-1,4480
1198,1113812891,14,25475.0,-13,-1001,-24,-9,-2,4480
1199,1114012882,14,25475.0,-12,-1001,-27,-10,-2,4480
1200,1116412890,14,25500.0,-12,-1001,-25,-3,-2,4528
1201,1116612858,13,25500.0,-12,-1001,-26,-11,1,4480
1202,1116812843,14,25500.0,-12,-1001,-25,-8,-2,4480
1203,1117012881,13,25500.0,-13,-1001,-20,-8,0,4528
1204,1117212873,13,25500.0,-12,-1001,-26,-8,0,4480
1205,1117412881,14,25500.0,-12,-1001,-25,-9,-1,4528
1206,1117612841,13,25500.0,-12,-1001,-20,-6,0,4528
1207,1117812877,14,25500.0,-12,-1001,-22,-11,0,4528
