,mavpackettype,time_usec,frequency,xacc,yacc,zacc,xgyro,ygyro,zgyro,temperature,time_elapsed
0,RAW_IMU,179985467,0.0,-193,209,961,0,1,0,4528,00:02:59.985467
1,RAW_IMU,180185469,0.0,-193,209,962,-1,0,0,4528,00:03:00.185469
2,RAW_IMU,180385467,0.0,-193,209,961,0,0,0,4528,00:03:00.385467
3,RAW_IMU,180585480,0.0,-193,209,961,0,1,0,4577,00:03:00.585480
4,RAW_IMU,180785471,0.0,-193,209,962,0,0,0,4528,00:03:00.785471
5,RAW_IMU,180985498,0.0,-193,209,961,0,1,0,4528,00:03:00.985498
6,RAW_IMU,181185503,0.0,-193,209,961,-1,0,0,4577,00:03:01.185503
7,RAW_IMU,181385478,0.0,-193,209,961,-1,0,1,4577,00:03:01.385478
8,RAW_IMU,181585462,0.0,-194,209,961,0,0,0,4577,00:03:01.585462
9,RAW_IMU,181785485,0.0,-193,209,962,0,1,0,4528,00:03:01.785485
10,RAW_IMU,181985474,0.0,-193,209,961,0,0,0,4577,00:03:01.985474
11,RAW_IMU,182185484,0.0,-193,209,961,0,0,0,4528,00:03:02.185484
12,RAW_IMU,182385475,0.0,-193,209,962,0,0,0,4528,00:03:02.385475
13,RAW_IMU,182585468,0.0,-193,209,961,0,0,0,4577,00:03:02.585468
14,RAW_IMU,182785480,0.0,-193,209,961,0,0,0,4528,00:03:02.785480
15,RAW_IMU,182985478,0.0,-193,209,961,0,1,0,4528,00:03:02.985478
16,RAW_IMU,183185477,0.0,-193,209,961,0,1,0,4528,00:03:03.185477
17,RAW_IMU,183385463,0.0,-193,209,961,-1,0,0,4577,00:03:03.385463
18,RAW_IMU,183585473,0.0,-193,209,961,0,0,0,4528,00:03:03.585473
19,RAW_IMU,183785455,0.0,-193,209,962,0,0,0,4528,00:03:03.785455
20,RAW_IMU,183985470,0.0,-193,209,961,0,1,0,4577,00:03:03.985470
21,RAW_IMU,184185523,0.0,-193,209,961,0,0,0,4528,00:03:04.185523
22,RAW_IMU,184385490,0.0,-193,209,961,0,0,0,4528,00:03:04.385490
23,RAW_IMU,184585475,0.0,-193,209,961,0,1,0,4528,00:03:04.585475
24,RAW_IMU,184785453,0.0,-193,209,962,0,1,0,4528,00:03:04.785453
25,RAW_IMU,184985492,0.0,-193,209,961,0,2,0,4577,00:03:04.985492
26,RAW_IMU,185185524,0.0,-193,209,961,0,1,0,4528,00:03:05.185524
27,RAW_IMU,185385499,0.0,-193,209,961,0,0,0,4577,00:03:05.385499
28,RAW_IMU,185585502,0.0,-193,209,961,0,0,0,4528,00:03:05.585502
29,RAW_IMU,185785469,0.0,-193,209,962,0,0,0,4577,00:03:05.785469
30,RAW_IMU,185985492,0.0,-193,209,961,0,1,0,4577,00:03:05.985492
31,RAW_IMU,186185511,0.0,-193,209,961,0,0,0,4528,00:03:06.185511
32,RAW_IMU,186385493,0.0,-193,209,962,-1,0,0,4528,00:03:06.385493
33,RAW_IMU,186585456,0.0,-193,209,961,0,0,0,4577,00:03:06.585456
34,RAW_IMU,186785458,0.0,-193,209,962,0,0,0,4528,00:03:06.785458
35,RAW_IMU,186985470,0.0,-193,209,961,0,0,0,4528,00:03:06.985470
36,RAW_IMU,187185502,0.0,-193,209,961,0,1,-1,4528,00:03:07.185502
37,RAW_IMU,187385472,0.0,-193,209,961,0,0,0,4528,00:03:07.385472
38,RAW_IMU,187585464,0.0,-194,209,961,0,0,0,4577,00:03:07.585464
39,RAW_IMU,187785504,0.0,-193,209,961,0,0,0,4577,00:03:07.785504
40,RAW_IMU,187985500,0.0,-193,209,961,0,1,0,4528,00:03:07.985500
41,RAW_IMU,188185492,0.0,-193,209,961,0,0,0,4577,00:03:08.185492
42,RAW_IMU,188385513,0.0,-193,209,961,0,1,0,4577,00:03:08.385513
43,RAW_IMU,188585463,0.0,-193,209,962,-1,0,0,4577,00:03:08.585463
44,RAW_IMU,188785467,0.0,-193,209,961,0,0,0,4577,00:03:08.785467
45,RAW_IMU,188985523,0.0,-193,209,961,0,1,0,4577,00:03:08.985523
46,RAW_IMU,189185479,0.0,-193,209,961,0,0,0,4577,00:03:09.185479
47,RAW_IMU,189385517,0.0,-193,209,961,0,0,0,4528,00:03:09.385517
48,RAW_IMU,189585459,0.0,-193,209,961,0,0,0,4577,00:03:09.585459
49,RAW_IMU,189785476,0.0,-193,209,961,0,0,0,4577,00:03:09.785476
50,RAW_IMU,189985488,0.0,-193,209,961,0,0,0,4577,00:03:09.985488
51,RAW_IMU,190185513,0.0,-193,209,961,0,1,0,4577,00:03:10.185513
52,RAW_IMU,190385474,0.0,-192,209,962,0,0,0,4528,00:03:10.385474
53,RAW_IMU,190585473,0.0,-193,209,962,0,0,0,4528,00:03:10.585473
54,RAW_IMU,190785477,0.0,-193,208,961,0,1,0,4577,00:03:10.785477
55,RAW_IMU,190985491,0.0,-193,209,961,0,1,0,4528,00:03:10.985491
56,RAW_IMU,191185508,0.0,-193,209,961,0,0,0,4528,00:03:11.185508
57,RAW_IMU,191385484,0.0,-193,209,961,0,0,0,4528,00:03:11.385484
58,RAW_IMU,191585470,0.0,-193,209,961,0,0,0,4577,00:03:11.585470
59,RAW_IMU,191785481,0.0,-193,209,962,0,1,0,4577,00:03:11.785481
60,RAW_IMU,191985469,0.0,-193,209,961,0,0,0,4577,00:03:11.985469
61,RAW_IMU,192185501,0.0,-193,209,961,0,0,0,4577,00:03:12.185501
62,RAW_IMU,192385492,0.0,-193,209,961,0,0,0,4528,00:03:12.385492
63,RAW_IMU,192585470,0.0,-193,209,961,0,1,0,4528,00:03:12.585470
64,RAW_IMU,192785513,0.0,-193,209,962,0,1,0,4528,00:03:12.785513
65,RAW_IMU,192985467,0.0,-192,209,961,-1,1,0,4528,00:03:12.985467
66,RAW_IMU,193185495,0.0,-192,209,961,0,0,0,4577,00:03:13.185495
67,RAW_IMU,193385477,0.0,-193,209,961,-1,0,0,4528,00:03:13.385477
68,RAW_IMU,193585482,0.0,-193,209,961,0,0,0,4577,00:03:13.585482
69,RAW_IMU,193785499,0.0,-193,209,961,0,0,0,4577,00:03:13.785499
70,RAW_IMU,193985482,0.0,-193,209,961,0,0,0,4528,00:03:13.985482
71,RAW_IMU,194185482,0.0,-193,209,961,-1,0,0,4577,00:03:14.185482
72,RAW_IMU,194385464,0.0,-193,209,961,0,1,0,4528,00:03:14.385464
73,RAW_IMU,194585471,0.0,-193,209,962,0,1,0,4528,00:03:14.585471
74,RAW_IMU,194785474,0.0,-193,209,961,0,0,0,4528,00:03:14.785474
75,RAW_IMU,194985462,0.0,-193,209,961,0,1,0,4528,00:03:14.985462
76,RAW_IMU,195185500,0.0,-193,209,961,0,0,0,4528,00:03:15.185500
77,RAW_IMU,195385498,0.0,-193,209,962,0,0,0,4577,00:03:15.385498
78,RAW_IMU,195585460,0.0,-193,209,961,0,1,0,4528,00:03:15.585460
79,RAW_IMU,195785469,0.0,-193,209,961,0,0,0,4577,00:03:15.785469
80,RAW_IMU,195985442,0.0,-193,209,961,0,0,0,4577,00:03:15.985442
81,RAW_IMU,196185491,0.0,-193,209,961,0,0,0,4577,00:03:16.185491
82,RAW_IMU,196385462,0.0,-193,209,962,0,1,0,4528,00:03:16.385462
83,RAW_IMU,196585474,0.0,-193,209,961,0,1,0,4528,00:03:16.585474
84,RAW_IMU,196785460,0.0,-193,209,961,0,0,0,4577,00:03:16.785460
85,RAW_IMU,196985450,0.0,-193,209,961,0,0,0,4577,00:03:16.985450
86,RAW_IMU,197185532,0.0,-193,209,961,0,0,0,4577,00:03:17.185532
87,RAW_IMU,197385479,0.0,-193,209,961,0,0,0,4528,00:03:17.385479
88,RAW_IMU,197585460,0.0,-193,209,961,0,0,0,4577,00:03:17.585460
89,RAW_IMU,197785503,0.0,-193,209,961,0,0,0,4528,00:03:17.785503
90,RAW_IMU,197985475,0.0,-193,209,962,0,1,0,4528,00:03:17.985475
91,RAW_IMU,198185465,0.0,-193,209,961,-1,0,0,4577,00:03:18.185465
92,RAW_IMU,198385470,0.0,-194,209,961,0,0,0,4577,00:03:18.385470
93,RAW_IMU,198585460,0.0,-193,209,961,0,0,0,4577,00:03:18.585460
94,RAW_IMU,198785463,0.0,-193,209,961,0,0,0,4577,00:03:18.785463
95,RAW_IMU,198985499,0.0,-193,209,961,0,0,0,4528,00:03:18.985499
96,RAW_IMU,199185481,0.0,-193,209,960,0,1,0,4528,00:03:19.185481
97,RAW_IMU,199385513,0.0,-193,209,961,0,0,0,4577,00:03:19.385513
98,RAW_IMU,199585471,0.0,-193,209,961,0,0,0,4577,00:03:19.585471
99,RAW_IMU,199785462,0.0,-193,209,961,0,0,0,4577,00:03:19.785462
100,RAW_IMU,199985507,0.0,-193,209,961,0,1,0,4577,00:03:19.985507
101,RAW_IMU,200185468,0.0,-194,209,962,0,0,0,4528,00:03:20.185468
102,RAW_IMU,200385473,0.0,-193,209,962,0,1,0,4528,00:03:20.385473
103,RAW_IMU,200585513,0.0,-193,209,962,0,1,0,4577,00:03:20.585513
104,RAW_IMU,200785490,0.0,-193,209,962,0,0,0,4577,00:03:20.785490
105,RAW_IMU,200985464,0.0,-193,209,961,0,0,0,4528,00:03:20.985464
106,RAW_IMU,201185475,0.0,-193,209,961,0,0,0,4577,00:03:21.185475
107,RAW_IMU,201385465,0.0,-193,209,962,0,0,0,4528,00:03:21.385465
108,RAW_IMU,201585469,0.0,-193,209,961,0,1,0,4577,00:03:21.585469
109,RAW_IMU,201785455,0.0,-193,209,961,-1,1,0,4528,00:03:21.785455
110,RAW_IMU,201985451,0.0,-193,209,961,0,0,0,4528,00:03:21.985451
111,RAW_IMU,202185466,0.0,-194,209,961,0,0,0,4577,00:03:22.185466
112,RAW_IMU,202385463,0.0,-193,209,961,0,1,0,4528,00:03:22.385463
113,RAW_IMU,202585477,0.0,-193,209,962,0,0,0,4528,00:03:22.585477
114,RAW_IMU,202785477,0.0,-193,209,961,0,1,0,4528,00:03:22.785477
115,RAW_IMU,202985505,0.0,-193,209,961,-1,1,0,4528,00:03:22.985505
116,RAW_IMU,203185474,0.0,-193,210,961,0,1,0,4528,00:03:23.185474
117,RAW_IMU,203385477,0.0,-193,209,961,-1,1,0,4577,00:03:23.385477
118,RAW_IMU,203585457,0.0,-193,209,962,0,0,0,4528,00:03:23.585457
119,RAW_IMU,203785454,0.0,-193,209,961,0,0,0,4577,00:03:23.785454
120,RAW_IMU,203985463,0.0,-193,208,962,0,0,0,4577,00:03:23.985463
121,RAW_IMU,204185482,0.0,-193,209,961,0,1,0,4577,00:03:24.185482
122,RAW_IMU,204385508,0.0,-193,210,962,0,0,0,4528,00:03:24.385508
123,RAW_IMU,204585468,0.0,-193,209,961,0,0,0,4528,00:03:24.585468
124,RAW_IMU,204785463,0.0,-193,209,961,0,0,0,4528,00:03:24.785463
125,RAW_IMU,204985496,0.0,-193,209,961,0,1,0,4528,00:03:24.985496
126,RAW_IMU,205185489,0.0,-193,209,962,0,0,1,4577,00:03:25.185489
127,RAW_IMU,205385470,0.0,-193,209,962,0,0,0,4577,00:03:25.385470
128,RAW_IMU,205585489,0.0,-193,209,961,0,1,0,4577,00:03:25.585489
129,RAW_IMU,205785461,0.0,-193,208,961,0,0,0,4528,00:03:25.785461
130,RAW_IMU,205985468,0.0,-193,209,961,0,0,0,4577,00:03:25.985468
131,RAW_IMU,206185522,0.0,-193,209,961,0,1,0,4577,00:03:26.185522
132,RAW_IMU,206385483,0.0,-193,209,962,0,0,1,4528,00:03:26.385483
133,RAW_IMU,206585464,0.0,-193,208,962,-1,0,0,4577,00:03:26.585464
134,RAW_IMU,206785475,0.0,-193,209,961,0,0,0,4528,00:03:26.785475
135,RAW_IMU,206985476,0.0,-193,209,961,0,0,1,4528,00:03:26.985476
136,RAW_IMU,207185502,0.0,-193,209,961,0,0,0,4528,00:03:27.185502
137,RAW_IMU,207385502,0.0,-193,209,962,0,0,0,4528,00:03:27.385502
138,RAW_IMU,207585456,0.0,-193,209,961,0,0,1,4528,00:03:27.585456
139,RAW_IMU,207785461,0.0,-193,209,961,0,1,0,4577,00:03:27.785461
140,RAW_IMU,207985538,0.0,-193,209,961,0,0,0,4528,00:03:27.985538
141,RAW_IMU,208185482,0.0,-193,209,961,0,0,0,4528,00:03:28.185482
142,RAW_IMU,208385499,0.0,-193,208,961,0,0,0,4577,00:03:28.385499
143,RAW_IMU,208585439,0.0,-193,209,961,0,0,0,4528,00:03:28.585439
144,RAW_IMU,208785480,0.0,-193,209,961,0,0,0,4528,00:03:28.785480
145,RAW_IMU,208985459,0.0,-193,209,961,0,1,0,4577,00:03:28.985459
146,RAW_IMU,209185478,0.0,-193,209,962,-1,0,0,4577,00:03:29.185478
147,RAW_IMU,209385462,0.0,-193,209,960,0,0,0,4528,00:03:29.385462
148,RAW_IMU,209585482,0.0,-193,209,961,0,1,0,4528,00:03:29.585482
149,RAW_IMU,209785492,0.0,-193,209,962,0,0,0,4528,00:03:29.785492
150,RAW_IMU,209985469,0.0,-192,208,962,0,0,0,4528,00:03:29.985469
151,RAW_IMU,210185483,0.0,-193,209,961,0,1,0,4528,00:03:30.185483
152,RAW_IMU,210385578,0.0,-193,209,962,-1,1,0,4528,00:03:30.385578
153,RAW_IMU,210585474,0.0,-193,209,961,0,0,0,4528,00:03:30.585474
154,RAW_IMU,210785471,0.0,-193,209,961,0,0,0,4577,00:03:30.785471
155,RAW_IMU,210985506,0.0,-193,209,962,0,0,0,4528,00:03:30.985506
156,RAW_IMU,211185489,0.0,-193,209,961,0,0,0,4528,00:03:31.185489
157,RAW_IMU,211385512,0.0,-193,209,961,0,0,0,4577,00:03:31.385512
158,RAW_IMU,211585479,0.0,-193,209,961,0,0,0,4577,00:03:31.585479
159,RAW_IMU,211785467,0.0,-193,209,961,0,1,0,4577,00:03:31.785467
160,RAW_IMU,211985506,0.0,-193,209,961,0,0,0,4577,00:03:31.985506
161,RAW_IMU,212185487,0.0,-193,209,962,0,0,0,4528,00:03:32.185487
162,RAW_IMU,212385489,0.0,-193,209,961,0,0,0,4577,00:03:32.385489
163,RAW_IMU,212585455,0.0,-193,209,961,0,1,0,4528,00:03:32.585455
164,RAW_IMU,212785475,0.0,-193,209,962,0,0,0,4577,00:03:32.785475
165,RAW_IMU,212985473,0.0,-193,209,961,0,0,0,4577,00:03:32.985473
166,RAW_IMU,213185482,0.0,-193,208,961,0,1,0,4528,00:03:33.185482
167,RAW_IMU,213385506,0.0,-193,209,961,0,0,0,4577,00:03:33.385506
168,RAW_IMU,213585481,0.0,-192,209,961,-1,1,0,4528,00:03:33.585481
169,RAW_IMU,213785466,0.0,-193,209,962,0,1,0,4528,00:03:33.785466
170,RAW_IMU,213985470,0.0,-193,209,961,0,0,0,4528,00:03:33.985470
171,RAW_IMU,214185501,0.0,-193,209,961,0,0,0,4577,00:03:34.185501
172,RAW_IMU,214385504,0.0,-193,209,961,0,0,0,4528,00:03:34.385504
173,RAW_IMU,214585470,0.0,-194,209,962,0,0,1,4577,00:03:34.585470
174,RAW_IMU,214785471,0.0,-192,209,962,0,0,0,4528,00:03:34.785471
175,RAW_IMU,214985459,0.0,-193,209,961,-1,0,0,4577,00:03:34.985459
176,RAW_IMU,215185496,0.0,-193,209,962,0,1,0,4528,00:03:35.185496
177,RAW_IMU,215385498,0.0,-193,209,962,0,0,0,4528,00:03:35.385498
178,RAW_IMU,215585469,0.0,-193,209,961,0,0,0,4528,00:03:35.585469
179,RAW_IMU,215785444,0.0,-193,209,962,0,2,0,4528,00:03:35.785444
180,RAW_IMU,215985464,0.0,-193,209,962,0,0,0,4577,00:03:35.985464
181,RAW_IMU,216185483,0.0,-193,209,962,0,1,0,4577,00:03:36.185483
182,RAW_IMU,216385484,0.0,-193,209,961,0,1,0,4577,00:03:36.385484
183,RAW_IMU,216585456,0.0,-193,209,961,0,1,0,4528,00:03:36.585456
184,RAW_IMU,216785463,0.0,-193,208,962,0,1,0,4577,00:03:36.785463
185,RAW_IMU,216985527,0.0,-193,209,962,0,0,0,4528,00:03:36.985527
186,RAW_IMU,217185484,0.0,-193,209,961,0,0,0,4577,00:03:37.185484
187,RAW_IMU,217385469,0.0,-193,209,961,0,1,0,4577,00:03:37.385469
188,RAW_IMU,217585466,0.0,-194,209,961,0,0,0,4528,00:03:37.585466
189,RAW_IMU,217785457,0.0,-193,209,961,0,0,0,4528,00:03:37.785457
190,RAW_IMU,217985504,0.0,-193,209,962,0,1,0,4577,00:03:37.985504
191,RAW_IMU,218185480,0.0,-193,209,961,0,0,1,4577,00:03:38.185480
192,RAW_IMU,218385500,0.0,-193,209,961,0,1,0,4528,00:03:38.385500
193,RAW_IMU,218585480,0.0,-193,209,961,0,1,0,4528,00:03:38.585480
194,RAW_IMU,218785486,0.0,-194,209,961,0,0,0,4528,00:03:38.785486
195,RAW_IMU,218985471,0.0,-193,209,961,-1,0,0,4577,00:03:38.985471
196,RAW_IMU,219185506,0.0,-193,209,961,-1,0,0,4528,00:03:39.185506
197,RAW_IMU,219385463,0.0,-193,209,961,0,1,0,4577,00:03:39.385463
198,RAW_IMU,219585457,0.0,-193,209,961,0,0,0,4577,00:03:39.585457
199,RAW_IMU,219785512,0.0,-193,209,961,0,0,0,4577,00:03:39.785512
200,RAW_IMU,220785461,0.0,-193,209,961,0,0,0,4577,00:03:40.785461
201,RAW_IMU,220985483,0.0,-193,209,962,0,1,0,4577,00:03:40.985483
202,RAW_IMU,221185487,0.0,-193,209,962,0,1,0,4577,00:03:41.185487
203,RAW_IMU,221385485,0.0,-192,209,961,0,1,0,4577,00:03:41.385485
204,RAW_IMU,221585465,0.0,-193,209,961,0,0,0,4577,00:03:41.585465
205,RAW_IMU,221785474,0.0,-193,209,961,0,0,0,4577,00:03:41.785474
206,RAW_IMU,221985470,0.0,-192,209,961,-1,0,0,4528,00:03:41.985470
207,RAW_IMU,222185471,0.0,-193,209,961,0,1,0,4528,00:03:42.185471
208,RAW_IMU,222385515,0.0,-193,209,961,0,1,0,4577,00:03:42.385515
209,RAW_IMU,222585457,0.0,-193,209,961,0,0,0,4577,00:03:42.585457
210,RAW_IMU,222785460,0.0,-193,209,962,0,1,0,4577,00:03:42.785460
211,RAW_IMU,222985593,0.0,-193,209,961,0,0,0,4528,00:03:42.985593
212,RAW_IMU,223185455,0.0,-193,209,962,0,1,0,4528,00:03:43.185455
213,RAW_IMU,223385482,0.0,-193,209,961,-1,0,0,4528,00:03:43.385482
214,RAW_IMU,223585517,0.0,-194,209,961,0,1,0,4528,00:03:43.585517
215,RAW_IMU,223785457,0.0,-193,209,962,0,0,0,4577,00:03:43.785457
216,RAW_IMU,223985471,0.0,-193,209,961,0,0,0,4528,00:03:43.985471
217,RAW_IMU,224185504,0.0,-193,209,962,0,0,0,4528,00:03:44.185504
218,RAW_IMU,224385486,0.0,-193,209,961,0,0,0,4528,00:03:44.385486
219,RAW_IMU,224585460,0.0,-193,209,962,-1,1,0,4577,00:03:44.585460
220,RAW_IMU,226785457,50.0,-193,209,961,0,2,0,4528,00:03:46.785457
221,RAW_IMU,226985468,50.0,-193,209,961,0,1,0,4528,00:03:46.985468
222,RAW_IMU,227185567,50.0,-193,208,962,0,2,0,4528,00:03:47.185567
223,RAW_IMU,227385470,50.0,-193,209,961,0,1,0,4577,00:03:47.385470
224,RAW_IMU,227585472,50.0,-193,209,962,0,2,0,4577,00:03:47.585472
225,RAW_IMU,227785466,50.0,-194,209,961,0,1,0,4577,00:03:47.785466
226,RAW_IMU,227985506,50.0,-193,209,961,-1,2,0,4577,00:03:47.985506
227,RAW_IMU,228185468,50.0,-193,208,961,0,1,0,4528,00:03:48.185468
228,RAW_IMU,228385503,50.0,-193,209,962,0,2,0,4577,00:03:48.385503
229,RAW_IMU,228585485,50.0,-193,209,961,0,1,0,4577,00:03:48.585485
230,RAW_IMU,228785472,50.0,-193,209,961,0,1,0,4577,00:03:48.785472
231,RAW_IMU,228985467,50.0,-193,209,961,0,2,0,4528,00:03:48.985467
232,RAW_IMU,229185456,50.0,-193,209,961,0,1,0,4528,00:03:49.185456
233,RAW_IMU,229385463,50.0,-193,209,961,0,1,0,4528,00:03:49.385463
234,RAW_IMU,229585467,50.0,-193,209,961,0,2,0,4528,00:03:49.585467
235,RAW_IMU,229785468,50.0,-193,209,961,0,0,0,4528,00:03:49.785468
236,RAW_IMU,229985486,50.0,-193,209,961,0,1,0,4528,00:03:49.985486
237,RAW_IMU,230185482,50.0,-193,209,961,0,1,0,4528,00:03:50.185482
238,RAW_IMU,230385500,50.0,-193,209,961,0,2,0,4528,00:03:50.385500
239,RAW_IMU,230585509,50.0,-193,209,961,0,1,0,4577,00:03:50.585509
240,RAW_IMU,232785456,100.0,-193,209,961,2,0,0,4577,00:03:52.785456
241,RAW_IMU,232985483,100.0,-193,209,962,1,-1,0,4577,00:03:52.985483
242,RAW_IMU,233185479,100.0,-194,209,961,1,-1,0,4577,00:03:53.185479
243,RAW_IMU,233385498,100.0,-194,209,961,2,0,0,4528,00:03:53.385498
244,RAW_IMU,233585468,100.0,-193,209,962,1,-1,0,4528,00:03:53.585468
245,RAW_IMU,233785464,100.0,-194,210,961,2,-2,0,4577,00:03:53.785464
246,RAW_IMU,233985504,100.0,-193,209,961,2,-1,0,4528,00:03:53.985504
247,RAW_IMU,234185463,100.0,-194,209,962,2,-1,0,4577,00:03:54.185463
248,RAW_IMU,234385469,100.0,-193,210,961,1,-1,0,4528,00:03:54.385469
249,RAW_IMU,234585469,100.0,-193,209,962,2,0,0,4528,00:03:54.585469
250,RAW_IMU,234785483,100.0,-193,209,960,1,0,0,4577,00:03:54.785483
251,RAW_IMU,234985506,100.0,-193,209,961,1,-1,0,4528,00:03:54.985506
252,RAW_IMU,235185514,100.0,-193,210,961,2,0,0,4577,00:03:55.185514
253,RAW_IMU,235385461,100.0,-193,209,961,1,-1,0,4577,00:03:55.385461
254,RAW_IMU,235585475,100.0,-193,209,961,1,-1,0,4528,00:03:55.585475
255,RAW_IMU,235785516,100.0,-193,210,961,2,0,0,4528,00:03:55.785516
256,RAW_IMU,235985467,100.0,-193,210,962,1,0,0,4528,00:03:55.985467
257,RAW_IMU,236185473,100.0,-193,210,961,1,-1,0,4528,00:03:56.185473
258,RAW_IMU,236385461,100.0,-193,210,961,1,0,0,4528,00:03:56.385461
259,RAW_IMU,236585456,100.0,-193,209,961,1,0,0,4577,00:03:56.585456
260,RAW_IMU,238785471,150.0,-193,209,962,1,1,0,4528,00:03:58.785471
261,RAW_IMU,238985504,150.0,-193,209,962,2,1,0,4577,00:03:58.985504
262,RAW_IMU,239185537,150.0,-193,209,961,3,0,0,4577,00:03:59.185537
263,RAW_IMU,239385473,150.0,-193,209,962,2,1,0,4528,00:03:59.385473
264,RAW_IMU,239585461,150.0,-193,209,962,2,1,0,4577,00:03:59.585461
265,RAW_IMU,239785553,150.0,-193,209,961,1,0,-1,4528,00:03:59.785553
266,RAW_IMU,239985463,150.0,-193,209,962,1,1,0,4577,00:03:59.985463
267,RAW_IMU,240185507,150.0,-193,209,962,2,1,0,4528,00:04:00.185507
268,RAW_IMU,240385492,150.0,-193,209,961,1,1,0,4528,00:04:00.385492
269,RAW_IMU,240585465,150.0,-193,209,961,2,0,0,4528,00:04:00.585465
270,RAW_IMU,240785466,150.0,-193,209,962,2,0,0,4528,00:04:00.785466
271,RAW_IMU,240985505,150.0,-194,209,962,2,1,0,4528,00:04:00.985505
272,RAW_IMU,241185479,150.0,-193,208,962,1,1,0,4528,00:04:01.185479
273,RAW_IMU,241385502,150.0,-193,209,961,2,1,0,4528,00:04:01.385502
274,RAW_IMU,241585474,150.0,-193,208,962,1,1,0,4577,00:04:01.585474
275,RAW_IMU,241785459,150.0,-193,209,962,2,1,0,4528,00:04:01.785459
276,RAW_IMU,241985477,150.0,-193,209,961,2,1,0,4577,00:04:01.985477
277,RAW_IMU,242185496,150.0,-193,209,962,2,0,0,4528,00:04:02.185496
278,RAW_IMU,242385452,150.0,-193,209,961,2,0,0,4528,00:04:02.385452
279,RAW_IMU,242585470,150.0,-194,209,962,2,1,0,4577,00:04:02.585470
280,RAW_IMU,244785461,200.0,-193,209,962,0,3,0,4577,00:04:04.785461
281,RAW_IMU,244985460,200.0,-194,208,961,0,3,0,4528,00:04:04.985460
282,RAW_IMU,245185473,200.0,-193,209,962,-1,3,0,4577,00:04:05.185473
283,RAW_IMU,245385463,200.0,-193,209,961,-1,3,0,4528,00:04:05.385463
284,RAW_IMU,245585461,200.0,-193,209,962,-1,2,0,4528,00:04:05.585461
285,RAW_IMU,245785478,200.0,-194,209,961,0,1,0,4528,00:04:05.785478
286,RAW_IMU,245985466,200.0,-194,210,961,0,2,0,4528,00:04:05.985466
287,RAW_IMU,246185514,200.0,-192,208,962,-1,3,0,4577,00:04:06.185514
288,RAW_IMU,246385500,200.0,-193,209,962,-1,3,0,4528,00:04:06.385500
289,RAW_IMU,246585467,200.0,-193,209,962,0,2,0,4577,00:04:06.585467
290,RAW_IMU,246785480,200.0,-193,208,961,0,5,0,4528,00:04:06.785480
291,RAW_IMU,246985475,200.0,-193,208,961,0,2,0,4528,00:04:06.985475
292,RAW_IMU,247185475,200.0,-193,209,962,0,2,0,4528,00:04:07.185475
293,RAW_IMU,247385468,200.0,-193,210,961,-1,4,0,4528,00:04:07.385468
294,RAW_IMU,247585493,200.0,-193,210,961,0,1,0,4577,00:04:07.585493
295,RAW_IMU,247785474,200.0,-194,209,961,0,1,0,4528,00:04:07.785474
296,RAW_IMU,247985473,200.0,-193,209,961,-1,2,0,4528,00:04:07.985473
297,RAW_IMU,248185521,200.0,-193,210,962,0,2,0,4577,00:04:08.185521
298,RAW_IMU,248385483,200.0,-193,209,961,-1,3,0,4577,00:04:08.385483
299,RAW_IMU,248585438,200.0,-193,208,961,0,2,0,4528,00:04:08.585438
300,RAW_IMU,250785464,250.0,-193,209,961,0,1,0,4528,00:04:10.785464
301,RAW_IMU,250985464,250.0,-193,209,962,0,2,0,4528,00:04:10.985464
302,RAW_IMU,251185489,250.0,-193,209,961,-1,1,0,4528,00:04:11.185489
303,RAW_IMU,251385497,250.0,-193,209,961,-1,2,0,4528,00:04:11.385497
304,RAW_IMU,251585473,250.0,-193,209,962,0,1,0,4577,00:04:11.585473
305,RAW_IMU,251785463,250.0,-193,209,961,0,1,0,4528,00:04:11.785463
306,RAW_IMU,251985484,250.0,-193,209,961,0,1,0,4528,00:04:11.985484
307,RAW_IMU,252185504,250.0,-193,209,961,0,1,0,4577,00:04:12.185504
308,RAW_IMU,252385509,250.0,-194,209,962,-1,1,0,4528,00:04:12.385509
309,RAW_IMU,252585478,250.0,-193,209,962,-1,2,0,4577,00:04:12.585478
310,RAW_IMU,252785497,250.0,-193,209,961,-1,2,0,4577,00:04:12.785497
311,RAW_IMU,252985477,250.0,-193,208,961,-1,2,0,4528,00:04:12.985477
312,RAW_IMU,253185487,250.0,-193,209,962,0,1,0,4577,00:04:13.185487
313,RAW_IMU,253385512,250.0,-193,209,962,0,1,0,4528,00:04:13.385512
314,RAW_IMU,253585465,250.0,-193,209,961,0,2,0,4577,00:04:13.585465
315,RAW_IMU,253785464,250.0,-193,209,962,0,0,0,4577,00:04:13.785464
316,RAW_IMU,253985493,250.0,-193,208,962,0,1,0,4577,00:04:13.985493
317,RAW_IMU,254185491,250.0,-193,209,961,0,1,0,4577,00:04:14.185491
318,RAW_IMU,254385459,250.0,-193,209,962,0,1,0,4528,00:04:14.385459
319,RAW_IMU,254585453,250.0,-194,209,962,-1,2,0,4577,00:04:14.585453
320,RAW_IMU,256785441,300.0,-193,209,961,0,1,0,4528,00:04:16.785441
321,RAW_IMU,256985458,300.0,-193,210,961,0,2,0,4528,00:04:16.985458
322,RAW_IMU,257185478,300.0,-193,209,961,0,0,0,4577,00:04:17.185478
323,RAW_IMU,257385511,300.0,-194,209,961,0,1,0,4528,00:04:17.385511
324,RAW_IMU,257585478,300.0,-194,209,962,0,1,1,4528,00:04:17.585478
325,RAW_IMU,257785460,300.0,-193,209,962,0,0,1,4528,00:04:17.785460
326,RAW_IMU,257985458,300.0,-193,209,962,0,1,0,4577,00:04:17.985458
327,RAW_IMU,258185496,300.0,-194,209,962,0,1,0,4577,00:04:18.185496
328,RAW_IMU,258385516,300.0,-193,209,961,0,1,0,4528,00:04:18.385516
329,RAW_IMU,258585462,300.0,-193,208,961,0,1,0,4577,00:04:18.585462
330,RAW_IMU,258785502,300.0,-193,209,962,0,0,0,4577,00:04:18.785502
331,RAW_IMU,258985464,300.0,-193,208,962,0,0,0,4577,00:04:18.985464
332,RAW_IMU,259185472,300.0,-193,209,962,0,0,0,4577,00:04:19.185472
333,RAW_IMU,259385460,300.0,-193,209,961,-1,0,0,4528,00:04:19.385460
334,RAW_IMU,259585477,300.0,-194,209,961,0,1,0,4528,00:04:19.585477
335,RAW_IMU,259785460,300.0,-193,210,962,-1,2,0,4577,00:04:19.785460
336,RAW_IMU,259985477,300.0,-193,209,961,0,0,0,4577,00:04:19.985477
337,RAW_IMU,260185508,300.0,-194,210,962,-1,0,0,4528,00:04:20.185508
338,RAW_IMU,260385480,300.0,-192,209,961,1,1,0,4577,00:04:20.385480
339,RAW_IMU,260585467,300.0,-193,209,962,0,1,0,4528,00:04:20.585467
340,RAW_IMU,262785466,350.0,-193,209,962,0,1,0,4528,00:04:22.785466
341,RAW_IMU,262985460,350.0,-193,209,961,0,0,0,4577,00:04:22.985460
342,RAW_IMU,263185461,350.0,-193,209,962,0,0,0,4577,00:04:23.185461
343,RAW_IMU,263385471,350.0,-193,209,962,0,2,0,4528,00:04:23.385471
344,RAW_IMU,263585462,350.0,-193,209,962,0,0,0,4577,00:04:23.585462
345,RAW_IMU,263785474,350.0,-193,209,962,0,0,0,4577,00:04:23.785474
346,RAW_IMU,263985465,350.0,-193,209,961,0,0,0,4577,00:04:23.985465
347,RAW_IMU,264185521,350.0,-193,209,961,0,0,0,4577,00:04:24.185521
348,RAW_IMU,264385477,350.0,-193,209,962,-1,1,0,4577,00:04:24.385477
349,RAW_IMU,264585471,350.0,-193,209,961,0,0,0,4577,00:04:24.585471
350,RAW_IMU,264785487,350.0,-193,209,962,0,1,0,4528,00:04:24.785487
351,RAW_IMU,264985519,350.0,-193,209,961,0,1,0,4577,00:04:24.985519
352,RAW_IMU,265185488,350.0,-193,209,961,0,0,0,4528,00:04:25.185488
353,RAW_IMU,265385500,350.0,-193,209,961,1,0,0,4577,00:04:25.385500
354,RAW_IMU,265585480,350.0,-193,209,962,0,0,0,4528,00:04:25.585480
355,RAW_IMU,265785458,350.0,-193,209,962,0,1,0,4577,00:04:25.785458
356,RAW_IMU,265985500,350.0,-195,209,962,0,0,0,4528,00:04:25.985500
357,RAW_IMU,266185469,350.0,-192,209,961,-1,1,0,4577,00:04:26.185469
358,RAW_IMU,266385477,350.0,-193,208,961,0,0,0,4577,00:04:26.385477
359,RAW_IMU,266585473,350.0,-194,210,962,0,1,-1,4577,00:04:26.585473
360,RAW_IMU,268785468,400.0,-193,209,962,0,1,0,4528,00:04:28.785468
361,RAW_IMU,268985483,400.0,-193,209,961,0,0,0,4577,00:04:28.985483
362,RAW_IMU,269185479,400.0,-193,209,962,0,1,0,4528,00:04:29.185479
363,RAW_IMU,269385478,400.0,-193,209,961,0,0,0,4528,00:04:29.385478
364,RAW_IMU,269585514,400.0,-194,209,961,0,1,0,4577,00:04:29.585514
365,RAW_IMU,269785458,400.0,-193,209,962,0,1,0,4577,00:04:29.785458
366,RAW_IMU,269985474,400.0,-193,209,961,0,0,0,4528,00:04:29.985474
367,RAW_IMU,270185520,400.0,-193,209,962,0,0,0,4577,00:04:30.185520
368,RAW_IMU,270385474,400.0,-193,209,961,0,0,0,4577,00:04:30.385474
369,RAW_IMU,270585474,400.0,-193,209,962,0,0,0,4577,00:04:30.585474
370,RAW_IMU,270785478,400.0,-193,209,961,0,1,0,4528,00:04:30.785478
371,RAW_IMU,270985490,400.0,-193,209,961,0,0,0,4577,00:04:30.985490
372,RAW_IMU,271185470,400.0,-193,209,961,0,1,0,4577,00:04:31.185470
373,RAW_IMU,271385464,400.0,-193,209,961,0,0,0,4577,00:04:31.385464
374,RAW_IMU,271585474,400.0,-193,209,961,0,0,0,4528,00:04:31.585474
375,RAW_IMU,271785475,400.0,-193,208,961,0,0,0,4528,00:04:31.785475
376,RAW_IMU,271985502,400.0,-193,209,962,0,1,0,4577,00:04:31.985502
377,RAW_IMU,272185502,400.0,-193,209,962,0,0,0,4528,00:04:32.185502
378,RAW_IMU,272385471,400.0,-193,209,961,0,0,0,4528,00:04:32.385471
379,RAW_IMU,272585459,400.0,-193,209,962,0,1,0,4528,00:04:32.585459
380,RAW_IMU,274785479,450.0,-193,208,962,0,0,0,4528,00:04:34.785479
381,RAW_IMU,274985462,450.0,-193,209,962,0,0,0,4528,00:04:34.985462
382,RAW_IMU,275185493,450.0,-193,209,961,0,1,0,4577,00:04:35.185493
383,RAW_IMU,275385476,450.0,-193,209,961,0,1,0,4528,00:04:35.385476
384,RAW_IMU,275585465,450.0,-193,209,961,-1,1,0,4528,00:04:35.585465
385,RAW_IMU,275785467,450.0,-193,209,961,0,0,0,4528,00:04:35.785467
386,RAW_IMU,275985472,450.0,-194,209,961,0,1,0,4577,00:04:35.985472
387,RAW_IMU,276185498,450.0,-193,209,961,0,0,0,4528,00:04:36.185498
388,RAW_IMU,276385512,450.0,-193,209,962,0,0,0,4577,00:04:36.385512
389,RAW_IMU,276585478,450.0,-194,209,962,0,0,0,4577,00:04:36.585478
390,RAW_IMU,276785458,450.0,-193,209,962,0,0,0,4528,00:04:36.785458
391,RAW_IMU,276985513,450.0,-194,209,961,0,0,0,4577,00:04:36.985513
392,RAW_IMU,277185474,450.0,-193,209,961,-1,0,0,4528,00:04:37.185474
393,RAW_IMU,277385481,450.0,-193,208,961,0,0,-1,4577,00:04:37.385481
394,RAW_IMU,277585520,450.0,-194,209,961,0,0,0,4577,00:04:37.585520
395,RAW_IMU,277785483,450.0,-193,210,961,0,1,0,4577,00:04:37.785483
396,RAW_IMU,277985468,450.0,-193,209,961,0,0,0,4528,00:04:37.985468
397,RAW_IMU,278185526,450.0,-193,209,961,0,0,0,4577,00:04:38.185526
398,RAW_IMU,278385500,450.0,-193,209,962,0,0,0,4577,00:04:38.385500
399,RAW_IMU,278585484,450.0,-193,209,961,0,0,0,4577,00:04:38.585484
400,RAW_IMU,280785483,500.0,-193,209,961,0,0,0,4528,00:04:40.785483
401,RAW_IMU,280985475,500.0,-194,209,961,0,0,0,4577,00:04:40.985475
402,RAW_IMU,281185489,500.0,-193,209,961,0,0,0,4528,00:04:41.185489
403,RAW_IMU,281385478,500.0,-193,209,961,0,1,0,4528,00:04:41.385478
404,RAW_IMU,281585507,500.0,-193,209,961,0,1,0,4577,00:04:41.585507
405,RAW_IMU,281785481,500.0,-193,209,962,0,0,0,4528,00:04:41.785481
406,RAW_IMU,281985477,500.0,-193,209,961,0,0,0,4577,00:04:41.985477
407,RAW_IMU,282185515,500.0,-194,210,962,0,0,0,4577,00:04:42.185515
408,RAW_IMU,282385468,500.0,-193,209,961,-1,0,0,4577,00:04:42.385468
409,RAW_IMU,282585468,500.0,-193,209,961,0,1,0,4577,00:04:42.585468
410,RAW_IMU,282785461,500.0,-194,209,961,0,0,0,4577,00:04:42.785461
411,RAW_IMU,282985468,500.0,-193,209,962,0,0,0,4528,00:04:42.985468
412,RAW_IMU,283185476,500.0,-194,209,962,0,0,-1,4577,00:04:43.185476
413,RAW_IMU,283385509,500.0,-193,209,961,0,0,0,4577,00:04:43.385509
414,RAW_IMU,283585463,500.0,-194,209,962,0,0,0,4577,00:04:43.585463
415,RAW_IMU,283785465,500.0,-193,209,962,0,0,0,4577,00:04:43.785465
416,RAW_IMU,283985458,500.0,-193,209,962,0,0,0,4577,00:04:43.985458
417,RAW_IMU,284185501,500.0,-193,209,962,0,0,0,4577,00:04:44.185501
418,RAW_IMU,284385482,500.0,-193,209,961,0,0,0,4528,00:04:44.385482
419,RAW_IMU,284585475,500.0,-193,209,961,0,1,0,4528,00:04:44.585475
420,RAW_IMU,286785460,550.0,-193,209,961,0,1,-1,4577,00:04:46.785460
421,RAW_IMU,286985516,550.0,-193,209,961,0,0,0,4577,00:04:46.985516
422,RAW_IMU,287185488,550.0,-193,209,961,0,0,0,4528,00:04:47.185488
423,RAW_IMU,287385504,550.0,-193,209,961,0,0,0,4528,00:04:47.385504
424,RAW_IMU,287585490,550.0,-194,209,961,0,0,0,4528,00:04:47.585490
425,RAW_IMU,287785481,550.0,-193,209,961,0,0,-1,4577,00:04:47.785481
426,RAW_IMU,287985460,550.0,-193,209,961,0,0,0,4577,00:04:47.985460
427,RAW_IMU,288185468,550.0,-193,209,962,-1,0,0,4528,00:04:48.185468
428,RAW_IMU,288385484,550.0,-194,209,961,0,2,0,4528,00:04:48.385484
429,RAW_IMU,288585483,550.0,-193,209,961,0,0,0,4528,00:04:48.585483
430,RAW_IMU,288785464,550.0,-193,208,961,0,0,0,4577,00:04:48.785464
431,RAW_IMU,288985486,550.0,-193,209,961,0,0,-1,4528,00:04:48.985486
432,RAW_IMU,289185517,550.0,-193,209,961,0,0,0,4577,00:04:49.185517
433,RAW_IMU,289385498,550.0,-193,209,961,0,0,0,4528,00:04:49.385498
434,RAW_IMU,289585477,550.0,-193,209,962,0,0,0,4528,00:04:49.585477
435,RAW_IMU,289785486,550.0,-193,209,962,0,1,0,4577,00:04:49.785486
436,RAW_IMU,289985510,550.0,-193,209,962,0,0,0,4528,00:04:49.985510
437,RAW_IMU,290185521,550.0,-193,209,961,0,0,0,4577,00:04:50.185521
438,RAW_IMU,290385512,550.0,-193,208,962,0,0,0,4577,00:04:50.385512
439,RAW_IMU,290585479,550.0,-193,209,961,-1,0,0,4528,00:04:50.585479
440,RAW_IMU,292785490,600.0,-194,209,962,0,1,0,4528,00:04:52.785490
441,RAW_IMU,292985480,600.0,-193,209,961,0,0,0,4577,00:04:52.985480
442,RAW_IMU,293185523,600.0,-193,209,961,0,0,0,4577,00:04:53.185523
443,RAW_IMU,293385496,600.0,-193,209,961,0,0,0,4577,00:04:53.385496
444,RAW_IMU,293585467,600.0,-193,209,961,0,0,0,4528,00:04:53.585467
445,RAW_IMU,293785526,600.0,-193,209,962,-1,1,0,4577,00:04:53.785526
446,RAW_IMU,293985478,600.0,-193,209,962,0,0,0,4577,00:04:53.985478
447,RAW_IMU,294185486,600.0,-193,209,962,0,0,0,4577,00:04:54.185486
448,RAW_IMU,294385504,600.0,-193,209,961,0,1,0,4577,00:04:54.385504
449,RAW_IMU,294585485,600.0,-193,209,961,0,0,0,4528,00:04:54.585485
450,RAW_IMU,294785463,600.0,-194,209,962,0,0,0,4528,00:04:54.785463
451,RAW_IMU,294985469,600.0,-193,209,962,-1,1,0,4528,00:04:54.985469
452,RAW_IMU,295185474,600.0,-193,209,962,-1,0,0,4528,00:04:55.185474
453,RAW_IMU,295385478,600.0,-193,209,962,-1,0,0,4528,00:04:55.385478
454,RAW_IMU,295585466,600.0,-193,209,961,0,0,0,4577,00:04:55.585466
455,RAW_IMU,295785468,600.0,-193,209,961,0,0,0,4577,00:04:55.785468
456,RAW_IMU,295985479,600.0,-193,209,962,0,1,0,4577,00:04:55.985479
457,RAW_IMU,296185520,600.0,-193,209,962,0,1,0,4577,00:04:56.185520
458,RAW_IMU,296385491,600.0,-193,209,962,0,0,0,4528,00:04:56.385491
459,RAW_IMU,296585475,600.0,-192,209,962,0,1,0,4577,00:04:56.585475
460,RAW_IMU,298785464,650.0,-193,209,961,0,0,0,4528,00:04:58.785464
461,RAW_IMU,298985478,650.0,-194,209,961,0,0,0,4577,00:04:58.985478
462,RAW_IMU,299185498,650.0,-193,209,962,0,0,0,4528,00:04:59.185498
463,RAW_IMU,299385511,650.0,-193,209,962,0,0,-1,4528,00:04:59.385511
464,RAW_IMU,299585483,650.0,-193,210,961,0,1,0,4577,00:04:59.585483
465,RAW_IMU,299785486,650.0,-193,209,962,0,0,0,4528,00:04:59.785486
466,RAW_IMU,299985470,650.0,-194,209,962,0,0,0,4528,00:04:59.985470
467,RAW_IMU,300185514,650.0,-193,209,961,0,0,0,4528,00:05:00.185514
468,RAW_IMU,300385466,650.0,-193,209,961,0,0,0,4577,00:05:00.385466
469,RAW_IMU,300585486,650.0,-193,209,962,0,0,0,4528,00:05:00.585486
470,RAW_IMU,300785471,650.0,-193,209,962,-1,0,0,4528,00:05:00.785471
471,RAW_IMU,300985478,650.0,-194,209,961,-1,0,0,4528,00:05:00.985478
472,RAW_IMU,301185473,650.0,-194,210,961,-1,0,0,4528,00:05:01.185473
473,RAW_IMU,301385500,650.0,-193,209,961,-1,1,0,4528,00:05:01.385500
474,RAW_IMU,301585490,650.0,-193,209,962,0,0,0,4528,00:05:01.585490
475,RAW_IMU,301785468,650.0,-193,209,962,0,1,0,4528,00:05:01.785468
476,RAW_IMU,301985458,650.0,-194,209,961,0,0,0,4577,00:05:01.985458
477,RAW_IMU,302185491,650.0,-193,209,961,0,0,0,4528,00:05:02.185491
478,RAW_IMU,302385476,650.0,-193,209,961,0,0,0,4577,00:05:02.385476
479,RAW_IMU,302585467,650.0,-193,209,961,0,0,0,4577,00:05:02.585467
480,RAW_IMU,304785468,700.0,-193,209,962,-1,0,0,4528,00:05:04.785468
481,RAW_IMU,304985508,700.0,-193,210,962,0,1,0,4528,00:05:04.985508
482,RAW_IMU,305185491,700.0,-193,209,961,0,1,0,4577,00:05:05.185491
483,RAW_IMU,305385514,700.0,-193,209,962,0,0,0,4528,00:05:05.385514
484,RAW_IMU,305585465,700.0,-193,209,962,0,0,0,4577,00:05:05.585465
485,RAW_IMU,305785484,700.0,-193,209,961,-1,0,0,4577,00:05:05.785484
486,RAW_IMU,305985484,700.0,-193,209,962,0,1,0,4577,00:05:05.985484
487,RAW_IMU,306185494,700.0,-193,209,961,0,0,0,4528,00:05:06.185494
488,RAW_IMU,306385472,700.0,-193,209,962,0,1,0,4528,00:05:06.385472
489,RAW_IMU,306585475,700.0,-193,209,961,0,0,0,4528,00:05:06.585475
490,RAW_IMU,306785487,700.0,-194,209,961,0,2,0,4577,00:05:06.785487
491,RAW_IMU,306985484,700.0,-193,209,961,0,0,0,4577,00:05:06.985484
492,RAW_IMU,307185467,700.0,-193,209,961,0,1,0,4528,00:05:07.185467
493,RAW_IMU,307385471,700.0,-193,209,961,0,1,0,4577,00:05:07.385471
494,RAW_IMU,307585497,700.0,-193,209,961,0,0,0,4577,00:05:07.585497
495,RAW_IMU,307785517,700.0,-193,209,961,0,0,0,4528,00:05:07.785517
496,RAW_IMU,307985476,700.0,-193,209,961,0,0,0,4577,00:05:07.985476
497,RAW_IMU,308185490,700.0,-194,209,961,0,2,0,4577,00:05:08.185490
498,RAW_IMU,308385483,700.0,-193,209,961,0,0,0,4577,00:05:08.385483
499,RAW_IMU,308585469,700.0,-193,209,962,0,0,-1,4577,00:05:08.585469
500,RAW_IMU,310785495,750.0,-194,209,961,0,0,0,4577,00:05:10.785495
501,RAW_IMU,310985478,750.0,-193,209,962,0,0,0,4577,00:05:10.985478
502,RAW_IMU,311185572,750.0,-193,209,961,0,0,0,4577,00:05:11.185572
503,RAW_IMU,311385516,750.0,-193,209,961,0,1,0,4577,00:05:11.385516
504,RAW_IMU,311585457,750.0,-193,209,961,-1,0,0,4528,00:05:11.585457
505,RAW_IMU,311785464,750.0,-193,209,961,-1,1,0,4528,00:05:11.785464
506,RAW_IMU,311985470,750.0,-193,209,961,0,1,0,4577,00:05:11.985470
507,RAW_IMU,312185480,750.0,-193,209,962,0,1,0,4528,00:05:12.185480
508,RAW_IMU,312385511,750.0,-193,209,961,0,0,0,4577,00:05:12.385511
509,RAW_IMU,312585491,750.0,-193,209,961,0,0,0,4528,00:05:12.585491
510,RAW_IMU,312785481,750.0,-194,209,962,0,0,0,4528,00:05:12.785481
511,RAW_IMU,312985510,750.0,-193,209,961,0,0,0,4577,00:05:12.985510
512,RAW_IMU,313185508,750.0,-193,210,962,0,0,0,4528,00:05:13.185508
513,RAW_IMU,313385474,750.0,-193,209,961,0,1,0,4577,00:05:13.385474
514,RAW_IMU,313585462,750.0,-193,208,961,0,0,0,4528,00:05:13.585462
515,RAW_IMU,313785496,750.0,-193,210,961,0,0,0,4577,00:05:13.785496
516,RAW_IMU,313985463,750.0,-193,209,962,-1,1,0,4528,00:05:13.985463
517,RAW_IMU,314185519,750.0,-194,209,961,0,0,0,4577,00:05:14.185519
518,RAW_IMU,314385504,750.0,-193,209,961,0,0,0,4577,00:05:14.385504
519,RAW_IMU,314585482,750.0,-194,209,962,0,0,1,4577,00:05:14.585482
520,RAW_IMU,316785462,800.0,-193,209,961,0,1,0,4528,00:05:16.785462
521,RAW_IMU,316985471,800.0,-193,209,961,0,1,0,4528,00:05:16.985471
522,RAW_IMU,317185475,800.0,-193,209,961,0,0,0,4577,00:05:17.185475
523,RAW_IMU,317385497,800.0,-193,209,961,0,0,0,4577,00:05:17.385497
524,RAW_IMU,317585462,800.0,-193,209,961,0,0,0,4577,00:05:17.585462
525,RAW_IMU,317785524,800.0,-193,209,961,0,0,0,4528,00:05:17.785524
526,RAW_IMU,317985464,800.0,-193,209,961,0,0,0,4528,00:05:17.985464
527,RAW_IMU,318185486,800.0,-193,210,961,0,0,0,4577,00:05:18.185486
528,RAW_IMU,318385493,800.0,-193,210,961,0,0,0,4577,00:05:18.385493
529,RAW_IMU,318585483,800.0,-194,209,961,0,1,0,4528,00:05:18.585483
530,RAW_IMU,318785487,800.0,-193,209,961,0,0,0,4528,00:05:18.785487
531,RAW_IMU,318985472,800.0,-193,209,962,0,1,0,4577,00:05:18.985472
532,RAW_IMU,319185459,800.0,-193,209,962,0,0,0,4528,00:05:19.185459
533,RAW_IMU,319385491,800.0,-194,209,961,0,0,0,4528,00:05:19.385491
534,RAW_IMU,319585491,800.0,-193,209,961,0,0,0,4577,00:05:19.585491
535,RAW_IMU,319785491,800.0,-193,209,961,0,0,0,4528,00:05:19.785491
536,RAW_IMU,319985461,800.0,-193,209,961,0,0,0,4577,00:05:19.985461
537,RAW_IMU,320185483,800.0,-194,209,961,0,0,0,4577,00:05:20.185483
538,RAW_IMU,320385495,800.0,-193,209,961,0,0,0,4528,00:05:20.385495
539,RAW_IMU,320585468,800.0,-194,209,961,0,1,0,4577,00:05:20.585468
540,RAW_IMU,322785488,850.0,-194,209,962,0,1,0,4577,00:05:22.785488
541,RAW_IMU,322985491,850.0,-194,209,961,0,0,0,4577,00:05:22.985491
542,RAW_IMU,323185491,850.0,-193,209,961,0,1,0,4577,00:05:23.185491
543,RAW_IMU,323385503,850.0,-194,209,961,0,0,0,4528,00:05:23.385503
544,RAW_IMU,323585488,850.0,-194,209,961,0,1,0,4528,00:05:23.585488
545,RAW_IMU,323785515,850.0,-193,209,962,0,0,0,4577,00:05:23.785515
546,RAW_IMU,323985465,850.0,-193,209,961,0,0,0,4528,00:05:23.985465
547,RAW_IMU,324185514,850.0,-193,209,961,0,0,0,4577,00:05:24.185514
548,RAW_IMU,324385472,850.0,-193,210,962,0,1,0,4528,00:05:24.385472
549,RAW_IMU,324585483,850.0,-193,209,962,0,1,0,4577,00:05:24.585483
550,RAW_IMU,324785507,850.0,-193,209,961,0,0,0,4528,00:05:24.785507
551,RAW_IMU,324985491,850.0,-193,209,962,0,0,0,4577,00:05:24.985491
552,RAW_IMU,325185492,850.0,-193,209,962,0,0,0,4528,00:05:25.185492
553,RAW_IMU,325385498,850.0,-194,209,961,0,0,0,4528,00:05:25.385498
554,RAW_IMU,325585466,850.0,-194,209,961,0,2,1,4577,00:05:25.585466
555,RAW_IMU,325785465,850.0,-193,209,962,0,1,0,4577,00:05:25.785465
556,RAW_IMU,325985501,850.0,-194,209,962,0,1,0,4577,00:05:25.985501
557,RAW_IMU,326185482,850.0,-193,209,961,0,0,0,4528,00:05:26.185482
558,RAW_IMU,326385495,850.0,-193,209,962,0,0,0,4528,00:05:26.385495
559,RAW_IMU,326585489,850.0,-194,210,961,0,0,0,4577,00:05:26.585489
560,RAW_IMU,328785454,900.0,-194,209,962,0,0,0,4577,00:05:28.785454
561,RAW_IMU,328985487,900.0,-193,209,961,0,0,0,4528,00:05:28.985487
562,RAW_IMU,329185484,900.0,-193,209,961,0,1,0,4577,00:05:29.185484
563,RAW_IMU,329385502,900.0,-194,209,961,-1,0,0,4577,00:05:29.385502
564,RAW_IMU,329585452,900.0,-193,209,962,0,0,0,4577,00:05:29.585452
565,RAW_IMU,329785465,900.0,-194,209,961,0,1,0,4577,00:05:29.785465
566,RAW_IMU,329985475,900.0,-193,209,961,0,0,0,4528,00:05:29.985475
567,RAW_IMU,330185479,900.0,-193,209,962,-1,0,0,4577,00:05:30.185479
568,RAW_IMU,330385483,900.0,-193,209,961,-1,0,0,4528,00:05:30.385483
569,RAW_IMU,330585476,900.0,-193,209,961,0,0,0,4577,00:05:30.585476
570,RAW_IMU,330785487,900.0,-194,209,962,0,0,0,4577,00:05:30.785487
571,RAW_IMU,330985494,900.0,-193,209,961,0,1,0,4528,00:05:30.985494
572,RAW_IMU,331185471,900.0,-193,209,961,-1,0,0,4528,00:05:31.185471
573,RAW_IMU,331385484,900.0,-193,209,962,0,0,0,4528,00:05:31.385484
574,RAW_IMU,331585467,900.0,-193,209,961,0,0,0,4528,00:05:31.585467
575,RAW_IMU,331785470,900.0,-193,209,961,0,0,0,4577,00:05:31.785470
576,RAW_IMU,331985464,900.0,-193,209,961,0,1,0,4577,00:05:31.985464
577,RAW_IMU,332185497,900.0,-193,209,961,0,1,0,4528,00:05:32.185497
578,RAW_IMU,332385464,900.0,-193,209,961,0,1,0,4577,00:05:32.385464
579,RAW_IMU,332585461,900.0,-193,209,961,-1,0,0,4528,00:05:32.585461
580,RAW_IMU,334785464,950.0,-194,209,962,0,0,0,4577,00:05:34.785464
581,RAW_IMU,334985481,950.0,-193,209,962,0,0,0,4577,00:05:34.985481
582,RAW_IMU,335185482,950.0,-193,209,961,0,1,0,4577,00:05:35.185482
583,RAW_IMU,335385493,950.0,-193,209,961,0,1,0,4577,00:05:35.385493
584,RAW_IMU,335585475,950.0,-193,209,962,0,1,0,4528,00:05:35.585475
585,RAW_IMU,335785505,950.0,-193,209,962,0,0,0,4577,00:05:35.785505
586,RAW_IMU,335985490,950.0,-193,209,961,0,1,0,4577,00:05:35.985490
587,RAW_IMU,336185480,950.0,-193,209,962,0,0,0,4528,00:05:36.185480
588,RAW_IMU,336385495,950.0,-193,209,961,0,1,0,4577,00:05:36.385495
589,RAW_IMU,336585482,950.0,-193,209,961,0,0,0,4577,00:05:36.585482
590,RAW_IMU,336785460,950.0,-193,209,961,0,0,0,4528,00:05:36.785460
591,RAW_IMU,336985468,950.0,-193,209,962,-1,0,0,4577,00:05:36.985468
592,RAW_IMU,337185442,950.0,-193,209,962,0,0,0,4528,00:05:37.185442
593,RAW_IMU,337385517,950.0,-194,209,961,0,0,0,4528,00:05:37.385517
594,RAW_IMU,337585477,950.0,-193,209,961,-1,1,0,4577,00:05:37.585477
595,RAW_IMU,337785471,950.0,-193,209,962,0,0,0,4577,00:05:37.785471
596,RAW_IMU,337985487,950.0,-193,209,962,0,0,0,4577,00:05:37.985487
597,RAW_IMU,338185479,950.0,-194,209,962,0,0,0,4528,00:05:38.185479
598,RAW_IMU,338385513,950.0,-193,209,961,0,0,1,4577,00:05:38.385513
599,RAW_IMU,338585468,950.0,-193,209,961,0,1,0,4528,00:05:38.585468
600,RAW_IMU,340785468,1000.0,-193,209,961,0,0,0,4528,00:05:40.785468
601,RAW_IMU,340985474,1000.0,-194,209,962,0,0,0,4528,00:05:40.985474
602,RAW_IMU,341185529,1000.0,-193,209,961,0,0,0,4577,00:05:41.185529
603,RAW_IMU,341385480,1000.0,-193,209,961,0,1,0,4528,00:05:41.385480
604,RAW_IMU,341585479,1000.0,-193,209,961,0,0,0,4528,00:05:41.585479
605,RAW_IMU,341785485,1000.0,-193,209,961,0,0,0,4528,00:05:41.785485
606,RAW_IMU,341985454,1000.0,-193,209,962,0,0,0,4528,00:05:41.985454
607,RAW_IMU,342185512,1000.0,-194,209,962,0,0,0,4577,00:05:42.185512
608,RAW_IMU,342385465,1000.0,-193,209,960,0,0,0,4577,00:05:42.385465
609,RAW_IMU,342585440,1000.0,-193,209,961,0,0,0,4528,00:05:42.585440
610,RAW_IMU,342785489,1000.0,-194,209,961,0,1,0,4528,00:05:42.785489
611,RAW_IMU,342985485,1000.0,-193,209,962,0,0,0,4577,00:05:42.985485
612,RAW_IMU,343185468,1000.0,-194,209,961,0,0,0,4528,00:05:43.185468
613,RAW_IMU,343385468,1000.0,-193,209,961,0,1,0,4528,00:05:43.385468
614,RAW_IMU,343585455,1000.0,-194,210,962,0,1,0,4577,00:05:43.585455
615,RAW_IMU,343785505,1000.0,-193,209,961,0,0,0,4577,00:05:43.785505
616,RAW_IMU,343985481,1000.0,-193,209,961,0,0,0,4577,00:05:43.985481
617,RAW_IMU,344185492,1000.0,-193,209,961,0,0,0,4577,00:05:44.185492
618,RAW_IMU,344385510,1000.0,-193,209,962,0,0,0,4528,00:05:44.385510
619,RAW_IMU,344585469,1000.0,-193,209,962,0,0,0,4577,00:05:44.585469
620,RAW_IMU,346785490,1050.0,-193,210,962,0,0,0,4528,00:05:46.785490
621,RAW_IMU,346985466,1050.0,-194,209,961,0,1,0,4577,00:05:46.985466
622,RAW_IMU,347185475,1050.0,-193,209,961,0,1,0,4577,00:05:47.185475
623,RAW_IMU,347385511,1050.0,-193,209,961,0,2,0,4528,00:05:47.385511
624,RAW_IMU,347585463,1050.0,-193,209,961,0,1,0,4577,00:05:47.585463
625,RAW_IMU,347785473,1050.0,-194,209,961,0,0,0,4577,00:05:47.785473
626,RAW_IMU,347985490,1050.0,-194,209,961,0,0,0,4577,00:05:47.985490
627,RAW_IMU,348185482,1050.0,-193,209,961,0,1,0,4577,00:05:48.185482
628,RAW_IMU,348385503,1050.0,-193,209,961,0,1,0,4577,00:05:48.385503
629,RAW_IMU,348585477,1050.0,-193,209,961,0,0,0,4577,00:05:48.585477
630,RAW_IMU,348785469,1050.0,-193,209,961,0,0,0,4528,00:05:48.785469
631,RAW_IMU,348985506,1050.0,-193,209,962,0,0,0,4577,00:05:48.985506
632,RAW_IMU,349185467,1050.0,-193,209,962,0,0,0,4528,00:05:49.185467
633,RAW_IMU,349385483,1050.0,-193,209,961,-1,0,0,4528,00:05:49.385483
634,RAW_IMU,349585466,1050.0,-193,209,961,0,1,0,4577,00:05:49.585466
635,RAW_IMU,349785465,1050.0,-193,209,962,0,1,0,4577,00:05:49.785465
636,RAW_IMU,349985472,1050.0,-193,209,962,0,0,0,4577,00:05:49.985472
637,RAW_IMU,350185515,1050.0,-194,209,961,0,0,0,4528,00:05:50.185515
638,RAW_IMU,350385472,1050.0,-193,209,962,0,0,0,4577,00:05:50.385472
639,RAW_IMU,350585464,1050.0,-194,209,961,0,0,0,4577,00:05:50.585464
640,RAW_IMU,352785470,1100.0,-193,209,962,0,1,0,4528,00:05:52.785470
641,RAW_IMU,352985474,1100.0,-193,209,960,0,1,0,4577,00:05:52.985474
642,RAW_IMU,353185514,1100.0,-193,209,961,0,1,0,4577,00:05:53.185514
643,RAW_IMU,353385494,1100.0,-193,209,962,0,1,0,4577,00:05:53.385494
644,RAW_IMU,353585472,1100.0,-193,209,962,0,1,0,4577,00:05:53.585472
645,RAW_IMU,353785495,1100.0,-194,209,962,0,0,0,4528,00:05:53.785495
646,RAW_IMU,353985463,1100.0,-193,209,961,0,0,0,4528,00:05:53.985463
647,RAW_IMU,354185484,1100.0,-193,209,961,0,1,0,4577,00:05:54.185484
648,RAW_IMU,354385473,1100.0,-193,209,961,0,0,0,4577,00:05:54.385473
649,RAW_IMU,354585467,1100.0,-193,209,962,0,1,0,4528,00:05:54.585467
650,RAW_IMU,354785470,1100.0,-193,209,962,0,1,0,4528,00:05:54.785470
651,RAW_IMU,354985476,1100.0,-193,210,961,0,0,-1,4528,00:05:54.985476
652,RAW_IMU,355185491,1100.0,-193,209,961,0,0,0,4528,00:05:55.185491
653,RAW_IMU,355385475,1100.0,-193,209,961,0,0,0,4577,00:05:55.385475
654,RAW_IMU,355585490,1100.0,-193,209,961,-1,0,0,4528,00:05:55.585490
655,RAW_IMU,355785467,1100.0,-194,209,961,-1,0,0,4577,00:05:55.785467
656,RAW_IMU,355985510,1100.0,-193,209,962,0,1,0,4528,00:05:55.985510
657,RAW_IMU,356185475,1100.0,-193,209,961,-1,2,0,4528,00:05:56.185475
658,RAW_IMU,356385492,1100.0,-193,209,961,0,0,0,4528,00:05:56.385492
659,RAW_IMU,356585478,1100.0,-193,209,962,0,0,0,4528,00:05:56.585478
660,RAW_IMU,358785454,1150.0,-193,209,961,0,0,0,4577,00:05:58.785454
661,RAW_IMU,358985496,1150.0,-193,209,961,0,1,0,4577,00:05:58.985496
662,RAW_IMU,359185506,1150.0,-193,209,962,0,1,0,4577,00:05:59.185506
663,RAW_IMU,359385487,1150.0,-193,209,961,0,1,0,4528,00:05:59.385487
664,RAW_IMU,359585456,1150.0,-193,209,961,0,0,0,4577,00:05:59.585456
665,RAW_IMU,359785477,1150.0,-193,209,961,0,1,0,4577,00:05:59.785477
666,RAW_IMU,359985466,1150.0,-193,209,962,0,0,0,4528,00:05:59.985466
667,RAW_IMU,360185510,1150.0,-193,209,961,-1,0,0,4577,00:06:00.185510
668,RAW_IMU,360385475,1150.0,-193,209,961,0,1,0,4528,00:06:00.385475
669,RAW_IMU,360585465,1150.0,-193,209,961,0,0,0,4577,00:06:00.585465
670,RAW_IMU,360785475,1150.0,-193,209,962,0,1,0,4528,00:06:00.785475
671,RAW_IMU,360985475,1150.0,-193,209,962,0,0,0,4577,00:06:00.985475
672,RAW_IMU,361185519,1150.0,-193,209,961,0,0,0,4528,00:06:01.185519
673,RAW_IMU,361385449,1150.0,-193,209,961,0,0,0,4577,00:06:01.385449
674,RAW_IMU,361585479,1150.0,-193,209,961,0,1,0,4577,00:06:01.585479
675,RAW_IMU,361785460,1150.0,-194,209,961,0,1,-1,4528,00:06:01.785460
676,RAW_IMU,361985454,1150.0,-193,209,962,-1,0,0,4528,00:06:01.985454
677,RAW_IMU,362185506,1150.0,-193,209,961,0,0,0,4577,00:06:02.185506
678,RAW_IMU,362385512,1150.0,-193,209,961,0,1,0,4577,00:06:02.385512
679,RAW_IMU,362585459,1150.0,-194,209,961,0,1,-1,4577,00:06:02.585459
680,RAW_IMU,364785479,1200.0,-193,209,961,0,0,0,4577,00:06:04.785479
681,RAW_IMU,364985467,1200.0,-193,209,961,0,0,0,4577,00:06:04.985467
682,RAW_IMU,365185484,1200.0,-193,209,961,0,0,0,4528,00:06:05.185484
683,RAW_IMU,365385464,1200.0,-193,209,962,-1,1,0,4577,00:06:05.385464
684,RAW_IMU,365585469,1200.0,-193,209,962,0,0,0,4528,00:06:05.585469
685,RAW_IMU,365785475,1200.0,-193,209,961,0,1,0,4577,00:06:05.785475
686,RAW_IMU,365985457,1200.0,-193,209,962,0,0,0,4577,00:06:05.985457
687,RAW_IMU,366185490,1200.0,-193,209,961,0,0,0,4577,00:06:06.185490
688,RAW_IMU,366385491,1200.0,-193,209,961,0,0,0,4528,00:06:06.385491
689,RAW_IMU,366585460,1200.0,-193,209,962,0,1,0,4577,00:06:06.585460
690,RAW_IMU,366785503,1200.0,-193,209,961,0,0,0,4528,00:06:06.785503
691,RAW_IMU,366985463,1200.0,-193,209,962,0,0,0,4528,00:06:06.985463
692,RAW_IMU,367185467,1200.0,-193,209,961,0,1,0,4528,00:06:07.185467
693,RAW_IMU,367385509,1200.0,-194,209,961,0,0,0,4577,00:06:07.385509
694,RAW_IMU,367585464,1200.0,-193,209,962,0,0,0,4528,00:06:07.585464
695,RAW_IMU,367785460,1200.0,-193,209,961,-1,1,0,4577,00:06:07.785460
696,RAW_IMU,367985482,1200.0,-193,209,962,0,1,0,4577,00:06:07.985482
697,RAW_IMU,368185481,1200.0,-193,210,961,0,1,0,4528,00:06:08.185481
698,RAW_IMU,368385463,1200.0,-193,209,961,0,1,0,4577,00:06:08.385463
699,RAW_IMU,368585468,1200.0,-194,210,961,0,0,0,4528,00:06:08.585468
700,RAW_IMU,370785465,1250.0,-193,209,961,0,0,0,4528,00:06:10.785465
701,RAW_IMU,370985493,1250.0,-193,210,962,0,0,0,4577,00:06:10.985493
702,RAW_IMU,371185471,1250.0,-193,209,962,0,1,0,4577,00:06:11.185471
703,RAW_IMU,371385461,1250.0,-193,209,962,0,1,0,4528,00:06:11.385461
704,RAW_IMU,371585499,1250.0,-193,209,962,0,1,0,4528,00:06:11.585499
705,RAW_IMU,371785474,1250.0,-193,209,961,0,0,0,4528,00:06:11.785474
706,RAW_IMU,371985467,1250.0,-194,209,961,0,1,0,4577,00:06:11.985467
707,RAW_IMU,372185510,1250.0,-193,209,961,0,1,0,4577,00:06:12.185510
708,RAW_IMU,372385478,1250.0,-193,209,961,0,0,0,4528,00:06:12.385478
709,RAW_IMU,372585459,1250.0,-193,209,961,-1,0,0,4528,00:06:12.585459
710,RAW_IMU,372785483,1250.0,-194,209,962,0,0,0,4577,00:06:12.785483
711,RAW_IMU,372985473,1250.0,-193,210,962,0,0,0,4577,00:06:12.985473
712,RAW_IMU,373185501,1250.0,-193,209,961,0,0,0,4528,00:06:13.185501
713,RAW_IMU,373385475,1250.0,-193,209,961,0,0,0,4577,00:06:13.385475
714,RAW_IMU,373585471,1250.0,-193,209,962,0,0,0,4577,00:06:13.585471
715,RAW_IMU,373785501,1250.0,-193,209,961,0,0,0,4528,00:06:13.785501
716,RAW_IMU,373985483,1250.0,-193,209,962,0,0,0,4577,00:06:13.985483
717,RAW_IMU,374185519,1250.0,-193,209,962,0,0,0,4577,00:06:14.185519
718,RAW_IMU,374385510,1250.0,-194,209,961,0,0,0,4577,00:06:14.385510
719,RAW_IMU,374585482,1250.0,-193,209,962,0,1,0,4577,00:06:14.585482
720,RAW_IMU,376785494,1300.0,-193,209,962,0,0,0,4528,00:06:16.785494
721,RAW_IMU,376985498,1300.0,-194,209,961,-1,0,0,4577,00:06:16.985498
722,RAW_IMU,377185505,1300.0,-193,209,961,0,0,0,4577,00:06:17.185505
723,RAW_IMU,377385444,1300.0,-193,209,961,0,1,0,4528,00:06:17.385444
724,RAW_IMU,377585488,1300.0,-193,209,962,0,0,0,4577,00:06:17.585488
725,RAW_IMU,377785467,1300.0,-193,209,961,0,0,0,4577,00:06:17.785467
726,RAW_IMU,377985463,1300.0,-193,209,961,0,1,0,4528,00:06:17.985463
727,RAW_IMU,378185533,1300.0,-193,209,961,0,1,0,4528,00:06:18.185533
728,RAW_IMU,378385513,1300.0,-193,209,962,0,0,0,4577,00:06:18.385513
729,RAW_IMU,378585471,1300.0,-193,209,961,0,0,0,4528,00:06:18.585471
730,RAW_IMU,378785514,1300.0,-193,209,961,0,1,1,4577,00:06:18.785514
731,RAW_IMU,378985482,1300.0,-193,209,961,-1,0,0,4528,00:06:18.985482
732,RAW_IMU,379185506,1300.0,-193,209,961,0,1,0,4577,00:06:19.185506
733,RAW_IMU,379385485,1300.0,-193,209,961,0,0,0,4577,00:06:19.385485
734,RAW_IMU,379585487,1300.0,-194,209,961,0,0,0,4528,00:06:19.585487
735,RAW_IMU,379785459,1300.0,-194,209,961,-1,1,0,4577,00:06:19.785459
736,RAW_IMU,379985472,1300.0,-193,209,961,0,1,0,4577,00:06:19.985472
737,RAW_IMU,380185480,1300.0,-193,209,961,0,1,0,4528,00:06:20.185480
738,RAW_IMU,380385500,1300.0,-193,210,961,0,1,0,4577,00:06:20.385500
739,RAW_IMU,380585475,1300.0,-194,209,961,0,0,0,4577,00:06:20.585475
740,RAW_IMU,382785502,1350.0,-193,209,961,0,1,0,4577,00:06:22.785502
741,RAW_IMU,382985451,1350.0,-193,209,961,-1,0,0,4528,00:06:22.985451
742,RAW_IMU,383185483,1350.0,-193,209,961,0,0,0,4528,00:06:23.185483
743,RAW_IMU,383385471,1350.0,-193,209,961,0,0,0,4577,00:06:23.385471
744,RAW_IMU,383585433,1350.0,-193,209,962,0,1,0,4528,00:06:23.585433
745,RAW_IMU,383785459,1350.0,-194,209,961,0,1,0,4577,00:06:23.785459
746,RAW_IMU,383985473,1350.0,-193,209,960,0,0,0,4577,00:06:23.985473
747,RAW_IMU,384185503,1350.0,-194,209,961,0,0,0,4577,00:06:24.185503
748,RAW_IMU,384385506,1350.0,-193,209,961,0,0,0,4577,00:06:24.385506
749,RAW_IMU,384585463,1350.0,-193,209,962,0,0,0,4528,00:06:24.585463
750,RAW_IMU,384785475,1350.0,-193,209,962,0,0,0,4577,00:06:24.785475
751,RAW_IMU,384985466,1350.0,-193,210,961,0,0,0,4528,00:06:24.985466
752,RAW_IMU,385185506,1350.0,-193,209,962,0,0,0,4528,00:06:25.185506
753,RAW_IMU,385385461,1350.0,-193,209,961,0,1,0,4577,00:06:25.385461
754,RAW_IMU,385585462,1350.0,-193,209,962,0,0,0,4577,00:06:25.585462
755,RAW_IMU,385785502,1350.0,-194,209,961,0,1,0,4528,00:06:25.785502
756,RAW_IMU,385985484,1350.0,-193,209,961,0,1,0,4577,00:06:25.985484
757,RAW_IMU,386185492,1350.0,-193,210,962,0,0,0,4577,00:06:26.185492
758,RAW_IMU,386385497,1350.0,-193,209,962,0,0,0,4577,00:06:26.385497
759,RAW_IMU,386585491,1350.0,-193,209,961,-1,1,0,4528,00:06:26.585491
760,RAW_IMU,388785461,1400.0,-193,210,961,0,1,0,4528,00:06:28.785461
761,RAW_IMU,388985465,1400.0,-193,209,961,0,1,0,4528,00:06:28.985465
762,RAW_IMU,389185485,1400.0,-193,209,962,0,1,0,4577,00:06:29.185485
763,RAW_IMU,389385499,1400.0,-193,209,962,0,0,0,4577,00:06:29.385499
764,RAW_IMU,389585466,1400.0,-193,209,961,0,0,0,4577,00:06:29.585466
765,RAW_IMU,389785484,1400.0,-194,209,961,0,0,0,4577,00:06:29.785484
766,RAW_IMU,389985464,1400.0,-193,209,961,0,0,0,4577,00:06:29.985464
767,RAW_IMU,390185521,1400.0,-193,209,961,0,1,0,4577,00:06:30.185521
768,RAW_IMU,390385465,1400.0,-193,209,962,-1,1,0,4528,00:06:30.385465
769,RAW_IMU,390585475,1400.0,-193,209,961,0,0,0,4577,00:06:30.585475
770,RAW_IMU,390785453,1400.0,-193,209,962,0,0,0,4577,00:06:30.785453
771,RAW_IMU,390985480,1400.0,-193,209,961,-1,0,0,4577,00:06:30.985480
772,RAW_IMU,391185508,1400.0,-193,209,961,-1,0,0,4528,00:06:31.185508
773,RAW_IMU,391385497,1400.0,-193,209,961,0,0,0,4528,00:06:31.385497
774,RAW_IMU,391585473,1400.0,-193,209,962,0,0,0,4528,00:06:31.585473
775,RAW_IMU,391785464,1400.0,-193,210,962,0,0,0,4528,00:06:31.785464
776,RAW_IMU,391985500,1400.0,-193,209,962,0,0,0,4577,00:06:31.985500
777,RAW_IMU,392185473,1400.0,-193,209,961,0,0,0,4528,00:06:32.185473
778,RAW_IMU,392385498,1400.0,-194,209,961,0,1,0,4528,00:06:32.385498
779,RAW_IMU,392585506,1400.0,-193,209,962,0,1,0,4577,00:06:32.585506
780,RAW_IMU,394785458,1450.0,-193,209,961,0,0,0,4577,00:06:34.785458
781,RAW_IMU,394985491,1450.0,-193,209,961,0,1,-1,4577,00:06:34.985491
782,RAW_IMU,395185490,1450.0,-193,209,961,0,0,0,4577,00:06:35.185490
783,RAW_IMU,395385478,1450.0,-193,209,961,0,0,0,4528,00:06:35.385478
784,RAW_IMU,395585465,1450.0,-193,209,962,0,0,0,4528,00:06:35.585465
785,RAW_IMU,395785474,1450.0,-194,209,961,0,0,0,4577,00:06:35.785474
786,RAW_IMU,395985512,1450.0,-193,209,961,0,0,0,4577,00:06:35.985512
787,RAW_IMU,396185480,1450.0,-193,209,962,0,2,0,4528,00:06:36.185480
788,RAW_IMU,396385469,1450.0,-193,209,962,0,1,0,4528,00:06:36.385469
789,RAW_IMU,396585514,1450.0,-193,209,962,-1,0,0,4528,00:06:36.585514
790,RAW_IMU,396785478,1450.0,-193,209,962,0,0,0,4577,00:06:36.785478
791,RAW_IMU,396985485,1450.0,-193,209,961,0,1,0,4528,00:06:36.985485
792,RAW_IMU,397185524,1450.0,-193,209,961,0,1,0,4577,00:06:37.185524
793,RAW_IMU,397385478,1450.0,-193,209,961,0,1,0,4577,00:06:37.385478
794,RAW_IMU,397585455,1450.0,-193,209,961,0,1,0,4577,00:06:37.585455
795,RAW_IMU,397785458,1450.0,-193,209,961,0,0,0,4528,00:06:37.785458
796,RAW_IMU,397985463,1450.0,-193,209,962,0,0,0,4528,00:06:37.985463
797,RAW_IMU,398185476,1450.0,-193,209,962,0,0,0,4577,00:06:38.185476
798,RAW_IMU,398385501,1450.0,-193,209,961,0,0,0,4528,00:06:38.385501
799,RAW_IMU,398585473,1450.0,-193,209,961,-1,0,0,4528,00:06:38.585473
800,RAW_IMU,400785463,1500.0,-193,209,961,0,0,0,4577,00:06:40.785463
801,RAW_IMU,400985463,1500.0,-193,209,962,0,0,0,4577,00:06:40.985463
802,RAW_IMU,401185477,1500.0,-194,210,961,0,0,0,4528,00:06:41.185477
803,RAW_IMU,401385486,1500.0,-193,209,961,0,0,0,4528,00:06:41.385486
804,RAW_IMU,401585460,1500.0,-193,209,961,0,0,0,4577,00:06:41.585460
805,RAW_IMU,401785451,1500.0,-193,210,961,0,1,0,4577,00:06:41.785451
806,RAW_IMU,401985481,1500.0,-193,209,961,0,0,0,4577,00:06:41.985481
807,RAW_IMU,402185494,1500.0,-193,209,961,0,0,0,4577,00:06:42.185494
808,RAW_IMU,402385477,1500.0,-194,209,962,0,1,0,4528,00:06:42.385477
809,RAW_IMU,402585464,1500.0,-193,209,961,-1,0,0,4528,00:06:42.585464
810,RAW_IMU,402785457,1500.0,-193,209,961,0,0,0,4528,00:06:42.785457
811,RAW_IMU,402985515,1500.0,-193,209,961,0,1,0,4577,00:06:42.985515
812,RAW_IMU,403185478,1500.0,-193,209,961,0,0,0,4577,00:06:43.185478
813,RAW_IMU,403385502,1500.0,-193,210,962,0,0,0,4528,00:06:43.385502
814,RAW_IMU,403585479,1500.0,-193,208,961,-1,1,0,4577,00:06:43.585479
815,RAW_IMU,403785461,1500.0,-193,209,962,0,1,0,4577,00:06:43.785461
816,RAW_IMU,403985468,1500.0,-193,209,961,0,1,0,4528,00:06:43.985468
817,RAW_IMU,404185506,1500.0,-193,209,961,0,1,0,4528,00:06:44.185506
818,RAW_IMU,404385482,1500.0,-194,209,961,0,0,0,4577,00:06:44.385482
819,RAW_IMU,404585463,1500.0,-193,209,961,0,0,0,4528,00:06:44.585463
820,RAW_IMU,406785461,1550.0,-193,209,961,0,1,0,4577,00:06:46.785461
821,RAW_IMU,406985520,1550.0,-193,209,961,0,0,0,4577,00:06:46.985520
822,RAW_IMU,407185483,1550.0,-193,209,962,0,0,0,4528,00:06:47.185483
823,RAW_IMU,407385508,1550.0,-193,209,961,0,1,0,4577,00:06:47.385508
824,RAW_IMU,407585458,1550.0,-194,210,961,0,0,0,4577,00:06:47.585458
825,RAW_IMU,407785480,1550.0,-193,209,961,0,1,0,4528,00:06:47.785480
826,RAW_IMU,407985509,1550.0,-193,209,961,0,0,0,4577,00:06:47.985509
827,RAW_IMU,408185477,1550.0,-194,209,961,0,0,0,4577,00:06:48.185477
828,RAW_IMU,408385475,1550.0,-193,209,961,0,0,0,4528,00:06:48.385475
829,RAW_IMU,408585484,1550.0,-193,209,961,0,0,0,4528,00:06:48.585484
830,RAW_IMU,408785459,1550.0,-193,209,961,-1,1,0,4577,00:06:48.785459
831,RAW_IMU,408985467,1550.0,-193,209,961,0,0,0,4528,00:06:48.985467
832,RAW_IMU,409185514,1550.0,-194,209,961,0,1,0,4528,00:06:49.185514
833,RAW_IMU,409385473,1550.0,-193,209,961,0,0,0,4528,00:06:49.385473
834,RAW_IMU,409585485,1550.0,-193,209,962,0,1,0,4528,00:06:49.585485
835,RAW_IMU,409785467,1550.0,-193,209,961,0,0,0,4577,00:06:49.785467
836,RAW_IMU,409985477,1550.0,-193,209,961,0,1,0,4528,00:06:49.985477
837,RAW_IMU,410185488,1550.0,-193,209,961,0,1,0,4577,00:06:50.185488
838,RAW_IMU,410385510,1550.0,-193,209,961,0,1,0,4528,00:06:50.385510
839,RAW_IMU,410585468,1550.0,-194,208,961,0,0,0,4528,00:06:50.585468
840,RAW_IMU,412785468,1600.0,-193,209,961,0,1,0,4528,00:06:52.785468
841,RAW_IMU,412985523,1600.0,-193,209,961,0,0,0,4577,00:06:52.985523
842,RAW_IMU,413185490,1600.0,-193,209,961,0,1,0,4577,00:06:53.185490
843,RAW_IMU,413385495,1600.0,-193,209,961,0,1,0,4577,00:06:53.385495
844,RAW_IMU,413585512,1600.0,-193,209,962,0,1,0,4577,00:06:53.585512
845,RAW_IMU,413785469,1600.0,-193,209,961,0,1,0,4528,00:06:53.785469
846,RAW_IMU,413985461,1600.0,-193,209,961,-1,0,0,4528,00:06:53.985461
847,RAW_IMU,414185478,1600.0,-193,209,962,0,0,0,4528,00:06:54.185478
848,RAW_IMU,414385492,1600.0,-193,209,962,0,0,0,4528,00:06:54.385492
849,RAW_IMU,414585511,1600.0,-193,209,962,0,1,0,4577,00:06:54.585511
850,RAW_IMU,414785467,1600.0,-194,209,961,0,1,0,4528,00:06:54.785467
851,RAW_IMU,414985479,1600.0,-193,209,961,0,2,0,4577,00:06:54.985479
852,RAW_IMU,415185485,1600.0,-193,209,961,0,1,0,4577,00:06:55.185485
853,RAW_IMU,415385489,1600.0,-194,209,962,0,0,0,4577,00:06:55.385489
854,RAW_IMU,415585472,1600.0,-193,209,961,0,0,0,4528,00:06:55.585472
855,RAW_IMU,415785453,1600.0,-194,209,961,0,1,0,4577,00:06:55.785453
856,RAW_IMU,415985501,1600.0,-193,209,962,0,1,0,4577,00:06:55.985501
857,RAW_IMU,416185510,1600.0,-193,209,961,0,0,0,4577,00:06:56.185510
858,RAW_IMU,416385492,1600.0,-193,209,961,0,0,0,4528,00:06:56.385492
859,RAW_IMU,416585478,1600.0,-193,209,962,0,0,0,4577,00:06:56.585478
860,RAW_IMU,418785483,1650.0,-194,209,962,-1,0,0,4528,00:06:58.785483
861,RAW_IMU,418985472,1650.0,-193,210,961,0,1,0,4577,00:06:58.985472
862,RAW_IMU,419185525,1650.0,-194,209,961,0,0,0,4577,00:06:59.185525
863,RAW_IMU,419385485,1650.0,-193,209,961,0,1,0,4528,00:06:59.385485
864,RAW_IMU,419585459,1650.0,-194,209,961,0,0,0,4528,00:06:59.585459
865,RAW_IMU,419785465,1650.0,-193,209,961,0,0,0,4577,00:06:59.785465
866,RAW_IMU,419985470,1650.0,-193,209,961,0,0,0,4577,00:06:59.985470
867,RAW_IMU,420185476,1650.0,-193,210,962,0,0,0,4528,00:07:00.185476
868,RAW_IMU,420385565,1650.0,-194,209,962,-1,0,0,4528,00:07:00.385565
869,RAW_IMU,420585445,1650.0,-193,209,962,0,0,0,4577,00:07:00.585445
870,RAW_IMU,420785487,1650.0,-194,209,961,-1,0,0,4577,00:07:00.785487
871,RAW_IMU,420985464,1650.0,-194,209,961,0,1,0,4528,00:07:00.985464
872,RAW_IMU,421185503,1650.0,-193,209,962,0,1,0,4577,00:07:01.185503
873,RAW_IMU,421385482,1650.0,-194,209,962,0,0,0,4528,00:07:01.385482
874,RAW_IMU,421585456,1650.0,-193,209,961,0,1,0,4577,00:07:01.585456
875,RAW_IMU,421785455,1650.0,-194,209,961,0,1,0,4577,00:07:01.785455
876,RAW_IMU,421985472,1650.0,-193,209,961,0,1,0,4577,00:07:01.985472
877,RAW_IMU,422185499,1650.0,-193,209,961,0,0,0,4528,00:07:02.185499
878,RAW_IMU,422385479,1650.0,-193,209,961,-1,0,0,4528,00:07:02.385479
879,RAW_IMU,422585458,1650.0,-193,209,962,0,0,0,4528,00:07:02.585458
880,RAW_IMU,424785468,1700.0,-193,209,961,0,0,0,4577,00:07:04.785468
881,RAW_IMU,424985508,1700.0,-193,209,962,-1,0,0,4577,00:07:04.985508
882,RAW_IMU,425185477,1700.0,-193,209,962,-1,0,0,4528,00:07:05.185477
