,mavpackettype,time_usec,frequency,xacc,yacc,zacc,xgyro,ygyro,zgyro,temperature,time_elapsed
0,RAW_IMU,73851814,0.0,-84,353,944,0,1,0,4480,00:01:13.851814
1,RAW_IMU,73951778,0.0,-83,353,944,0,0,0,4480,00:01:13.951778
2,RAW_IMU,74051752,0.0,-83,353,944,0,0,0,4480,00:01:14.051752
3,RAW_IMU,74151766,0.0,-83,353,943,0,1,0,4480,00:01:14.151766
4,RAW_IMU,74251751,0.0,-83,354,944,0,0,0,4480,00:01:14.251751
5,RAW_IMU,74351805,0.0,-83,354,944,0,0,0,4480,00:01:14.351805
6,RAW_IMU,74451754,0.0,-83,354,944,0,0,0,4480,00:01:14.451754
7,RAW_IMU,74551705,0.0,-83,354,944,-1,0,0,4480,00:01:14.551705
8,RAW_IMU,74651765,0.0,-83,354,944,0,0,0,4480,00:01:14.651765
9,RAW_IMU,74751737,0.0,-83,353,943,0,0,0,4480,00:01:14.751737
10,RAW_IMU,74851813,0.0,-83,354,943,0,1,0,4480,00:01:14.851813
11,RAW_IMU,74951720,0.0,-83,353,943,0,0,0,4480,00:01:14.951720
12,RAW_IMU,75051777,0.0,-83,353,943,0,0,0,4480,00:01:15.051777
13,RAW_IMU,75151752,0.0,-83,354,945,0,0,0,4480,00:01:15.151752
14,RAW_IMU,75251728,0.0,-83,354,944,-1,1,0,4480,00:01:15.251728
15,RAW_IMU,75351815,0.0,-82,353,944,0,0,0,4480,00:01:15.351815
16,RAW_IMU,75451827,0.0,-83,353,944,0,0,0,4480,00:01:15.451827
17,RAW_IMU,75551751,0.0,-83,354,944,0,1,0,4480,00:01:15.551751
18,RAW_IMU,75651731,0.0,-83,354,944,0,0,0,4432,00:01:15.651731
19,RAW_IMU,75751741,0.0,-83,353,944,0,1,0,4480,00:01:15.751741
20,RAW_IMU,75851842,0.0,-83,353,944,0,0,0,4480,00:01:15.851842
21,RAW_IMU,75951782,0.0,-83,354,944,0,0,0,4480,00:01:15.951782
22,RAW_IMU,76051767,0.0,-83,353,944,0,0,0,4480,00:01:16.051767
23,RAW_IMU,76151750,0.0,-82,353,943,0,0,0,4480,00:01:16.151750
24,RAW_IMU,76251748,0.0,-82,354,944,0,0,0,4480,00:01:16.251748
25,RAW_IMU,76351815,0.0,-83,353,944,0,0,0,4480,00:01:16.351815
26,RAW_IMU,76451760,0.0,-83,353,944,0,0,0,4480,00:01:16.451760
27,RAW_IMU,76551754,0.0,-83,353,944,0,0,0,4480,00:01:16.551754
28,RAW_IMU,76651747,0.0,-83,353,944,0,0,0,4480,00:01:16.651747
29,RAW_IMU,76751765,0.0,-83,353,944,0,0,0,4480,00:01:16.751765
30,RAW_IMU,76851826,0.0,-83,353,944,0,0,0,4480,00:01:16.851826
31,RAW_IMU,76951776,0.0,-83,353,944,0,0,0,4480,00:01:16.951776
32,RAW_IMU,77051748,0.0,-83,354,943,0,0,0,4480,00:01:17.051748
33,RAW_IMU,77151741,0.0,-83,354,944,0,1,0,4480,00:01:17.151741
34,RAW_IMU,77251753,0.0,-83,354,944,0,0,0,4528,00:01:17.251753
35,RAW_IMU,77351858,0.0,-83,354,944,0,0,0,4480,00:01:17.351858
36,RAW_IMU,77451765,0.0,-83,353,944,0,0,1,4480,00:01:17.451765
37,RAW_IMU,77551760,0.0,-83,353,944,0,1,0,4480,00:01:17.551760
38,RAW_IMU,77651685,0.0,-83,353,944,0,0,0,4480,00:01:17.651685
39,RAW_IMU,77751753,0.0,-83,353,943,0,0,0,4480,00:01:17.751753
40,RAW_IMU,77851882,0.0,-83,353,944,0,0,0,4480,00:01:17.851882
41,RAW_IMU,77951714,0.0,-83,354,944,-1,0,0,4480,00:01:17.951714
42,RAW_IMU,78051773,0.0,-83,353,944,0,0,0,4480,00:01:18.051773
43,RAW_IMU,78151769,0.0,-82,354,943,0,0,0,4480,00:01:18.151769
44,RAW_IMU,78251752,0.0,-83,354,943,0,0,0,4480,00:01:18.251752
45,RAW_IMU,78351811,0.0,-83,353,944,0,0,0,4480,00:01:18.351811
46,RAW_IMU,78451687,0.0,-83,353,943,0,0,0,4480,00:01:18.451687
47,RAW_IMU,78551752,0.0,-83,354,943,0,0,0,4480,00:01:18.551752
48,RAW_IMU,78651762,0.0,-83,353,943,0,0,0,4480,00:01:18.651762
49,RAW_IMU,78751746,0.0,-83,353,944,-1,0,0,4480,00:01:18.751746
50,RAW_IMU,78851813,0.0,-83,354,943,0,0,0,4480,00:01:18.851813
51,RAW_IMU,78951776,0.0,-83,353,944,0,0,0,4480,00:01:18.951776
52,RAW_IMU,79051752,0.0,-83,354,944,0,0,0,4480,00:01:19.051752
53,RAW_IMU,79151698,0.0,-83,353,943,0,1,0,4480,00:01:19.151698
54,RAW_IMU,79251783,0.0,-83,353,943,0,0,0,4480,00:01:19.251783
55,RAW_IMU,79351815,0.0,-83,353,943,0,0,0,4480,00:01:19.351815
56,RAW_IMU,79451762,0.0,-83,353,943,0,0,0,4480,00:01:19.451762
57,RAW_IMU,79551785,0.0,-83,354,944,0,0,1,4480,00:01:19.551785
58,RAW_IMU,79651757,0.0,-82,353,943,0,0,0,4480,00:01:19.651757
59,RAW_IMU,79751746,0.0,-83,354,943,0,0,0,4480,00:01:19.751746
60,RAW_IMU,79851811,0.0,-83,354,944,0,0,0,4480,00:01:19.851811
61,RAW_IMU,79951764,0.0,-83,354,943,0,1,0,4480,00:01:19.951764
62,RAW_IMU,80051752,0.0,-83,353,944,0,0,0,4480,00:01:20.051752
63,RAW_IMU,80151747,0.0,-83,354,943,0,0,0,4480,00:01:20.151747
64,RAW_IMU,80251691,0.0,-83,353,943,0,0,0,4480,00:01:20.251691
65,RAW_IMU,80351820,0.0,-83,353,943,0,0,0,4480,00:01:20.351820
66,RAW_IMU,80451706,0.0,-83,354,944,0,1,0,4480,00:01:20.451706
67,RAW_IMU,80551751,0.0,-84,353,944,0,0,0,4480,00:01:20.551751
68,RAW_IMU,80651747,0.0,-83,354,943,0,0,0,4480,00:01:20.651747
69,RAW_IMU,80751743,0.0,-83,354,943,0,0,0,4480,00:01:20.751743
70,RAW_IMU,80851810,0.0,-83,354,944,0,0,0,4480,00:01:20.851810
71,RAW_IMU,80951763,0.0,-83,353,943,0,0,0,4480,00:01:20.951763
72,RAW_IMU,81051760,0.0,-83,353,944,0,0,0,4480,00:01:21.051760
73,RAW_IMU,81151763,0.0,-83,354,943,0,1,0,4480,00:01:21.151763
74,RAW_IMU,81251757,0.0,-84,353,943,0,0,0,4480,00:01:21.251757
75,RAW_IMU,81351866,0.0,-83,354,943,0,1,0,4480,00:01:21.351866
76,RAW_IMU,81451756,0.0,-83,353,944,0,0,0,4480,00:01:21.451756
77,RAW_IMU,81551755,0.0,-84,354,943,0,0,0,4480,00:01:21.551755
78,RAW_IMU,81651756,0.0,-83,353,943,0,1,0,4480,00:01:21.651756
79,RAW_IMU,81751773,0.0,-83,353,943,0,0,0,4480,00:01:21.751773
80,RAW_IMU,81851835,0.0,-83,353,943,0,1,0,4480,00:01:21.851835
81,RAW_IMU,81951749,0.0,-83,354,943,0,0,0,4480,00:01:21.951749
82,RAW_IMU,82051754,0.0,-83,353,944,0,0,0,4480,00:01:22.051754
83,RAW_IMU,82151756,0.0,-83,353,943,0,0,0,4480,00:01:22.151756
84,RAW_IMU,82251765,0.0,-83,353,943,0,1,0,4480,00:01:22.251765
85,RAW_IMU,82351824,0.0,-83,353,943,0,0,0,4480,00:01:22.351824
86,RAW_IMU,82451759,0.0,-83,353,944,1,0,0,4480,00:01:22.451759
87,RAW_IMU,82551755,0.0,-83,354,944,0,0,0,4480,00:01:22.551755
88,RAW_IMU,82651728,0.0,-83,354,943,0,0,0,4480,00:01:22.651728
89,RAW_IMU,82751750,0.0,-84,353,943,0,0,0,4480,00:01:22.751750
90,RAW_IMU,82851823,0.0,-83,354,943,0,0,0,4480,00:01:22.851823
91,RAW_IMU,82951745,0.0,-83,353,943,0,0,0,4480,00:01:22.951745
92,RAW_IMU,83051751,0.0,-83,353,943,0,0,0,4480,00:01:23.051751
93,RAW_IMU,83151694,0.0,-83,354,944,0,0,0,4480,00:01:23.151694
94,RAW_IMU,83251750,0.0,-83,353,944,0,1,0,4480,00:01:23.251750
95,RAW_IMU,83351807,0.0,-83,354,944,0,1,0,4480,00:01:23.351807
96,RAW_IMU,83451744,0.0,-83,354,944,0,0,0,4480,00:01:23.451744
97,RAW_IMU,83551628,0.0,-83,353,944,0,0,0,4480,00:01:23.551628
98,RAW_IMU,83651747,0.0,-83,354,944,0,1,0,4480,00:01:23.651747
99,RAW_IMU,83751757,0.0,-83,354,943,0,1,0,4480,00:01:23.751757
100,RAW_IMU,83851823,0.0,-83,353,944,0,1,0,4480,00:01:23.851823
101,RAW_IMU,83951758,0.0,-83,353,944,0,1,0,4480,00:01:23.951758
102,RAW_IMU,84051768,0.0,-83,354,943,0,0,0,4480,00:01:24.051768
103,RAW_IMU,84151687,0.0,-83,353,944,0,0,0,4480,00:01:24.151687
104,RAW_IMU,84251758,0.0,-83,353,944,0,0,0,4480,00:01:24.251758
105,RAW_IMU,84351815,0.0,-83,354,944,0,1,0,4480,00:01:24.351815
106,RAW_IMU,84451773,0.0,-83,353,944,0,0,1,4480,00:01:24.451773
107,RAW_IMU,84551711,0.0,-83,354,944,0,0,0,4480,00:01:24.551711
108,RAW_IMU,84651757,0.0,-83,353,944,-1,0,0,4480,00:01:24.651757
109,RAW_IMU,84751750,0.0,-83,354,944,0,0,0,4480,00:01:24.751750
110,RAW_IMU,84851821,0.0,-83,354,943,0,0,0,4480,00:01:24.851821
111,RAW_IMU,84951785,0.0,-83,354,944,0,0,0,4480,00:01:24.951785
112,RAW_IMU,85051754,0.0,-83,354,944,0,0,0,4480,00:01:25.051754
113,RAW_IMU,85151768,0.0,-83,354,944,0,0,0,4480,00:01:25.151768
114,RAW_IMU,85251770,0.0,-83,353,943,0,0,0,4480,00:01:25.251770
115,RAW_IMU,85351845,0.0,-83,354,944,0,0,0,4480,00:01:25.351845
116,RAW_IMU,85451677,0.0,-83,353,943,0,0,0,4480,00:01:25.451677
117,RAW_IMU,85551758,0.0,-83,353,944,0,0,0,4480,00:01:25.551758
118,RAW_IMU,85651717,0.0,-83,353,944,0,0,0,4480,00:01:25.651717
119,RAW_IMU,85751761,0.0,-83,354,944,-1,0,0,4480,00:01:25.751761
120,RAW_IMU,85851823,0.0,-83,353,944,0,0,0,4480,00:01:25.851823
121,RAW_IMU,85951751,0.0,-83,354,944,0,0,0,4480,00:01:25.951751
122,RAW_IMU,86051719,0.0,-83,353,944,0,0,0,4480,00:01:26.051719
123,RAW_IMU,86151706,0.0,-83,354,943,0,0,0,4480,00:01:26.151706
124,RAW_IMU,86251715,0.0,-83,353,944,0,0,0,4480,00:01:26.251715
125,RAW_IMU,86351834,0.0,-83,354,944,0,0,0,4480,00:01:26.351834
126,RAW_IMU,86451761,0.0,-83,353,943,0,0,0,4480,00:01:26.451761
127,RAW_IMU,86551771,0.0,-83,353,944,0,0,0,4480,00:01:26.551771
128,RAW_IMU,86651753,0.0,-84,354,944,0,0,0,4480,00:01:26.651753
129,RAW_IMU,86751762,0.0,-83,354,944,0,0,0,4480,00:01:26.751762
130,RAW_IMU,86851818,0.0,-83,353,944,0,0,0,4480,00:01:26.851818
131,RAW_IMU,86951763,0.0,-83,353,944,0,0,1,4480,00:01:26.951763
132,RAW_IMU,87051758,0.0,-84,354,943,0,0,0,4480,00:01:27.051758
133,RAW_IMU,87151749,0.0,-83,354,944,0,1,0,4480,00:01:27.151749
134,RAW_IMU,87251762,0.0,-83,354,944,0,0,0,4480,00:01:27.251762
135,RAW_IMU,87351821,0.0,-83,354,944,0,1,0,4480,00:01:27.351821
136,RAW_IMU,87451750,0.0,-83,354,944,0,0,0,4480,00:01:27.451750
137,RAW_IMU,87551756,0.0,-82,353,943,0,0,0,4480,00:01:27.551756
138,RAW_IMU,87651725,0.0,-83,354,944,0,0,0,4480,00:01:27.651725
139,RAW_IMU,87751709,0.0,-83,353,944,0,0,0,4480,00:01:27.751709
140,RAW_IMU,87851817,0.0,-83,353,943,0,0,0,4480,00:01:27.851817
141,RAW_IMU,87951751,0.0,-83,353,943,0,1,0,4480,00:01:27.951751
142,RAW_IMU,88051774,0.0,-83,353,944,0,1,0,4480,00:01:28.051774
143,RAW_IMU,88151689,0.0,-83,354,944,0,1,0,4480,00:01:28.151689
144,RAW_IMU,88251766,0.0,-83,353,945,-1,0,0,4480,00:01:28.251766
145,RAW_IMU,88351816,0.0,-84,353,944,-1,1,0,4480,00:01:28.351816
146,RAW_IMU,88451780,0.0,-84,354,943,0,1,0,4480,00:01:28.451780
147,RAW_IMU,88551769,0.0,-81,353,943,-1,2,0,4480,00:01:28.551769
148,RAW_IMU,88651696,0.0,-81,353,946,1,0,0,4480,00:01:28.651696
149,RAW_IMU,88751753,0.0,-83,352,945,0,-1,1,4480,00:01:28.751753
150,RAW_IMU,88851824,0.0,-82,353,944,0,0,0,4480,00:01:28.851824
151,RAW_IMU,88951672,0.0,-83,352,944,0,2,0,4480,00:01:28.951672
152,RAW_IMU,89051747,0.0,-82,354,943,-1,1,-1,4480,00:01:29.051747
153,RAW_IMU,89151750,0.0,-82,353,944,1,0,0,4480,00:01:29.151750
154,RAW_IMU,89251730,0.0,-83,353,944,0,1,0,4480,00:01:29.251730
155,RAW_IMU,89351844,0.0,-83,354,943,0,1,0,4480,00:01:29.351844
156,RAW_IMU,89451706,0.0,-83,353,944,0,0,0,4480,00:01:29.451706
157,RAW_IMU,89551708,0.0,-83,354,943,0,1,0,4480,00:01:29.551708
158,RAW_IMU,89651718,0.0,-83,353,944,0,1,0,4480,00:01:29.651718
159,RAW_IMU,89751755,0.0,-83,354,943,0,0,0,4480,00:01:29.751755
160,RAW_IMU,89851830,0.0,-83,354,944,0,0,0,4480,00:01:29.851830
161,RAW_IMU,89951758,0.0,-83,353,944,0,1,0,4480,00:01:29.951758
162,RAW_IMU,90051757,0.0,-83,354,944,0,0,0,4480,00:01:30.051757
163,RAW_IMU,90151771,0.0,-83,353,944,0,1,0,4480,00:01:30.151771
164,RAW_IMU,90251757,0.0,-83,354,943,0,1,0,4480,00:01:30.251757
165,RAW_IMU,90351831,0.0,-83,353,943,0,0,0,4480,00:01:30.351831
166,RAW_IMU,90451759,0.0,-84,353,944,0,0,0,4480,00:01:30.451759
167,RAW_IMU,90551729,0.0,-83,354,943,0,0,0,4480,00:01:30.551729
168,RAW_IMU,90651712,0.0,-83,354,943,0,0,0,4480,00:01:30.651712
169,RAW_IMU,90751748,0.0,-83,353,943,0,0,0,4480,00:01:30.751748
170,RAW_IMU,90851811,0.0,-83,353,943,0,0,0,4480,00:01:30.851811
171,RAW_IMU,90951750,0.0,-83,353,944,0,0,0,4480,00:01:30.951750
172,RAW_IMU,91051681,0.0,-83,353,944,0,1,0,4480,00:01:31.051681
173,RAW_IMU,91151757,0.0,-83,354,944,-1,0,0,4480,00:01:31.151757
174,RAW_IMU,91251745,0.0,-83,354,944,0,0,0,4480,00:01:31.251745
175,RAW_IMU,91351887,0.0,-83,354,944,0,0,0,4480,00:01:31.351887
176,RAW_IMU,91451722,0.0,-83,353,943,-1,1,0,4480,00:01:31.451722
177,RAW_IMU,91551758,0.0,-83,353,943,0,1,0,4480,00:01:31.551758
178,RAW_IMU,91651796,0.0,-84,354,944,0,0,0,4480,00:01:31.651796
179,RAW_IMU,91751737,0.0,-83,353,944,0,0,0,4480,00:01:31.751737
180,RAW_IMU,91851824,0.0,-83,353,943,0,0,0,4480,00:01:31.851824
181,RAW_IMU,91951756,0.0,-84,353,944,0,1,0,4480,00:01:31.951756
182,RAW_IMU,92051693,0.0,-83,354,943,0,1,0,4480,00:01:32.051693
183,RAW_IMU,92151768,0.0,-83,354,943,0,1,0,4480,00:01:32.151768
184,RAW_IMU,92251800,0.0,-83,353,944,0,1,0,4480,00:01:32.251800
185,RAW_IMU,92351808,0.0,-83,353,943,0,0,0,4480,00:01:32.351808
186,RAW_IMU,92451762,0.0,-83,353,943,0,0,0,4480,00:01:32.451762
187,RAW_IMU,92551757,0.0,-83,353,943,0,0,0,4480,00:01:32.551757
188,RAW_IMU,92651749,0.0,-83,354,943,0,1,0,4480,00:01:32.651749
189,RAW_IMU,92751746,0.0,-83,354,944,0,0,0,4480,00:01:32.751746
190,RAW_IMU,92851858,0.0,-83,353,943,0,1,0,4480,00:01:32.851858
191,RAW_IMU,92951714,0.0,-82,353,944,0,1,0,4480,00:01:32.951714
192,RAW_IMU,93051782,0.0,-83,353,943,0,0,1,4480,00:01:33.051782
193,RAW_IMU,93151751,0.0,-83,353,944,0,1,0,4480,00:01:33.151751
194,RAW_IMU,93251755,0.0,-83,353,944,0,0,0,4480,00:01:33.251755
195,RAW_IMU,93351817,0.0,-83,354,944,0,1,0,4480,00:01:33.351817
196,RAW_IMU,93451773,0.0,-83,354,944,0,1,0,4528,00:01:33.451773
197,RAW_IMU,93551685,0.0,-83,354,944,0,0,0,4480,00:01:33.551685
198,RAW_IMU,93651784,0.0,-83,354,944,0,0,0,4480,00:01:33.651784
199,RAW_IMU,93751753,0.0,-83,354,943,0,1,0,4480,00:01:33.751753
200,RAW_IMU,93851822,0.0,-83,353,944,0,1,0,4480,00:01:33.851822
201,RAW_IMU,93951747,0.0,-83,354,944,0,0,0,4480,00:01:33.951747
202,RAW_IMU,94051775,0.0,-83,353,944,0,0,0,4480,00:01:34.051775
203,RAW_IMU,94151820,0.0,-83,354,944,0,0,0,4480,00:01:34.151820
204,RAW_IMU,94251745,0.0,-83,354,944,0,0,0,4480,00:01:34.251745
205,RAW_IMU,94351824,0.0,-84,353,943,-1,0,0,4480,00:01:34.351824
206,RAW_IMU,94451630,0.0,-83,353,943,0,0,0,4480,00:01:34.451630
207,RAW_IMU,94551749,0.0,-83,354,944,0,0,0,4480,00:01:34.551749
208,RAW_IMU,94651624,0.0,-83,353,943,0,0,0,4480,00:01:34.651624
209,RAW_IMU,94751739,0.0,-83,353,944,0,0,0,4480,00:01:34.751739
210,RAW_IMU,94851832,0.0,-83,353,944,0,0,0,4480,00:01:34.851832
211,RAW_IMU,94951752,0.0,-83,353,944,0,0,0,4480,00:01:34.951752
212,RAW_IMU,95051747,0.0,-83,354,944,0,0,0,4480,00:01:35.051747
213,RAW_IMU,95151758,0.0,-83,353,943,0,1,0,4480,00:01:35.151758
214,RAW_IMU,95251773,0.0,-83,353,944,0,0,0,4480,00:01:35.251773
215,RAW_IMU,95351830,0.0,-83,353,944,0,1,0,4480,00:01:35.351830
216,RAW_IMU,95451677,0.0,-83,353,944,0,0,0,4480,00:01:35.451677
217,RAW_IMU,95551793,0.0,-83,353,944,0,0,0,4480,00:01:35.551793
218,RAW_IMU,95651732,0.0,-83,354,944,0,1,0,4480,00:01:35.651732
219,RAW_IMU,95751757,0.0,-83,353,944,0,0,0,4480,00:01:35.751757
220,RAW_IMU,95851807,0.0,-83,354,944,0,0,0,4480,00:01:35.851807
221,RAW_IMU,95951749,0.0,-83,353,943,0,0,0,4480,00:01:35.951749
222,RAW_IMU,96051688,0.0,-83,354,944,-1,0,0,4480,00:01:36.051688
223,RAW_IMU,96151770,0.0,-83,354,943,0,0,0,4480,00:01:36.151770
224,RAW_IMU,96251756,0.0,-83,353,943,0,1,0,4480,00:01:36.251756
225,RAW_IMU,96351820,0.0,-83,353,943,0,0,0,4480,00:01:36.351820
226,RAW_IMU,96451774,0.0,-83,354,943,0,0,0,4480,00:01:36.451774
227,RAW_IMU,96551763,0.0,-83,354,943,0,0,0,4480,00:01:36.551763
228,RAW_IMU,96651788,0.0,-83,353,943,0,1,-1,4480,00:01:36.651788
229,RAW_IMU,96751754,0.0,-83,354,943,0,0,0,4480,00:01:36.751754
230,RAW_IMU,96851859,0.0,-83,353,943,0,0,0,4480,00:01:36.851859
231,RAW_IMU,96951679,0.0,-83,353,943,0,0,0,4480,00:01:36.951679
232,RAW_IMU,97051755,0.0,-83,354,943,0,0,0,4480,00:01:37.051755
233,RAW_IMU,97151748,0.0,-83,354,943,0,0,0,4480,00:01:37.151748
234,RAW_IMU,97251752,0.0,-83,353,943,0,0,0,4480,00:01:37.251752
235,RAW_IMU,97351787,0.0,-83,353,943,0,1,0,4480,00:01:37.351787
236,RAW_IMU,97451746,0.0,-83,353,943,0,0,0,4480,00:01:37.451746
237,RAW_IMU,97551763,0.0,-83,353,943,0,0,0,4480,00:01:37.551763
238,RAW_IMU,97651752,0.0,-83,354,943,0,1,0,4480,00:01:37.651752
239,RAW_IMU,97751764,0.0,-83,353,944,0,1,0,4480,00:01:37.751764
240,RAW_IMU,97851842,0.0,-83,354,943,0,1,0,4480,00:01:37.851842
241,RAW_IMU,97951753,0.0,-83,353,943,0,0,0,4432,00:01:37.951753
242,RAW_IMU,98051759,0.0,-83,354,943,0,1,0,4480,00:01:38.051759
243,RAW_IMU,98151760,0.0,-83,354,943,0,0,0,4480,00:01:38.151760
244,RAW_IMU,98251766,0.0,-83,354,943,0,1,0,4480,00:01:38.251766
245,RAW_IMU,98351824,0.0,-83,353,943,0,1,0,4480,00:01:38.351824
246,RAW_IMU,98451792,0.0,-83,354,944,0,1,0,4480,00:01:38.451792
247,RAW_IMU,98551770,0.0,-83,353,943,0,0,0,4480,00:01:38.551770
248,RAW_IMU,98651742,0.0,-83,353,943,0,1,0,4480,00:01:38.651742
249,RAW_IMU,98751744,0.0,-83,353,943,0,0,0,4480,00:01:38.751744
250,RAW_IMU,98851839,0.0,-83,354,943,0,0,0,4480,00:01:38.851839
251,RAW_IMU,98951757,0.0,-83,354,943,0,0,0,4480,00:01:38.951757
252,RAW_IMU,99051739,0.0,-83,353,943,0,1,0,4480,00:01:39.051739
253,RAW_IMU,99151771,0.0,-83,353,944,0,0,0,4480,00:01:39.151771
254,RAW_IMU,99251757,0.0,-83,353,943,0,0,0,4480,00:01:39.251757
255,RAW_IMU,99351844,0.0,-83,354,943,0,0,0,4480,00:01:39.351844
256,RAW_IMU,99451760,0.0,-83,354,943,0,0,0,4480,00:01:39.451760
257,RAW_IMU,99551760,0.0,-83,354,943,0,0,0,4480,00:01:39.551760
258,RAW_IMU,99651630,0.0,-83,354,944,0,0,0,4480,00:01:39.651630
259,RAW_IMU,99751729,0.0,-83,353,943,0,0,0,4480,00:01:39.751729
260,RAW_IMU,99851830,0.0,-83,353,943,0,0,0,4480,00:01:39.851830
261,RAW_IMU,99951770,0.0,-83,353,943,0,1,0,4480,00:01:39.951770
262,RAW_IMU,100051759,0.0,-83,353,944,0,1,0,4480,00:01:40.051759
263,RAW_IMU,100151754,0.0,-83,353,944,0,1,0,4480,00:01:40.151754
264,RAW_IMU,100251762,0.0,-83,354,944,0,1,0,4480,00:01:40.251762
265,RAW_IMU,100351813,0.0,-83,353,943,0,0,0,4480,00:01:40.351813
266,RAW_IMU,100451747,0.0,-83,354,943,0,0,0,4480,00:01:40.451747
267,RAW_IMU,100551757,0.0,-83,353,943,0,1,0,4480,00:01:40.551757
268,RAW_IMU,100651746,0.0,-83,353,943,0,0,0,4480,00:01:40.651746
269,RAW_IMU,100751775,0.0,-83,354,944,0,0,0,4480,00:01:40.751775
270,RAW_IMU,100851813,0.0,-83,353,944,0,1,0,4528,00:01:40.851813
271,RAW_IMU,100951734,0.0,-83,353,944,0,1,0,4480,00:01:40.951734
272,RAW_IMU,101051700,0.0,-83,354,944,0,0,0,4480,00:01:41.051700
273,RAW_IMU,101151710,0.0,-83,354,944,0,0,0,4480,00:01:41.151710
274,RAW_IMU,101251760,0.0,-83,353,944,0,0,0,4480,00:01:41.251760
275,RAW_IMU,101351819,0.0,-83,354,944,0,0,0,4480,00:01:41.351819
276,RAW_IMU,101451752,0.0,-83,353,944,0,0,0,4480,00:01:41.451752
277,RAW_IMU,101551757,0.0,-83,353,943,0,0,0,4480,00:01:41.551757
278,RAW_IMU,101651757,0.0,-83,353,944,0,1,0,4480,00:01:41.651757
279,RAW_IMU,101751758,0.0,-83,353,944,0,1,0,4480,00:01:41.751758
280,RAW_IMU,101851820,0.0,-83,353,944,0,0,0,4480,00:01:41.851820
281,RAW_IMU,101951750,0.0,-83,353,943,-1,1,0,4480,00:01:41.951750
282,RAW_IMU,102051738,0.0,-83,354,944,-1,0,0,4480,00:01:42.051738
283,RAW_IMU,102151705,0.0,-83,353,944,-1,0,0,4480,00:01:42.151705
284,RAW_IMU,102251688,0.0,-83,353,944,0,0,0,4480,00:01:42.251688
285,RAW_IMU,102351811,0.0,-83,353,944,0,0,0,4480,00:01:42.351811
286,RAW_IMU,102451752,0.0,-83,354,944,0,0,0,4480,00:01:42.451752
287,RAW_IMU,102551680,0.0,-83,354,943,1,0,0,4480,00:01:42.551680
288,RAW_IMU,102651747,0.0,-83,353,944,1,0,0,4480,00:01:42.651747
289,RAW_IMU,102751759,0.0,-84,353,944,0,0,0,4480,00:01:42.751759
290,RAW_IMU,102851820,0.0,-83,354,944,0,0,0,4480,00:01:42.851820
291,RAW_IMU,102951762,0.0,-83,354,943,0,0,0,4480,00:01:42.951762
292,RAW_IMU,103051763,0.0,-83,353,943,0,0,0,4480,00:01:43.051763
293,RAW_IMU,103151725,0.0,-83,353,944,0,0,0,4480,00:01:43.151725
294,RAW_IMU,103251753,0.0,-83,354,943,0,0,0,4480,00:01:43.251753
295,RAW_IMU,103351809,0.0,-83,353,943,0,1,0,4480,00:01:43.351809
296,RAW_IMU,103451749,0.0,-84,354,943,0,0,0,4480,00:01:43.451749
297,RAW_IMU,103551752,0.0,-83,353,943,0,0,0,4480,00:01:43.551752
298,RAW_IMU,103651763,0.0,-83,354,942,0,0,0,4480,00:01:43.651763
299,RAW_IMU,103751743,0.0,-83,354,944,0,0,0,4480,00:01:43.751743
300,RAW_IMU,103851848,0.0,-83,354,943,0,1,0,4480,00:01:43.851848
301,RAW_IMU,103951763,0.0,-83,354,943,0,0,0,4480,00:01:43.951763
302,RAW_IMU,104051758,0.0,-83,353,943,0,0,0,4480,00:01:44.051758
303,RAW_IMU,104151762,0.0,-83,353,944,0,0,0,4480,00:01:44.151762
304,RAW_IMU,104251762,0.0,-83,354,943,0,0,0,4480,00:01:44.251762
305,RAW_IMU,104351861,0.0,-83,353,943,0,0,0,4480,00:01:44.351861
306,RAW_IMU,104451748,0.0,-83,353,943,0,0,0,4480,00:01:44.451748
307,RAW_IMU,104551738,0.0,-83,354,943,0,0,0,4480,00:01:44.551738
308,RAW_IMU,104651681,0.0,-83,353,943,0,0,0,4480,00:01:44.651681
309,RAW_IMU,104751755,0.0,-83,353,943,0,0,0,4480,00:01:44.751755
310,RAW_IMU,104851825,0.0,-83,354,943,0,0,0,4480,00:01:44.851825
311,RAW_IMU,104951749,0.0,-83,353,943,0,0,0,4480,00:01:44.951749
312,RAW_IMU,105051730,0.0,-83,353,943,0,0,0,4480,00:01:45.051730
313,RAW_IMU,105151756,0.0,-83,354,943,0,0,0,4480,00:01:45.151756
314,RAW_IMU,105251747,0.0,-83,353,944,-1,0,0,4480,00:01:45.251747
315,RAW_IMU,105351837,0.0,-83,354,944,0,0,0,4480,00:01:45.351837
316,RAW_IMU,105451683,0.0,-83,354,944,0,0,0,4480,00:01:45.451683
317,RAW_IMU,105551764,0.0,-84,354,943,0,0,0,4480,00:01:45.551764
318,RAW_IMU,105651770,0.0,-83,353,943,0,0,0,4480,00:01:45.651770
319,RAW_IMU,105751767,0.0,-83,354,943,0,0,0,4480,00:01:45.751767
320,RAW_IMU,105851779,0.0,-82,354,943,0,0,0,4480,00:01:45.851779
321,RAW_IMU,105951750,0.0,-83,353,944,0,0,0,4480,00:01:45.951750
322,RAW_IMU,106051765,0.0,-83,354,944,0,1,0,4480,00:01:46.051765
323,RAW_IMU,106151758,0.0,-83,353,943,0,0,0,4480,00:01:46.151758
324,RAW_IMU,106251762,0.0,-83,354,943,0,0,0,4480,00:01:46.251762
325,RAW_IMU,106351816,0.0,-83,354,943,0,0,0,4480,00:01:46.351816
326,RAW_IMU,106451756,0.0,-82,354,944,0,0,0,4480,00:01:46.451756
327,RAW_IMU,106551763,0.0,-83,354,944,0,0,0,4480,00:01:46.551763
328,RAW_IMU,106651749,0.0,-82,353,943,0,0,0,4480,00:01:46.651749
329,RAW_IMU,106751747,0.0,-83,353,943,0,0,0,4432,00:01:46.751747
330,RAW_IMU,106851822,0.0,-83,354,943,-1,0,0,4480,00:01:46.851822
331,RAW_IMU,106951762,0.0,-83,354,944,0,0,0,4480,00:01:46.951762
332,RAW_IMU,107051776,0.0,-83,354,944,0,0,0,4480,00:01:47.051776
333,RAW_IMU,107151713,0.0,-83,354,943,0,0,0,4480,00:01:47.151713
334,RAW_IMU,107251767,0.0,-83,353,943,0,0,1,4480,00:01:47.251767
335,RAW_IMU,107351821,0.0,-83,353,943,0,0,0,4480,00:01:47.351821
336,RAW_IMU,107451767,0.0,-83,353,943,0,0,0,4480,00:01:47.451767
337,RAW_IMU,107551765,0.0,-83,353,943,0,0,0,4480,00:01:47.551765
338,RAW_IMU,107651757,0.0,-83,354,943,0,0,0,4480,00:01:47.651757
339,RAW_IMU,107751758,0.0,-83,354,944,0,0,0,4480,00:01:47.751758
340,RAW_IMU,107851813,0.0,-83,354,944,0,0,0,4480,00:01:47.851813
341,RAW_IMU,107951749,0.0,-83,354,944,0,0,0,4480,00:01:47.951749
342,RAW_IMU,108051687,0.0,-83,354,944,0,0,0,4480,00:01:48.051687
343,RAW_IMU,108151754,0.0,-84,353,943,0,0,0,4480,00:01:48.151754
344,RAW_IMU,108251749,0.0,-83,353,943,0,0,0,4480,00:01:48.251749
345,RAW_IMU,108351830,0.0,-84,354,943,0,0,0,4432,00:01:48.351830
346,RAW_IMU,108451751,0.0,-83,353,943,0,1,0,4480,00:01:48.451751
347,RAW_IMU,108551755,0.0,-83,354,943,0,0,0,4480,00:01:48.551755
348,RAW_IMU,108651678,0.0,-83,354,943,0,0,0,4480,00:01:48.651678
349,RAW_IMU,108751753,0.0,-83,353,943,0,0,0,4480,00:01:48.751753
350,RAW_IMU,108851825,0.0,-83,354,943,0,1,0,4480,00:01:48.851825
351,RAW_IMU,108951757,0.0,-83,353,943,0,0,0,4480,00:01:48.951757
352,RAW_IMU,109051690,0.0,-83,354,943,0,0,0,4480,00:01:49.051690
353,RAW_IMU,109151703,0.0,-83,354,943,0,1,0,4480,00:01:49.151703
354,RAW_IMU,109251782,0.0,-83,353,943,0,0,0,4480,00:01:49.251782
355,RAW_IMU,109351813,0.0,-82,353,944,0,0,0,4480,00:01:49.351813
356,RAW_IMU,109451752,0.0,-83,353,944,0,0,0,4480,00:01:49.451752
357,RAW_IMU,109551773,0.0,-83,353,943,0,0,0,4480,00:01:49.551773
358,RAW_IMU,109651756,0.0,-83,353,944,0,1,0,4480,00:01:49.651756
359,RAW_IMU,109751762,0.0,-83,354,944,0,0,0,4480,00:01:49.751762
360,RAW_IMU,109851820,0.0,-83,353,944,0,0,0,4480,00:01:49.851820
361,RAW_IMU,109951760,0.0,-83,353,944,0,0,0,4480,00:01:49.951760
362,RAW_IMU,110051768,0.0,-83,354,944,0,0,0,4480,00:01:50.051768
363,RAW_IMU,110151741,0.0,-83,353,944,0,1,0,4480,00:01:50.151741
364,RAW_IMU,110251720,0.0,-83,353,944,0,0,0,4480,00:01:50.251720
365,RAW_IMU,110351816,0.0,-83,353,944,0,1,0,4480,00:01:50.351816
366,RAW_IMU,110451697,0.0,-83,353,944,0,2,0,4480,00:01:50.451697
367,RAW_IMU,110551740,0.0,-83,353,944,0,1,0,4480,00:01:50.551740
368,RAW_IMU,110651767,0.0,-83,353,944,0,0,0,4480,00:01:50.651767
369,RAW_IMU,110751749,0.0,-83,354,944,0,0,0,4480,00:01:50.751749
370,RAW_IMU,110851836,0.0,-83,353,944,0,0,0,4480,00:01:50.851836
371,RAW_IMU,110951765,0.0,-83,354,943,0,0,0,4480,00:01:50.951765
372,RAW_IMU,111051714,0.0,-83,353,944,0,0,0,4480,00:01:51.051714
373,RAW_IMU,111151701,0.0,-83,353,943,0,0,0,4480,00:01:51.151701
374,RAW_IMU,111251765,0.0,-83,354,944,0,0,0,4480,00:01:51.251765
375,RAW_IMU,111351827,0.0,-83,354,943,0,0,0,4480,00:01:51.351827
376,RAW_IMU,111451757,0.0,-83,353,944,0,0,0,4480,00:01:51.451757
377,RAW_IMU,111551758,0.0,-83,353,943,0,1,0,4480,00:01:51.551758
378,RAW_IMU,111651756,0.0,-83,354,943,0,0,0,4480,00:01:51.651756
379,RAW_IMU,111751756,0.0,-83,354,944,0,0,0,4480,00:01:51.751756
380,RAW_IMU,111851824,0.0,-83,354,944,0,0,0,4480,00:01:51.851824
381,RAW_IMU,111951766,0.0,-84,353,943,0,1,0,4480,00:01:51.951766
382,RAW_IMU,112051689,0.0,-83,353,943,0,0,0,4480,00:01:52.051689
383,RAW_IMU,112151733,0.0,-83,354,943,0,0,0,4480,00:01:52.151733
384,RAW_IMU,112251751,0.0,-83,354,944,0,0,0,4480,00:01:52.251751
385,RAW_IMU,112351809,0.0,-83,354,944,0,0,0,4480,00:01:52.351809
386,RAW_IMU,112451744,0.0,-83,353,944,0,1,0,4480,00:01:52.451744
387,RAW_IMU,112551764,0.0,-83,354,944,0,0,0,4480,00:01:52.551764
388,RAW_IMU,112651720,0.0,-83,354,944,0,0,0,4480,00:01:52.651720
389,RAW_IMU,112751753,0.0,-83,354,943,0,0,0,4480,00:01:52.751753
390,RAW_IMU,112851853,0.0,-83,354,944,0,0,0,4480,00:01:52.851853
391,RAW_IMU,112951750,0.0,-83,354,944,0,1,0,4432,00:01:52.951750
392,RAW_IMU,113051750,0.0,-83,354,943,0,0,0,4480,00:01:53.051750
393,RAW_IMU,113151764,0.0,-83,354,943,0,0,0,4480,00:01:53.151764
394,RAW_IMU,113251713,0.0,-83,354,944,0,1,0,4480,00:01:53.251713
395,RAW_IMU,113351870,0.0,-83,354,944,0,0,0,4480,00:01:53.351870
396,RAW_IMU,113451741,0.0,-83,354,944,0,1,0,4480,00:01:53.451741
397,RAW_IMU,113551783,0.0,-83,353,943,0,0,0,4480,00:01:53.551783
398,RAW_IMU,113651769,0.0,-83,354,944,0,0,0,4432,00:01:53.651769
399,RAW_IMU,113751736,0.0,-83,354,944,0,1,0,4480,00:01:53.751736
400,RAW_IMU,114351836,6000.0,-83,353,944,0,0,0,4480,00:01:54.351836
401,RAW_IMU,114451727,6000.0,-83,354,944,0,0,0,4480,00:01:54.451727
402,RAW_IMU,114551629,6000.0,-83,353,944,0,1,0,4480,00:01:54.551629
403,RAW_IMU,114651710,6000.0,-83,354,944,0,1,0,4480,00:01:54.651710
404,RAW_IMU,114751716,6000.0,-83,354,944,0,0,0,4480,00:01:54.751716
405,RAW_IMU,114851860,6000.0,-83,353,944,0,1,0,4480,00:01:54.851860
406,RAW_IMU,114951773,6000.0,-83,354,944,0,0,0,4480,00:01:54.951773
407,RAW_IMU,115051759,6000.0,-83,354,944,0,0,0,4480,00:01:55.051759
408,RAW_IMU,115151744,6000.0,-83,354,944,0,1,0,4480,00:01:55.151744
409,RAW_IMU,115251785,6000.0,-83,354,944,0,1,0,4480,00:01:55.251785
410,RAW_IMU,115351816,6000.0,-83,353,943,0,1,0,4480,00:01:55.351816
411,RAW_IMU,115451751,6000.0,-83,353,944,0,0,0,4480,00:01:55.451751
412,RAW_IMU,115551775,6000.0,-83,354,944,0,1,0,4480,00:01:55.551775
413,RAW_IMU,115651759,6000.0,-83,354,944,0,1,0,4480,00:01:55.651759
414,RAW_IMU,115751751,6000.0,-84,354,944,0,1,0,4480,00:01:55.751751
415,RAW_IMU,115851818,6000.0,-83,353,943,0,0,0,4480,00:01:55.851818
416,RAW_IMU,115951755,6000.0,-83,353,944,0,0,0,4480,00:01:55.951755
417,RAW_IMU,116051759,6000.0,-83,353,943,0,0,0,4480,00:01:56.051759
418,RAW_IMU,116151753,6000.0,-83,354,943,0,0,0,4480,00:01:56.151753
419,RAW_IMU,116251755,6000.0,-83,353,943,0,0,0,4480,00:01:56.251755
420,RAW_IMU,116351817,6000.0,-83,353,944,0,0,0,4480,00:01:56.351817
421,RAW_IMU,116451783,6000.0,-83,353,944,0,0,0,4480,00:01:56.451783
422,RAW_IMU,116551680,6000.0,-83,354,944,0,1,0,4480,00:01:56.551680
423,RAW_IMU,116651747,6000.0,-83,354,944,0,0,0,4480,00:01:56.651747
424,RAW_IMU,116751761,6000.0,-83,353,943,0,0,0,4480,00:01:56.751761
425,RAW_IMU,116851819,6000.0,-83,354,944,0,0,0,4480,00:01:56.851819
426,RAW_IMU,116951749,6000.0,-83,353,944,0,0,0,4480,00:01:56.951749
427,RAW_IMU,117051747,6000.0,-83,353,943,0,1,0,4528,00:01:57.051747
428,RAW_IMU,117151774,6000.0,-83,354,944,0,0,0,4480,00:01:57.151774
429,RAW_IMU,117251677,6000.0,-83,353,943,0,0,0,4480,00:01:57.251677
430,RAW_IMU,117351827,6000.0,-83,354,943,0,0,0,4480,00:01:57.351827
431,RAW_IMU,117451747,6000.0,-83,354,944,0,1,0,4480,00:01:57.451747
432,RAW_IMU,117551759,6000.0,-83,354,943,0,1,0,4480,00:01:57.551759
433,RAW_IMU,117651789,6000.0,-83,353,944,0,0,0,4480,00:01:57.651789
434,RAW_IMU,117751750,6000.0,-83,353,943,0,0,0,4480,00:01:57.751750
435,RAW_IMU,117851825,6000.0,-83,353,944,0,1,0,4480,00:01:57.851825
436,RAW_IMU,117951750,6000.0,-83,354,944,0,0,0,4480,00:01:57.951750
437,RAW_IMU,118051759,6000.0,-83,354,943,0,0,0,4480,00:01:58.051759
438,RAW_IMU,118151755,6000.0,-83,354,944,0,0,-1,4480,00:01:58.151755
439,RAW_IMU,118251773,6000.0,-83,353,943,0,0,0,4480,00:01:58.251773
440,RAW_IMU,118351808,6000.0,-83,353,943,0,0,0,4480,00:01:58.351808
441,RAW_IMU,118451760,6000.0,-82,354,943,0,0,0,4480,00:01:58.451760
442,RAW_IMU,118551754,6000.0,-83,353,944,0,0,0,4480,00:01:58.551754
443,RAW_IMU,118651759,6000.0,-83,353,943,0,0,0,4480,00:01:58.651759
444,RAW_IMU,118751745,6000.0,-83,354,943,0,1,0,4480,00:01:58.751745
445,RAW_IMU,118851832,6000.0,-83,354,944,0,0,0,4480,00:01:58.851832
446,RAW_IMU,118951750,6000.0,-83,353,943,0,0,0,4480,00:01:58.951750
447,RAW_IMU,119051747,6000.0,-83,353,944,0,1,0,4480,00:01:59.051747
448,RAW_IMU,119151747,6000.0,-83,354,943,0,0,0,4480,00:01:59.151747
449,RAW_IMU,119251797,6000.0,-83,353,943,0,0,0,4480,00:01:59.251797
450,RAW_IMU,121351823,6100.0,-83,354,944,-1,0,0,4480,00:02:01.351823
451,RAW_IMU,121451756,6100.0,-83,353,944,0,0,0,4480,00:02:01.451756
452,RAW_IMU,121551765,6100.0,-83,353,944,0,0,0,4480,00:02:01.551765
453,RAW_IMU,121651770,6100.0,-83,353,944,0,0,0,4480,00:02:01.651770
454,RAW_IMU,121751756,6100.0,-83,354,943,0,0,0,4480,00:02:01.751756
455,RAW_IMU,121851837,6100.0,-83,353,944,0,0,0,4480,00:02:01.851837
456,RAW_IMU,121951758,6100.0,-83,354,944,0,0,-1,4480,00:02:01.951758
457,RAW_IMU,122051751,6100.0,-83,354,944,-1,0,0,4480,00:02:02.051751
458,RAW_IMU,122151748,6100.0,-83,354,943,0,1,0,4480,00:02:02.151748
459,RAW_IMU,122251729,6100.0,-83,353,943,0,1,0,4480,00:02:02.251729
460,RAW_IMU,122351826,6100.0,-83,354,944,0,1,0,4480,00:02:02.351826
461,RAW_IMU,122451753,6100.0,-83,354,943,-1,0,0,4480,00:02:02.451753
462,RAW_IMU,122551764,6100.0,-83,353,944,0,1,0,4480,00:02:02.551764
463,RAW_IMU,122651727,6100.0,-83,353,943,0,1,0,4480,00:02:02.651727
464,RAW_IMU,122751713,6100.0,-83,354,943,0,0,0,4480,00:02:02.751713
465,RAW_IMU,122851880,6100.0,-83,354,943,0,0,0,4480,00:02:02.851880
466,RAW_IMU,122951777,6100.0,-83,353,944,0,0,0,4480,00:02:02.951777
467,RAW_IMU,123051720,6100.0,-83,353,943,0,0,0,4480,00:02:03.051720
468,RAW_IMU,123151754,6100.0,-83,354,943,0,0,0,4480,00:02:03.151754
469,RAW_IMU,123251762,6100.0,-83,354,943,0,0,0,4480,00:02:03.251762
470,RAW_IMU,123351845,6100.0,-83,354,943,0,1,0,4480,00:02:03.351845
471,RAW_IMU,123451750,6100.0,-83,354,943,0,1,0,4480,00:02:03.451750
472,RAW_IMU,123551757,6100.0,-83,354,943,0,1,0,4480,00:02:03.551757
473,RAW_IMU,123651785,6100.0,-83,353,943,0,0,0,4480,00:02:03.651785
474,RAW_IMU,123751761,6100.0,-83,354,943,0,0,0,4480,00:02:03.751761
475,RAW_IMU,123851791,6100.0,-83,353,943,0,0,0,4480,00:02:03.851791
476,RAW_IMU,123951768,6100.0,-83,354,943,0,1,0,4480,00:02:03.951768
477,RAW_IMU,124051750,6100.0,-83,354,943,0,0,0,4480,00:02:04.051750
478,RAW_IMU,124151748,6100.0,-83,353,943,0,0,0,4480,00:02:04.151748
479,RAW_IMU,124251744,6100.0,-83,353,943,0,0,0,4480,00:02:04.251744
480,RAW_IMU,124351822,6100.0,-84,353,943,-1,1,0,4432,00:02:04.351822
481,RAW_IMU,124451698,6100.0,-83,354,943,0,0,0,4480,00:02:04.451698
482,RAW_IMU,124551771,6100.0,-83,354,944,0,0,0,4480,00:02:04.551771
483,RAW_IMU,124651729,6100.0,-83,353,943,0,1,0,4480,00:02:04.651729
484,RAW_IMU,124751751,6100.0,-83,354,943,0,1,0,4480,00:02:04.751751
485,RAW_IMU,124851819,6100.0,-83,353,943,0,0,0,4480,00:02:04.851819
486,RAW_IMU,124951753,6100.0,-83,353,943,0,0,0,4480,00:02:04.951753
487,RAW_IMU,125051765,6100.0,-83,354,943,0,0,0,4480,00:02:05.051765
488,RAW_IMU,125151687,6100.0,-83,354,944,0,0,0,4480,00:02:05.151687
489,RAW_IMU,125251752,6100.0,-83,354,943,0,0,0,4480,00:02:05.251752
490,RAW_IMU,125351824,6100.0,-83,354,943,0,0,0,4480,00:02:05.351824
491,RAW_IMU,125451762,6100.0,-83,353,943,0,1,0,4480,00:02:05.451762
492,RAW_IMU,125551775,6100.0,-83,354,943,0,0,0,4480,00:02:05.551775
493,RAW_IMU,125651754,6100.0,-83,353,944,0,0,0,4480,00:02:05.651754
494,RAW_IMU,125751737,6100.0,-83,353,943,0,1,0,4480,00:02:05.751737
495,RAW_IMU,125851827,6100.0,-83,353,944,0,1,0,4480,00:02:05.851827
496,RAW_IMU,125951729,6100.0,-83,354,943,0,0,0,4480,00:02:05.951729
497,RAW_IMU,126051780,6100.0,-83,354,944,0,1,0,4480,00:02:06.051780
498,RAW_IMU,126151748,6100.0,-83,354,943,0,0,0,4480,00:02:06.151748
499,RAW_IMU,126251743,6100.0,-83,353,943,0,0,0,4480,00:02:06.251743
500,RAW_IMU,128351825,6200.0,-83,354,943,0,1,0,4480,00:02:08.351825
501,RAW_IMU,128451709,6200.0,-83,354,943,0,1,0,4480,00:02:08.451709
502,RAW_IMU,128551758,6200.0,-83,353,943,0,0,0,4480,00:02:08.551758
503,RAW_IMU,128651758,6200.0,-83,354,943,0,0,0,4480,00:02:08.651758
504,RAW_IMU,128751767,6200.0,-83,353,943,0,1,0,4480,00:02:08.751767
505,RAW_IMU,128851881,6200.0,-83,354,943,-1,1,0,4480,00:02:08.851881
506,RAW_IMU,128951736,6200.0,-83,354,943,0,0,0,4480,00:02:08.951736
507,RAW_IMU,129051766,6200.0,-82,353,944,0,0,0,4480,00:02:09.051766
508,RAW_IMU,129151739,6200.0,-83,352,943,0,0,0,4480,00:02:09.151739
509,RAW_IMU,129251762,6200.0,-82,353,943,-1,0,0,4480,00:02:09.251762
510,RAW_IMU,129351860,6200.0,-83,353,943,0,0,0,4480,00:02:09.351860
511,RAW_IMU,129451743,6200.0,-83,354,943,0,0,0,4480,00:02:09.451743
512,RAW_IMU,129551754,6200.0,-83,353,943,0,1,0,4480,00:02:09.551754
513,RAW_IMU,129651757,6200.0,-83,353,944,-1,1,0,4480,00:02:09.651757
514,RAW_IMU,129751745,6200.0,-83,353,943,0,0,0,4480,00:02:09.751745
515,RAW_IMU,129851812,6200.0,-83,354,943,0,0,0,4480,00:02:09.851812
516,RAW_IMU,129951727,6200.0,-83,354,943,0,0,0,4480,00:02:09.951727
517,RAW_IMU,130051755,6200.0,-83,354,943,0,0,-1,4480,00:02:10.051755
518,RAW_IMU,130151686,6200.0,-84,355,943,0,0,0,4480,00:02:10.151686
519,RAW_IMU,130251759,6200.0,-83,354,943,0,0,0,4480,00:02:10.251759
520,RAW_IMU,130351840,6200.0,-83,354,943,0,1,0,4480,00:02:10.351840
521,RAW_IMU,130451764,6200.0,-83,353,944,0,0,0,4480,00:02:10.451764
522,RAW_IMU,130551760,6200.0,-83,354,943,0,0,0,4480,00:02:10.551760
523,RAW_IMU,130651755,6200.0,-83,353,944,0,0,0,4480,00:02:10.651755
524,RAW_IMU,130751758,6200.0,-83,353,943,0,1,0,4480,00:02:10.751758
525,RAW_IMU,130851782,6200.0,-83,354,944,0,0,0,4480,00:02:10.851782
526,RAW_IMU,130951771,6200.0,-83,354,944,0,0,0,4480,00:02:10.951771
527,RAW_IMU,131051763,6200.0,-83,354,944,0,0,0,4432,00:02:11.051763
528,RAW_IMU,131151762,6200.0,-83,354,944,0,0,0,4480,00:02:11.151762
529,RAW_IMU,131251722,6200.0,-83,353,944,0,0,0,4432,00:02:11.251722
530,RAW_IMU,131351830,6200.0,-83,353,945,-1,1,0,4480,00:02:11.351830
531,RAW_IMU,131451768,6200.0,-83,353,944,-1,1,0,4480,00:02:11.451768
532,RAW_IMU,131551751,6200.0,-83,354,944,0,0,0,4480,00:02:11.551751
533,RAW_IMU,131651704,6200.0,-83,353,945,0,1,0,4480,00:02:11.651704
534,RAW_IMU,131751723,6200.0,-83,353,944,0,0,0,4480,00:02:11.751723
535,RAW_IMU,131851835,6200.0,-83,354,944,0,1,0,4480,00:02:11.851835
536,RAW_IMU,131951709,6200.0,-83,353,944,0,0,0,4480,00:02:11.951709
537,RAW_IMU,132051707,6200.0,-83,354,944,0,0,0,4480,00:02:12.051707
538,RAW_IMU,132151755,6200.0,-83,353,944,0,1,0,4480,00:02:12.151755
539,RAW_IMU,132251728,6200.0,-83,354,944,0,0,0,4480,00:02:12.251728
540,RAW_IMU,132351869,6200.0,-83,354,944,0,0,0,4480,00:02:12.351869
541,RAW_IMU,132451753,6200.0,-83,354,944,0,0,0,4480,00:02:12.451753
542,RAW_IMU,132551701,6200.0,-83,354,943,0,0,0,4480,00:02:12.551701
543,RAW_IMU,132651699,6200.0,-83,354,943,0,0,0,4480,00:02:12.651699
544,RAW_IMU,132751768,6200.0,-83,354,943,-1,0,0,4480,00:02:12.751768
545,RAW_IMU,132851815,6200.0,-84,355,943,0,0,0,4480,00:02:12.851815
546,RAW_IMU,132951741,6200.0,-84,354,943,0,0,0,4480,00:02:12.951741
547,RAW_IMU,133051754,6200.0,-83,354,944,0,0,0,4480,00:02:13.051754
548,RAW_IMU,133151752,6200.0,-83,353,944,0,0,0,4480,00:02:13.151752
549,RAW_IMU,133251713,6200.0,-83,354,944,0,1,0,4480,00:02:13.251713
550,RAW_IMU,135351807,6300.0,-83,354,944,0,0,0,4528,00:02:15.351807
551,RAW_IMU,135451764,6300.0,-83,353,944,0,1,0,4480,00:02:15.451764
552,RAW_IMU,135551755,6300.0,-83,354,944,0,0,0,4480,00:02:15.551755
553,RAW_IMU,135651753,6300.0,-83,354,944,0,0,0,4480,00:02:15.651753
554,RAW_IMU,135751709,6300.0,-83,354,943,0,0,0,4480,00:02:15.751709
555,RAW_IMU,135851812,6300.0,-83,354,944,0,0,0,4480,00:02:15.851812
556,RAW_IMU,135951701,6300.0,-83,354,943,0,0,0,4480,00:02:15.951701
557,RAW_IMU,136051754,6300.0,-83,353,944,0,0,0,4480,00:02:16.051754
558,RAW_IMU,136151740,6300.0,-83,354,944,0,0,0,4480,00:02:16.151740
559,RAW_IMU,136251713,6300.0,-83,354,943,0,0,0,4480,00:02:16.251713
560,RAW_IMU,136351790,6300.0,-83,354,944,0,1,0,4528,00:02:16.351790
561,RAW_IMU,136451692,6300.0,-83,354,944,0,0,0,4480,00:02:16.451692
562,RAW_IMU,136551693,6300.0,-83,354,944,0,1,0,4528,00:02:16.551693
563,RAW_IMU,136651744,6300.0,-83,353,944,0,0,0,4480,00:02:16.651744
564,RAW_IMU,136751747,6300.0,-83,353,944,0,1,0,4480,00:02:16.751747
565,RAW_IMU,136851828,6300.0,-83,354,943,0,0,0,4480,00:02:16.851828
566,RAW_IMU,136951761,6300.0,-83,354,943,0,0,0,4480,00:02:16.951761
567,RAW_IMU,137051752,6300.0,-83,353,943,0,1,0,4480,00:02:17.051752
568,RAW_IMU,137151710,6300.0,-83,353,943,-1,0,0,4480,00:02:17.151710
569,RAW_IMU,137251684,6300.0,-83,354,943,0,0,0,4480,00:02:17.251684
570,RAW_IMU,137351816,6300.0,-83,354,943,0,1,0,4480,00:02:17.351816
571,RAW_IMU,137451763,6300.0,-83,354,943,0,1,0,4480,00:02:17.451763
572,RAW_IMU,137551761,6300.0,-82,354,944,0,1,0,4480,00:02:17.551761
573,RAW_IMU,137651784,6300.0,-83,354,944,-1,0,0,4480,00:02:17.651784
574,RAW_IMU,137751765,6300.0,-83,354,943,0,0,0,4528,00:02:17.751765
575,RAW_IMU,137851807,6300.0,-83,353,943,0,0,0,4480,00:02:17.851807
576,RAW_IMU,137951725,6300.0,-83,354,944,0,1,0,4480,00:02:17.951725
577,RAW_IMU,138051752,6300.0,-83,354,943,-1,1,0,4480,00:02:18.051752
578,RAW_IMU,138151672,6300.0,-83,353,943,0,0,0,4480,00:02:18.151672
579,RAW_IMU,138251749,6300.0,-83,353,943,0,0,0,4480,00:02:18.251749
580,RAW_IMU,138351813,6300.0,-84,353,943,0,0,0,4480,00:02:18.351813
581,RAW_IMU,138451749,6300.0,-82,353,943,0,0,0,4528,00:02:18.451749
582,RAW_IMU,138551769,6300.0,-83,355,943,0,0,0,4480,00:02:18.551769
583,RAW_IMU,138651755,6300.0,-83,354,943,0,0,0,4480,00:02:18.651755
584,RAW_IMU,138751735,6300.0,-83,354,943,0,1,0,4480,00:02:18.751735
585,RAW_IMU,138851772,6300.0,-83,353,943,0,0,0,4480,00:02:18.851772
586,RAW_IMU,138951773,6300.0,-83,354,943,0,0,0,4480,00:02:18.951773
587,RAW_IMU,139051751,6300.0,-83,354,943,0,1,-1,4480,00:02:19.051751
588,RAW_IMU,139151760,6300.0,-83,353,943,0,0,0,4480,00:02:19.151760
589,RAW_IMU,139251634,6300.0,-83,354,942,0,0,0,4480,00:02:19.251634
590,RAW_IMU,139351889,6300.0,-83,355,944,0,1,0,4480,00:02:19.351889
591,RAW_IMU,139451715,6300.0,-82,355,943,0,0,1,4480,00:02:19.451715
592,RAW_IMU,139551750,6300.0,-89,350,943,-3,3,-1,4480,00:02:19.551750
593,RAW_IMU,139651757,6300.0,-83,358,940,4,-3,1,4528,00:02:19.651757
594,RAW_IMU,139751746,6300.0,-86,363,938,2,5,0,4480,00:02:19.751746
595,RAW_IMU,139851820,6300.0,-79,358,942,6,-7,0,4480,00:02:19.851820
596,RAW_IMU,139951747,6300.0,-85,339,953,-10,12,-3,4480,00:02:19.951747
597,RAW_IMU,140051781,6300.0,-81,349,943,0,0,0,4480,00:02:20.051781
598,RAW_IMU,140151751,6300.0,-82,356,944,-10,8,-2,4480,00:02:20.151751
599,RAW_IMU,140251807,6300.0,-84,358,940,7,-10,2,4480,00:02:20.251807
600,RAW_IMU,142451781,6400.0,-84,354,944,0,0,0,4480,00:02:22.451781
601,RAW_IMU,142551792,6400.0,-84,353,944,0,1,0,4480,00:02:22.551792
602,RAW_IMU,142651675,6400.0,-83,353,943,-1,0,0,4480,00:02:22.651675
603,RAW_IMU,142751743,6400.0,-83,354,943,0,0,0,4480,00:02:22.751743
604,RAW_IMU,142851824,6400.0,-83,353,943,0,0,0,4480,00:02:22.851824
605,RAW_IMU,142951758,6400.0,-84,353,943,0,0,0,4480,00:02:22.951758
606,RAW_IMU,143051772,6400.0,-83,353,944,-1,0,0,4480,00:02:23.051772
607,RAW_IMU,143151798,6400.0,-84,353,943,0,1,0,4480,00:02:23.151798
608,RAW_IMU,143251751,6400.0,-84,353,943,0,1,0,4480,00:02:23.251751
609,RAW_IMU,143351815,6400.0,-84,353,944,0,0,0,4480,00:02:23.351815
610,RAW_IMU,143451756,6400.0,-84,353,943,0,1,0,4432,00:02:23.451756
611,RAW_IMU,143551760,6400.0,-83,353,944,0,0,0,4480,00:02:23.551760
612,RAW_IMU,143651764,6400.0,-83,353,943,0,1,0,4480,00:02:23.651764
613,RAW_IMU,143751760,6400.0,-84,353,943,0,0,0,4480,00:02:23.751760
614,RAW_IMU,143851813,6400.0,-84,353,944,0,1,0,4480,00:02:23.851813
615,RAW_IMU,143951777,6400.0,-84,353,943,0,0,0,4480,00:02:23.951777
616,RAW_IMU,144051774,6400.0,-84,353,943,0,0,0,4480,00:02:24.051774
617,RAW_IMU,144151676,6400.0,-83,354,944,0,0,0,4480,00:02:24.151676
618,RAW_IMU,144251766,6400.0,-84,353,943,0,0,0,4480,00:02:24.251766
619,RAW_IMU,144351842,6400.0,-84,353,943,0,0,0,4480,00:02:24.351842
620,RAW_IMU,144451748,6400.0,-83,353,943,0,1,0,4480,00:02:24.451748
621,RAW_IMU,144551749,6400.0,-84,354,943,0,0,0,4480,00:02:24.551749
622,RAW_IMU,144651746,6400.0,-84,353,943,0,0,0,4480,00:02:24.651746
623,RAW_IMU,144751723,6400.0,-83,353,943,0,1,0,4480,00:02:24.751723
624,RAW_IMU,144851816,6400.0,-83,354,944,-1,0,0,4480,00:02:24.851816
625,RAW_IMU,144951758,6400.0,-84,353,944,0,0,0,4480,00:02:24.951758
626,RAW_IMU,145051711,6400.0,-84,353,943,0,1,0,4480,00:02:25.051711
627,RAW_IMU,145151699,6400.0,-84,353,944,0,0,0,4480,00:02:25.151699
628,RAW_IMU,145251767,6400.0,-84,353,943,0,0,-1,4480,00:02:25.251767
629,RAW_IMU,145351810,6400.0,-84,353,943,-1,0,0,4480,00:02:25.351810
630,RAW_IMU,145451750,6400.0,-83,353,945,0,0,0,4480,00:02:25.451750
631,RAW_IMU,145551753,6400.0,-84,354,943,0,1,0,4480,00:02:25.551753
632,RAW_IMU,145651748,6400.0,-84,354,944,0,0,0,4480,00:02:25.651748
633,RAW_IMU,145751753,6400.0,-84,353,944,0,1,0,4480,00:02:25.751753
634,RAW_IMU,145851869,6400.0,-84,353,944,0,1,0,4480,00:02:25.851869
635,RAW_IMU,145951736,6400.0,-84,353,944,0,0,0,4480,00:02:25.951736
636,RAW_IMU,146051756,6400.0,-84,353,945,0,0,0,4480,00:02:26.051756
637,RAW_IMU,146151771,6400.0,-84,353,943,0,1,0,4480,00:02:26.151771
638,RAW_IMU,146251751,6400.0,-84,353,943,1,0,0,4480,00:02:26.251751
639,RAW_IMU,146351838,6400.0,-84,353,944,0,0,0,4480,00:02:26.351838
640,RAW_IMU,146451752,6400.0,-84,353,943,0,0,0,4480,00:02:26.451752
641,RAW_IMU,146551760,6400.0,-84,353,944,0,1,-1,4480,00:02:26.551760
642,RAW_IMU,146651748,6400.0,-84,353,943,0,0,0,4480,00:02:26.651748
643,RAW_IMU,146751748,6400.0,-83,353,944,0,0,0,4480,00:02:26.751748
644,RAW_IMU,146851850,6400.0,-83,353,943,0,0,0,4480,00:02:26.851850
645,RAW_IMU,146951744,6400.0,-84,354,944,0,0,0,4480,00:02:26.951744
646,RAW_IMU,147051768,6400.0,-83,353,944,0,0,0,4480,00:02:27.051768
647,RAW_IMU,147151672,6400.0,-84,354,943,0,0,0,4480,00:02:27.151672
648,RAW_IMU,147251760,6400.0,-83,353,943,0,0,0,4480,00:02:27.251760
649,RAW_IMU,147351853,6400.0,-84,353,944,0,0,0,4480,00:02:27.351853
650,RAW_IMU,149451751,6500.0,-84,354,944,0,1,0,4480,00:02:29.451751
651,RAW_IMU,149551759,6500.0,-84,353,943,0,1,0,4480,00:02:29.551759
652,RAW_IMU,149651766,6500.0,-84,353,943,0,0,0,4480,00:02:29.651766
653,RAW_IMU,149751767,6500.0,-84,353,944,0,0,0,4480,00:02:29.751767
654,RAW_IMU,149851853,6500.0,-84,353,943,0,0,0,4480,00:02:29.851853
655,RAW_IMU,149951748,6500.0,-83,353,944,0,1,0,4480,00:02:29.951748
656,RAW_IMU,150051756,6500.0,-84,354,944,0,0,0,4480,00:02:30.051756
657,RAW_IMU,150151754,6500.0,-84,353,944,0,0,0,4480,00:02:30.151754
658,RAW_IMU,150251747,6500.0,-84,353,944,0,0,0,4480,00:02:30.251747
659,RAW_IMU,150351826,6500.0,-84,353,944,0,0,0,4480,00:02:30.351826
660,RAW_IMU,150451714,6500.0,-83,354,944,0,0,0,4480,00:02:30.451714
661,RAW_IMU,150551714,6500.0,-84,353,943,0,0,0,4480,00:02:30.551714
662,RAW_IMU,150651759,6500.0,-84,354,944,0,0,0,4480,00:02:30.651759
663,RAW_IMU,150751694,6500.0,-83,353,944,0,0,0,4480,00:02:30.751694
664,RAW_IMU,150851821,6500.0,-84,353,943,0,0,0,4480,00:02:30.851821
665,RAW_IMU,150951766,6500.0,-84,353,944,0,1,0,4480,00:02:30.951766
666,RAW_IMU,151051785,6500.0,-84,353,944,0,0,0,4480,00:02:31.051785
667,RAW_IMU,151151748,6500.0,-83,353,943,0,0,0,4480,00:02:31.151748
668,RAW_IMU,151251759,6500.0,-84,353,943,0,1,0,4480,00:02:31.251759
669,RAW_IMU,151351872,6500.0,-84,353,944,0,0,0,4480,00:02:31.351872
670,RAW_IMU,151451676,6500.0,-84,353,944,0,0,0,4480,00:02:31.451676
671,RAW_IMU,151551787,6500.0,-84,353,944,0,1,0,4480,00:02:31.551787
672,RAW_IMU,151651759,6500.0,-84,353,944,0,0,0,4480,00:02:31.651759
673,RAW_IMU,151751730,6500.0,-84,353,944,0,1,0,4480,00:02:31.751730
674,RAW_IMU,151851816,6500.0,-84,353,944,0,0,0,4480,00:02:31.851816
675,RAW_IMU,151951735,6500.0,-84,353,943,0,1,0,4480,00:02:31.951735
676,RAW_IMU,152051760,6500.0,-84,353,943,0,0,0,4480,00:02:32.051760
677,RAW_IMU,152151732,6500.0,-84,353,944,0,0,0,4480,00:02:32.151732
678,RAW_IMU,152251746,6500.0,-84,353,944,0,1,0,4480,00:02:32.251746
679,RAW_IMU,152351836,6500.0,-84,353,943,0,0,0,4480,00:02:32.351836
680,RAW_IMU,152451761,6500.0,-84,353,944,0,1,0,4480,00:02:32.451761
681,RAW_IMU,152551746,6500.0,-84,353,944,0,0,0,4480,00:02:32.551746
682,RAW_IMU,152651695,6500.0,-84,354,944,0,1,0,4480,00:02:32.651695
683,RAW_IMU,152751702,6500.0,-84,353,943,0,1,0,4480,00:02:32.751702
684,RAW_IMU,152851815,6500.0,-84,353,944,0,2,0,4480,00:02:32.851815
685,RAW_IMU,152951737,6500.0,-83,353,944,0,0,0,4480,00:02:32.951737
686,RAW_IMU,153051761,6500.0,-84,353,944,0,1,0,4480,00:02:33.051761
687,RAW_IMU,153151754,6500.0,-84,353,943,0,0,0,4528,00:02:33.151754
688,RAW_IMU,153251757,6500.0,-84,354,944,0,0,0,4480,00:02:33.251757
689,RAW_IMU,153351844,6500.0,-84,353,944,0,0,0,4480,00:02:33.351844
690,RAW_IMU,153451753,6500.0,-84,354,944,0,1,0,4480,00:02:33.451753
691,RAW_IMU,153551752,6500.0,-84,353,944,0,0,0,4480,00:02:33.551752
692,RAW_IMU,153651751,6500.0,-84,353,944,0,0,0,4480,00:02:33.651751
693,RAW_IMU,153751735,6500.0,-83,354,944,0,0,0,4480,00:02:33.751735
694,RAW_IMU,153851761,6500.0,-84,354,944,0,1,0,4480,00:02:33.851761
695,RAW_IMU,153951702,6500.0,-84,353,944,0,0,0,4480,00:02:33.951702
696,RAW_IMU,154051729,6500.0,-84,353,944,0,1,0,4480,00:02:34.051729
697,RAW_IMU,154151691,6500.0,-84,354,944,0,0,0,4480,00:02:34.151691
698,RAW_IMU,154251759,6500.0,-84,353,943,0,0,0,4480,00:02:34.251759
699,RAW_IMU,154351824,6500.0,-84,353,943,0,0,0,4528,00:02:34.351824
700,RAW_IMU,156451708,6600.0,-83,353,943,0,0,0,4480,00:02:36.451708
701,RAW_IMU,156551757,6600.0,-84,353,943,0,0,0,4480,00:02:36.551757
702,RAW_IMU,156651801,6600.0,-83,353,943,0,0,0,4480,00:02:36.651801
703,RAW_IMU,156751766,6600.0,-83,353,944,0,0,0,4480,00:02:36.751766
704,RAW_IMU,156851827,6600.0,-84,353,944,0,0,0,4480,00:02:36.851827
705,RAW_IMU,156951718,6600.0,-84,354,943,0,1,0,4528,00:02:36.951718
706,RAW_IMU,157051762,6600.0,-84,353,944,0,0,0,4480,00:02:37.051762
707,RAW_IMU,157151742,6600.0,-84,353,944,0,0,0,4480,00:02:37.151742
708,RAW_IMU,157251763,6600.0,-84,353,943,0,0,0,4480,00:02:37.251763
709,RAW_IMU,157351820,6600.0,-83,353,944,0,1,0,4480,00:02:37.351820
710,RAW_IMU,157451758,6600.0,-83,353,943,0,1,0,4480,00:02:37.451758
711,RAW_IMU,157551745,6600.0,-84,353,944,0,0,0,4480,00:02:37.551745
712,RAW_IMU,157651758,6600.0,-84,353,944,0,0,0,4480,00:02:37.651758
713,RAW_IMU,157751715,6600.0,-83,353,944,0,0,0,4480,00:02:37.751715
714,RAW_IMU,157851830,6600.0,-84,353,944,0,1,0,4480,00:02:37.851830
715,RAW_IMU,157951757,6600.0,-84,353,944,0,0,0,4480,00:02:37.951757
716,RAW_IMU,158051759,6600.0,-84,353,944,0,0,0,4480,00:02:38.051759
717,RAW_IMU,158151760,6600.0,-83,353,944,0,0,0,4480,00:02:38.151760
718,RAW_IMU,158251763,6600.0,-84,354,944,0,1,0,4480,00:02:38.251763
719,RAW_IMU,158351773,6600.0,-84,353,943,0,0,0,4480,00:02:38.351773
720,RAW_IMU,158451737,6600.0,-84,353,944,0,2,0,4480,00:02:38.451737
721,RAW_IMU,158551757,6600.0,-84,353,943,0,0,0,4480,00:02:38.551757
722,RAW_IMU,158651750,6600.0,-84,353,944,0,2,0,4480,00:02:38.651750
723,RAW_IMU,158751770,6600.0,-84,353,943,0,0,0,4480,00:02:38.751770
724,RAW_IMU,158851817,6600.0,-84,353,943,0,0,0,4480,00:02:38.851817
725,RAW_IMU,158951707,6600.0,-84,353,943,0,0,0,4480,00:02:38.951707
726,RAW_IMU,159051693,6600.0,-84,353,943,0,0,0,4480,00:02:39.051693
727,RAW_IMU,159151748,6600.0,-84,353,944,0,0,0,4528,00:02:39.151748
728,RAW_IMU,159251730,6600.0,-84,354,943,-1,1,0,4480,00:02:39.251730
729,RAW_IMU,159351807,6600.0,-84,353,944,0,0,0,4480,00:02:39.351807
730,RAW_IMU,159451754,6600.0,-84,353,943,0,0,0,4480,00:02:39.451754
731,RAW_IMU,159551754,6600.0,-83,353,943,0,1,0,4480,00:02:39.551754
732,RAW_IMU,159651777,6600.0,-84,353,943,0,1,0,4480,00:02:39.651777
733,RAW_IMU,159751744,6600.0,-84,354,943,0,1,0,4480,00:02:39.751744
734,RAW_IMU,159851809,6600.0,-85,353,943,0,1,0,4480,00:02:39.851809
735,RAW_IMU,159951722,6600.0,-84,353,942,0,1,0,4480,00:02:39.951722
736,RAW_IMU,160051758,6600.0,-83,353,943,0,0,0,4480,00:02:40.051758
737,RAW_IMU,160151754,6600.0,-84,353,943,0,1,0,4480,00:02:40.151754
738,RAW_IMU,160251761,6600.0,-84,353,942,0,1,0,4480,00:02:40.251761
739,RAW_IMU,160351817,6600.0,-84,353,943,0,0,0,4480,00:02:40.351817
740,RAW_IMU,160451760,6600.0,-83,353,942,0,1,0,4480,00:02:40.451760
741,RAW_IMU,160551768,6600.0,-84,353,943,0,1,0,4480,00:02:40.551768
742,RAW_IMU,160651626,6600.0,-83,353,943,0,0,0,4480,00:02:40.651626
743,RAW_IMU,160751713,6600.0,-84,353,943,0,0,0,4480,00:02:40.751713
744,RAW_IMU,160851851,6600.0,-84,353,943,0,0,0,4480,00:02:40.851851
745,RAW_IMU,160951755,6600.0,-83,353,943,0,0,0,4480,00:02:40.951755
746,RAW_IMU,161051776,6600.0,-84,354,944,0,0,0,4480,00:02:41.051776
747,RAW_IMU,161151760,6600.0,-84,353,943,0,0,0,4480,00:02:41.151760
748,RAW_IMU,161251767,6600.0,-84,353,943,0,0,0,4480,00:02:41.251767
749,RAW_IMU,161351821,6600.0,-84,353,943,0,1,0,4480,00:02:41.351821
750,RAW_IMU,163451768,6700.0,-84,353,944,0,0,0,4480,00:02:43.451768
751,RAW_IMU,163551756,6700.0,-84,353,944,0,0,0,4480,00:02:43.551756
752,RAW_IMU,163651748,6700.0,-84,353,944,0,0,0,4480,00:02:43.651748
753,RAW_IMU,163751744,6700.0,-83,354,944,0,1,0,4480,00:02:43.751744
754,RAW_IMU,163851830,6700.0,-84,353,944,0,0,0,4480,00:02:43.851830
755,RAW_IMU,163951761,6700.0,-84,353,944,0,0,0,4480,00:02:43.951761
756,RAW_IMU,164051781,6700.0,-83,353,944,0,0,0,4480,00:02:44.051781
757,RAW_IMU,164151710,6700.0,-84,353,944,0,0,0,4480,00:02:44.151710
758,RAW_IMU,164251718,6700.0,-84,353,944,0,0,0,4480,00:02:44.251718
759,RAW_IMU,164351823,6700.0,-84,353,944,0,0,0,4480,00:02:44.351823
760,RAW_IMU,164451770,6700.0,-84,354,944,0,0,0,4480,00:02:44.451770
761,RAW_IMU,164551764,6700.0,-83,353,944,0,0,0,4480,00:02:44.551764
762,RAW_IMU,164651773,6700.0,-83,353,944,0,0,0,4480,00:02:44.651773
763,RAW_IMU,164751752,6700.0,-84,353,944,0,1,0,4480,00:02:44.751752
764,RAW_IMU,164851824,6700.0,-84,353,944,0,0,0,4480,00:02:44.851824
765,RAW_IMU,164951753,6700.0,-84,353,944,0,0,0,4480,00:02:44.951753
766,RAW_IMU,165051786,6700.0,-84,353,944,0,0,0,4480,00:02:45.051786
767,RAW_IMU,165151748,6700.0,-84,353,944,0,1,0,4480,00:02:45.151748
768,RAW_IMU,165251701,6700.0,-84,353,944,0,0,0,4480,00:02:45.251701
769,RAW_IMU,165351844,6700.0,-84,353,943,0,1,0,4528,00:02:45.351844
770,RAW_IMU,165451677,6700.0,-84,353,944,0,0,0,4480,00:02:45.451677
771,RAW_IMU,165551681,6700.0,-84,353,944,0,1,0,4480,00:02:45.551681
772,RAW_IMU,165651769,6700.0,-84,353,944,0,1,0,4480,00:02:45.651769
773,RAW_IMU,165751750,6700.0,-84,353,944,0,1,0,4480,00:02:45.751750
774,RAW_IMU,165851834,6700.0,-83,353,944,0,0,1,4480,00:02:45.851834
775,RAW_IMU,165951727,6700.0,-83,353,944,0,0,0,4480,00:02:45.951727
776,RAW_IMU,166051756,6700.0,-83,353,944,0,1,1,4480,00:02:46.051756
777,RAW_IMU,166151705,6700.0,-83,353,944,0,1,0,4480,00:02:46.151705
778,RAW_IMU,166251718,6700.0,-84,353,944,0,1,0,4480,00:02:46.251718
779,RAW_IMU,166351820,6700.0,-84,353,944,0,0,0,4480,00:02:46.351820
780,RAW_IMU,166451768,6700.0,-84,353,944,0,1,0,4480,00:02:46.451768
781,RAW_IMU,166551758,6700.0,-84,353,944,0,0,0,4480,00:02:46.551758
782,RAW_IMU,166651760,6700.0,-83,353,944,0,0,0,4480,00:02:46.651760
783,RAW_IMU,166751760,6700.0,-83,353,943,-1,0,0,4528,00:02:46.751760
784,RAW_IMU,166851823,6700.0,-84,353,943,0,0,0,4480,00:02:46.851823
785,RAW_IMU,166951745,6700.0,-84,353,944,0,1,0,4480,00:02:46.951745
786,RAW_IMU,167051764,6700.0,-84,353,944,0,0,0,4480,00:02:47.051764
787,RAW_IMU,167151763,6700.0,-83,353,943,0,1,0,4480,00:02:47.151763
788,RAW_IMU,167251718,6700.0,-83,353,943,0,0,0,4480,00:02:47.251718
789,RAW_IMU,167351818,6700.0,-84,354,943,0,0,1,4480,00:02:47.351818
790,RAW_IMU,167451723,6700.0,-84,353,944,-1,0,0,4480,00:02:47.451723
791,RAW_IMU,167551751,6700.0,-83,353,943,-1,0,0,4480,00:02:47.551751
792,RAW_IMU,167651745,6700.0,-84,353,943,0,0,0,4480,00:02:47.651745
793,RAW_IMU,167751755,6700.0,-84,353,944,0,0,0,4480,00:02:47.751755
794,RAW_IMU,167851816,6700.0,-84,353,943,0,1,0,4528,00:02:47.851816
795,RAW_IMU,167951705,6700.0,-84,353,943,0,0,0,4480,00:02:47.951705
796,RAW_IMU,168051703,6700.0,-83,354,943,0,1,0,4480,00:02:48.051703
797,RAW_IMU,168151691,6700.0,-84,353,943,0,0,0,4480,00:02:48.151691
798,RAW_IMU,168251718,6700.0,-83,353,943,0,0,0,4480,00:02:48.251718
799,RAW_IMU,168351827,6700.0,-84,353,943,0,0,0,4480,00:02:48.351827
800,RAW_IMU,170451761,6800.0,-83,354,943,0,1,0,4480,00:02:50.451761
801,RAW_IMU,170551772,6800.0,-84,353,944,0,1,0,4480,00:02:50.551772
802,RAW_IMU,170651760,6800.0,-84,353,943,0,1,0,4480,00:02:50.651760
803,RAW_IMU,170751750,6800.0,-84,353,943,0,0,0,4480,00:02:50.751750
804,RAW_IMU,170851797,6800.0,-84,353,942,-1,0,0,4480,00:02:50.851797
805,RAW_IMU,170951744,6800.0,-84,353,942,0,0,0,4480,00:02:50.951744
806,RAW_IMU,171051739,6800.0,-84,353,944,-1,0,0,4480,00:02:51.051739
807,RAW_IMU,171151733,6800.0,-84,353,944,0,0,0,4480,00:02:51.151733
808,RAW_IMU,171251689,6800.0,-84,353,944,-1,0,0,4480,00:02:51.251689
809,RAW_IMU,171351827,6800.0,-84,353,944,0,0,0,4480,00:02:51.351827
810,RAW_IMU,171451750,6800.0,-84,353,944,0,0,0,4480,00:02:51.451750
811,RAW_IMU,171551747,6800.0,-83,353,943,0,0,0,4480,00:02:51.551747
812,RAW_IMU,171651751,6800.0,-83,353,944,0,0,0,4480,00:02:51.651751
813,RAW_IMU,171751747,6800.0,-84,353,944,0,0,0,4480,00:02:51.751747
814,RAW_IMU,171851883,6800.0,-83,353,943,0,0,-1,4480,00:02:51.851883
815,RAW_IMU,171951743,6800.0,-84,354,944,0,0,0,4480,00:02:51.951743
816,RAW_IMU,172051764,6800.0,-84,353,943,0,0,0,4480,00:02:52.051764
817,RAW_IMU,172151773,6800.0,-83,353,943,0,1,0,4480,00:02:52.151773
818,RAW_IMU,172251772,6800.0,-83,353,944,0,0,0,4480,00:02:52.251772
819,RAW_IMU,172351816,6800.0,-84,353,944,0,1,0,4480,00:02:52.351816
820,RAW_IMU,172451751,6800.0,-84,354,943,0,1,-1,4480,00:02:52.451751
821,RAW_IMU,172551758,6800.0,-84,354,944,0,0,0,4480,00:02:52.551758
822,RAW_IMU,172651737,6800.0,-84,353,943,0,0,0,4480,00:02:52.651737
823,RAW_IMU,172751674,6800.0,-84,353,944,0,1,0,4480,00:02:52.751674
824,RAW_IMU,172851826,6800.0,-84,353,944,0,0,0,4480,00:02:52.851826
825,RAW_IMU,172951766,6800.0,-85,353,943,-1,2,0,4480,00:02:52.951766
826,RAW_IMU,173051759,6800.0,-83,354,943,0,0,0,4480,00:02:53.051759
827,RAW_IMU,173151762,6800.0,-84,353,943,0,1,0,4480,00:02:53.151762
828,RAW_IMU,173251741,6800.0,-84,353,944,0,0,0,4480,00:02:53.251741
829,RAW_IMU,173351818,6800.0,-84,353,943,0,1,0,4480,00:02:53.351818
830,RAW_IMU,173451767,6800.0,-83,353,944,0,1,0,4480,00:02:53.451767
831,RAW_IMU,173551788,6800.0,-84,353,943,0,0,0,4480,00:02:53.551788
832,RAW_IMU,173651707,6800.0,-84,353,944,0,0,0,4480,00:02:53.651707
833,RAW_IMU,173751777,6800.0,-84,353,944,0,1,0,4480,00:02:53.751777
834,RAW_IMU,173851788,6800.0,-84,353,943,0,1,0,4480,00:02:53.851788
835,RAW_IMU,173951738,6800.0,-83,354,944,0,0,0,4480,00:02:53.951738
836,RAW_IMU,174051761,6800.0,-84,353,943,0,0,0,4480,00:02:54.051761
837,RAW_IMU,174151717,6800.0,-84,353,943,0,1,0,4480,00:02:54.151717
838,RAW_IMU,174251771,6800.0,-84,353,944,0,0,0,4480,00:02:54.251771
839,RAW_IMU,174351832,6800.0,-84,353,945,0,0,0,4480,00:02:54.351832
840,RAW_IMU,174451734,6800.0,-84,354,944,0,0,0,4480,00:02:54.451734
841,RAW_IMU,174551754,6800.0,-84,353,944,0,1,0,4480,00:02:54.551754
842,RAW_IMU,174651764,6800.0,-84,353,944,0,1,0,4480,00:02:54.651764
843,RAW_IMU,174751754,6800.0,-83,353,944,0,0,1,4480,00:02:54.751754
844,RAW_IMU,174851810,6800.0,-84,353,944,0,0,0,4480,00:02:54.851810
845,RAW_IMU,174951718,6800.0,-84,353,944,0,0,0,4480,00:02:54.951718
846,RAW_IMU,175051721,6800.0,-84,353,944,0,0,0,4480,00:02:55.051721
847,RAW_IMU,175151749,6800.0,-83,354,944,-1,0,0,4480,00:02:55.151749
848,RAW_IMU,175251748,6800.0,-83,353,944,1,0,0,4480,00:02:55.251748
849,RAW_IMU,175351841,6800.0,-84,353,944,0,0,0,4480,00:02:55.351841
850,RAW_IMU,177451758,6900.0,-84,353,944,0,0,0,4480,00:02:57.451758
851,RAW_IMU,177551757,6900.0,-84,353,944,0,0,0,4480,00:02:57.551757
852,RAW_IMU,177651777,6900.0,-84,353,944,0,1,0,4480,00:02:57.651777
853,RAW_IMU,177751713,6900.0,-84,353,943,0,1,0,4480,00:02:57.751713
854,RAW_IMU,177851820,6900.0,-84,354,944,0,0,0,4480,00:02:57.851820
855,RAW_IMU,177951706,6900.0,-84,353,944,0,1,0,4480,00:02:57.951706
856,RAW_IMU,178051753,6900.0,-83,353,944,0,0,0,4480,00:02:58.051753
857,RAW_IMU,178151740,6900.0,-84,353,944,0,0,0,4480,00:02:58.151740
858,RAW_IMU,178251757,6900.0,-84,353,944,0,0,0,4480,00:02:58.251757
859,RAW_IMU,178351814,6900.0,-84,353,944,0,0,0,4480,00:02:58.351814
860,RAW_IMU,178451748,6900.0,-84,353,943,0,1,0,4480,00:02:58.451748
861,RAW_IMU,178551779,6900.0,-84,353,944,0,0,0,4480,00:02:58.551779
862,RAW_IMU,178651761,6900.0,-84,353,944,0,1,0,4480,00:02:58.651761
863,RAW_IMU,178751693,6900.0,-84,353,944,0,1,0,4480,00:02:58.751693
864,RAW_IMU,178851813,6900.0,-83,354,943,0,1,0,4480,00:02:58.851813
865,RAW_IMU,178951762,6900.0,-84,353,943,0,0,0,4480,00:02:58.951762
866,RAW_IMU,179051770,6900.0,-84,353,943,0,0,0,4480,00:02:59.051770
867,RAW_IMU,179151695,6900.0,-84,353,943,0,0,0,4480,00:02:59.151695
868,RAW_IMU,179251758,6900.0,-83,354,944,0,0,0,4480,00:02:59.251758
869,RAW_IMU,179351845,6900.0,-84,353,943,0,0,0,4480,00:02:59.351845
870,RAW_IMU,179451790,6900.0,-84,353,943,0,1,0,4480,00:02:59.451790
871,RAW_IMU,179551712,6900.0,-84,353,943,0,1,0,4480,00:02:59.551712
872,RAW_IMU,179651718,6900.0,-84,353,943,0,1,0,4480,00:02:59.651718
873,RAW_IMU,179751712,6900.0,-84,353,944,0,0,0,4528,00:02:59.751712
874,RAW_IMU,179851839,6900.0,-84,353,943,0,1,0,4480,00:02:59.851839
875,RAW_IMU,179951751,6900.0,-84,353,943,0,1,0,4480,00:02:59.951751
876,RAW_IMU,180051776,6900.0,-84,353,944,0,0,0,4480,00:03:00.051776
877,RAW_IMU,180151747,6900.0,-84,353,943,0,0,0,4480,00:03:00.151747
878,RAW_IMU,180251739,6900.0,-84,353,943,0,0,0,4480,00:03:00.251739
879,RAW_IMU,180351840,6900.0,-84,353,944,0,0,0,4480,00:03:00.351840
880,RAW_IMU,180451749,6900.0,-84,353,943,0,0,0,4480,00:03:00.451749
881,RAW_IMU,180551754,6900.0,-84,353,944,0,0,0,4480,00:03:00.551754
882,RAW_IMU,180651750,6900.0,-83,354,943,0,0,0,4480,00:03:00.651750
883,RAW_IMU,180751745,6900.0,-83,353,943,0,1,0,4480,00:03:00.751745
884,RAW_IMU,180851848,6900.0,-84,353,943,0,0,0,4480,00:03:00.851848
885,RAW_IMU,180951771,6900.0,-84,353,944,0,1,0,4480,00:03:00.951771
886,RAW_IMU,181051808,6900.0,-84,353,944,0,1,0,4480,00:03:01.051808
887,RAW_IMU,181151758,6900.0,-84,353,943,0,0,0,4480,00:03:01.151758
888,RAW_IMU,181251785,6900.0,-84,353,943,0,0,0,4480,00:03:01.251785
889,RAW_IMU,181351834,6900.0,-83,353,943,-1,0,0,4528,00:03:01.351834
890,RAW_IMU,181451759,6900.0,-84,353,943,0,1,0,4480,00:03:01.451759
891,RAW_IMU,181551768,6900.0,-84,353,944,0,0,0,4480,00:03:01.551768
892,RAW_IMU,181651696,6900.0,-83,353,943,0,0,0,4480,00:03:01.651696
893,RAW_IMU,181751760,6900.0,-84,353,944,0,0,0,4480,00:03:01.751760
894,RAW_IMU,181851835,6900.0,-83,353,944,0,1,0,4480,00:03:01.851835
895,RAW_IMU,181951746,6900.0,-84,353,943,0,0,0,4480,00:03:01.951746
896,RAW_IMU,182051761,6900.0,-84,353,943,0,0,0,4480,00:03:02.051761
897,RAW_IMU,182151760,6900.0,-84,353,943,0,0,0,4480,00:03:02.151760
898,RAW_IMU,182251697,6900.0,-83,353,943,-1,1,0,4480,00:03:02.251697
899,RAW_IMU,182351817,6900.0,-84,353,943,0,0,0,4480,00:03:02.351817
900,RAW_IMU,184451760,7000.0,-84,353,944,0,2,0,4480,00:03:04.451760
901,RAW_IMU,184551756,7000.0,-85,354,943,0,1,0,4480,00:03:04.551756
902,RAW_IMU,184651776,7000.0,-84,353,944,0,0,0,4432,00:03:04.651776
