,mavpackettype,time_usec,frequency,xacc,yacc,zacc,xgyro,ygyro,zgyro,temperature,time_elapsed
0,RAW_IMU,1912296104,0.0,42,-2,-1009,-5,4,-1,4528,00:31:52.296104
1,RAW_IMU,1912343382,0.0,42,-2,-1009,-5,5,0,4528,00:31:52.343382
2,RAW_IMU,1912443447,0.0,42,-2,-1008,-5,6,0,4528,00:31:52.443447
3,RAW_IMU,1912543409,0.0,42,-2,-1009,-5,6,0,4528,00:31:52.543409
4,RAW_IMU,1912643371,0.0,42,-2,-1009,-5,6,0,4528,00:31:52.643371
5,RAW_IMU,1912743401,0.0,42,-2,-1008,-4,7,0,4528,00:31:52.743401
6,RAW_IMU,1912843420,0.0,42,-2,-1008,-5,6,0,4528,00:31:52.843420
7,RAW_IMU,1912943420,0.0,42,-1,-1009,-4,5,-1,4528,00:31:52.943420
8,RAW_IMU,1913043412,0.0,42,-2,-1009,-4,6,0,4480,00:31:53.043412
9,RAW_IMU,1913143404,0.0,42,-2,-1009,-5,6,0,4480,00:31:53.143404
10,RAW_IMU,1913243407,0.0,42,-1,-1009,-5,6,0,4528,00:31:53.243407
11,RAW_IMU,1913343361,0.0,42,-2,-1009,-5,5,0,4528,00:31:53.343361
12,RAW_IMU,1913443444,0.0,42,-2,-1009,-5,5,0,4528,00:31:53.443444
13,RAW_IMU,1913543422,0.0,42,-1,-1009,-6,6,0,4480,00:31:53.543422
14,RAW_IMU,1913643396,0.0,42,-1,-1009,-4,5,0,4480,00:31:53.643396
15,RAW_IMU,1913743412,0.0,42,-2,-1009,-5,6,0,4480,00:31:53.743412
16,RAW_IMU,1913843360,0.0,42,-2,-1009,-5,5,0,4528,00:31:53.843360
17,RAW_IMU,1913943425,0.0,42,-2,-1009,-5,6,0,4528,00:31:53.943425
18,RAW_IMU,1914043415,0.0,42,-2,-1009,-5,5,0,4480,00:31:54.043415
19,RAW_IMU,1914143362,0.0,42,-2,-1009,-5,6,0,4528,00:31:54.143362
20,RAW_IMU,1914243435,0.0,42,-2,-1008,-4,6,0,4528,00:31:54.243435
21,RAW_IMU,1914343414,0.0,43,-2,-1009,-4,6,0,4480,00:31:54.343414
22,RAW_IMU,1914443387,0.0,42,-2,-1009,-4,5,0,4528,00:31:54.443387
23,RAW_IMU,1914543413,0.0,42,-2,-1009,-5,6,0,4480,00:31:54.543413
24,RAW_IMU,1914643410,0.0,42,-2,-1009,-5,6,0,4480,00:31:54.643410
25,RAW_IMU,1914743354,0.0,42,-2,-1009,-5,6,0,4528,00:31:54.743354
26,RAW_IMU,1914843402,0.0,42,-3,-1009,-5,6,0,4528,00:31:54.843402
27,RAW_IMU,1914943409,0.0,43,-2,-1009,-5,5,0,4480,00:31:54.943409
28,RAW_IMU,1915043383,0.0,42,-2,-1008,-4,6,-1,4528,00:31:55.043383
29,RAW_IMU,1915143424,0.0,43,-2,-1009,-4,6,0,4480,00:31:55.143424
30,RAW_IMU,1915243401,0.0,42,-1,-1009,-5,6,0,4528,00:31:55.243401
31,RAW_IMU,1915343373,0.0,43,-2,-1009,-5,6,-1,4528,00:31:55.343373
32,RAW_IMU,1915443416,0.0,42,-1,-1009,-5,6,0,4528,00:31:55.443416
33,RAW_IMU,1915543428,0.0,42,-2,-1010,-4,5,0,4528,00:31:55.543428
34,RAW_IMU,1915643383,0.0,42,-2,-1009,-4,5,0,4480,00:31:55.643383
35,RAW_IMU,1915743429,0.0,42,-2,-1009,-5,5,-1,4480,00:31:55.743429
36,RAW_IMU,1915843423,0.0,41,-1,-1009,-6,6,0,4528,00:31:55.843423
37,RAW_IMU,1915943383,0.0,42,-1,-1008,-5,6,-1,4528,00:31:55.943383
38,RAW_IMU,1916043427,0.0,42,-1,-1008,-5,7,0,4480,00:31:56.043427
39,RAW_IMU,1916143371,0.0,41,-3,-1009,-4,11,0,4480,00:31:56.143371
40,RAW_IMU,1916243407,0.0,41,-2,-1012,-5,5,0,4528,00:31:56.243407
41,RAW_IMU,1916343420,0.0,42,-3,-1007,-6,5,0,4528,00:31:56.343420
42,RAW_IMU,1916443379,0.0,42,-2,-1009,-5,6,0,4528,00:31:56.443379
43,RAW_IMU,1916543413,0.0,42,-1,-1008,-5,6,0,4480,00:31:56.543413
44,RAW_IMU,1916643435,0.0,43,-2,-1009,-5,6,0,4480,00:31:56.643435
45,RAW_IMU,1916743381,0.0,43,-2,-1009,-5,6,0,4480,00:31:56.743381
46,RAW_IMU,1916843404,0.0,43,-2,-1009,-5,6,0,4528,00:31:56.843404
47,RAW_IMU,1916943414,0.0,42,-2,-1009,-5,5,0,4480,00:31:56.943414
48,RAW_IMU,1917043376,0.0,42,-2,-1009,-5,6,0,4480,00:31:57.043376
49,RAW_IMU,1917143403,0.0,42,-2,-1008,-5,6,0,4528,00:31:57.143403
50,RAW_IMU,1917243408,0.0,42,-1,-1009,-5,6,0,4528,00:31:57.243408
51,RAW_IMU,1917343354,0.0,42,-2,-1008,-4,7,0,4528,00:31:57.343354
52,RAW_IMU,1917443407,0.0,43,-1,-1009,-5,6,0,4480,00:31:57.443407
53,RAW_IMU,1917543411,0.0,42,-1,-1008,-5,7,0,4528,00:31:57.543411
54,RAW_IMU,1917643400,0.0,42,-2,-1009,-5,7,0,4480,00:31:57.643400
55,RAW_IMU,1917743398,0.0,42,-2,-1008,-4,6,-1,4480,00:31:57.743398
56,RAW_IMU,1917843433,0.0,43,-2,-1009,-4,6,0,4528,00:31:57.843433
57,RAW_IMU,1917943371,0.0,42,-2,-1008,-5,5,0,4480,00:31:57.943371
58,RAW_IMU,1918043419,0.0,43,-2,-1009,-5,5,0,4528,00:31:58.043419
59,RAW_IMU,1918143414,0.0,42,-1,-1008,-5,7,0,4528,00:31:58.143414
60,RAW_IMU,1918243372,0.0,43,-2,-1009,-6,6,0,4528,00:31:58.243372
61,RAW_IMU,1918343425,0.0,42,-1,-1008,-4,7,0,4528,00:31:58.343425
62,RAW_IMU,1918443405,0.0,42,-2,-1009,-5,6,0,4528,00:31:58.443405
63,RAW_IMU,1918543384,0.0,42,-2,-1009,-5,5,0,4480,00:31:58.543384
64,RAW_IMU,1918643405,0.0,42,-2,-1009,-5,6,0,4480,00:31:58.643405
65,RAW_IMU,1918743414,0.0,43,-1,-1009,-5,5,0,4528,00:31:58.743414
66,RAW_IMU,1918843379,0.0,42,-2,-1009,-5,6,0,4480,00:31:58.843379
67,RAW_IMU,1918943419,0.0,43,-2,-1009,-5,6,-1,4528,00:31:58.943419
68,RAW_IMU,1919043408,0.0,42,-2,-1009,-5,6,0,4528,00:31:59.043408
69,RAW_IMU,1919143365,0.0,43,-2,-1009,-4,5,0,4528,00:31:59.143365
70,RAW_IMU,1919243416,0.0,42,-2,-1009,-5,6,0,4528,00:31:59.243416
71,RAW_IMU,1919343413,0.0,42,-1,-1009,-5,6,0,4480,00:31:59.343413
72,RAW_IMU,1919443370,0.0,42,-2,-1009,-4,6,0,4480,00:31:59.443370
73,RAW_IMU,1919543435,0.0,42,-2,-1009,-4,6,0,4528,00:31:59.543435
74,RAW_IMU,1919643429,0.0,43,-2,-1009,-5,6,0,4528,00:31:59.643429
75,RAW_IMU,1919743405,0.0,42,-2,-1009,-4,6,0,4528,00:31:59.743405
76,RAW_IMU,1919843407,0.0,43,-2,-1009,-5,6,0,4480,00:31:59.843407
77,RAW_IMU,1919943421,0.0,42,-2,-1009,-4,6,0,4480,00:31:59.943421
78,RAW_IMU,1920043366,0.0,42,-2,-1009,-6,7,0,4480,00:32:00.043366
79,RAW_IMU,1920143432,0.0,43,-2,-1009,-5,6,0,4528,00:32:00.143432
80,RAW_IMU,1920243413,0.0,42,-2,-1009,-5,7,0,4480,00:32:00.243413
81,RAW_IMU,1920343370,0.0,43,-2,-1009,-5,6,0,4528,00:32:00.343370
82,RAW_IMU,1920443417,0.0,42,-2,-1009,-5,6,0,4480,00:32:00.443417
83,RAW_IMU,1920543417,0.0,42,-2,-1009,-5,6,0,4480,00:32:00.543417
84,RAW_IMU,1920643367,0.0,43,-2,-1008,-5,6,0,4480,00:32:00.643367
85,RAW_IMU,1920743428,0.0,42,-2,-1009,-6,6,0,4480,00:32:00.743428
86,RAW_IMU,1920843407,0.0,42,-2,-1009,-5,6,0,4480,00:32:00.843407
87,RAW_IMU,1920943352,0.0,42,-2,-1009,-3,6,0,4528,00:32:00.943352
88,RAW_IMU,1921043400,0.0,42,-2,-1008,-5,5,0,4528,00:32:01.043400
89,RAW_IMU,1921143406,0.0,43,-2,-1009,-5,7,0,4480,00:32:01.143406
90,RAW_IMU,1921243356,0.0,43,-2,-1009,-5,6,-1,4528,00:32:01.243356
91,RAW_IMU,1921343434,0.0,42,-2,-1008,-5,5,0,4480,00:32:01.343434
92,RAW_IMU,1921443427,0.0,42,-2,-1009,-5,6,0,4480,00:32:01.443427
93,RAW_IMU,1921543381,0.0,42,-2,-1009,-5,5,0,4528,00:32:01.543381
94,RAW_IMU,1921643406,0.0,43,-2,-1009,-4,5,0,4528,00:32:01.643406
95,RAW_IMU,1921743406,0.0,43,-2,-1009,-5,6,0,4480,00:32:01.743406
96,RAW_IMU,1921843435,0.0,42,-2,-1008,-5,6,-1,4528,00:32:01.843435
97,RAW_IMU,1921943444,0.0,42,-2,-1009,-5,6,-1,4528,00:32:01.943444
98,RAW_IMU,1922043414,0.0,43,-2,-1009,-6,7,0,4528,00:32:02.043414
99,RAW_IMU,1922143365,0.0,42,-2,-1009,-4,6,-1,4480,00:32:02.143365
100,RAW_IMU,1923043355,0.0,42,-2,-1009,-5,6,0,4528,00:32:03.043355
101,RAW_IMU,1923143415,0.0,43,-2,-1010,-5,7,0,4480,00:32:03.143415
102,RAW_IMU,1923243421,0.0,42,-2,-1010,-5,7,0,4480,00:32:03.243421
103,RAW_IMU,1923343385,0.0,42,-2,-1009,-5,6,0,4480,00:32:03.343385
104,RAW_IMU,1923443417,0.0,43,-2,-1009,-5,6,0,4528,00:32:03.443417
105,RAW_IMU,1923543412,0.0,43,-2,-1009,-5,6,0,4528,00:32:03.543412
106,RAW_IMU,1923643362,0.0,42,-2,-1009,-5,6,0,4528,00:32:03.643362
107,RAW_IMU,1923743408,0.0,42,-2,-1009,-5,6,0,4528,00:32:03.743408
108,RAW_IMU,1923843404,0.0,42,-2,-1009,-4,7,0,4528,00:32:03.843404
109,RAW_IMU,1923943374,0.0,42,-2,-1008,-5,6,0,4480,00:32:03.943374
110,RAW_IMU,1926143405,25.0,42,-2,-1008,-3,9,0,4528,00:32:06.143405
111,RAW_IMU,1926243430,25.0,44,-2,-1010,-11,6,-1,4480,00:32:06.243430
112,RAW_IMU,1926343392,25.0,41,-2,-1008,0,6,0,4528,00:32:06.343392
113,RAW_IMU,1926443409,25.0,43,-3,-1010,-11,9,0,4480,00:32:06.443409
114,RAW_IMU,1926543414,25.0,42,-1,-1008,2,2,1,4480,00:32:06.543414
115,RAW_IMU,1926643395,25.0,43,-3,-1010,-12,9,-1,4480,00:32:06.643395
116,RAW_IMU,1926743416,25.0,41,-1,-1007,2,2,0,4528,00:32:06.743416
117,RAW_IMU,1926843414,25.0,43,-2,-1010,-12,8,-1,4480,00:32:06.843414
118,RAW_IMU,1926943362,25.0,41,-2,-1009,0,6,0,4528,00:32:06.943362
119,RAW_IMU,1927043419,25.0,43,-2,-1010,-12,7,0,4528,00:32:07.043419
120,RAW_IMU,1929143402,50.0,42,-1,-1009,0,0,0,4528,00:32:09.143402
121,RAW_IMU,1929243412,50.0,41,-2,-1011,-8,14,-2,4480,00:32:09.243412
122,RAW_IMU,1929343360,50.0,42,-2,-1011,-7,13,-2,4528,00:32:09.343360
123,RAW_IMU,1929443427,50.0,42,-2,-1013,-9,17,-1,4528,00:32:09.443427
124,RAW_IMU,1929543429,50.0,42,-2,-1012,-10,17,-2,4528,00:32:09.543429
125,RAW_IMU,1929643363,50.0,41,-2,-1012,-9,18,-2,4528,00:32:09.643363
126,RAW_IMU,1929743400,50.0,43,-2,-1012,-9,17,-2,4480,00:32:09.743400
127,RAW_IMU,1929843414,50.0,42,-2,-1012,-8,15,-3,4528,00:32:09.843414
128,RAW_IMU,1929943365,50.0,42,-2,-1012,-8,15,-2,4528,00:32:09.943365
129,RAW_IMU,1930043432,50.0,42,-2,-1012,-10,18,-2,4480,00:32:10.043432
130,RAW_IMU,1932143412,75.0,42,-2,-1009,-8,20,-2,4528,00:32:12.143412
131,RAW_IMU,1932243422,75.0,44,-2,-1010,-10,5,-1,4480,00:32:12.243422
132,RAW_IMU,1932343389,75.0,41,-2,-1008,0,14,0,4528,00:32:12.343389
133,RAW_IMU,1932443419,75.0,43,-3,-1010,-14,11,0,4480,00:32:12.443419
134,RAW_IMU,1932543420,75.0,41,-1,-1007,2,6,0,4528,00:32:12.543420
135,RAW_IMU,1932643381,75.0,43,-2,-1010,-13,10,-1,4480,00:32:12.643381
136,RAW_IMU,1932743412,75.0,41,-1,-1007,2,7,0,4528,00:32:12.743412
137,RAW_IMU,1932843407,75.0,43,-2,-1011,-11,3,-1,4528,00:32:12.843407
138,RAW_IMU,1932943367,75.0,41,-2,-1007,1,5,0,4528,00:32:12.943367
139,RAW_IMU,1933043404,75.0,43,-3,-1011,-14,8,-1,4480,00:32:13.043404
140,RAW_IMU,1935143396,100.0,41,-1,-1007,0,5,0,4528,00:32:15.143396
141,RAW_IMU,1935243402,100.0,41,-2,-1008,-7,14,0,4480,00:32:15.243402
142,RAW_IMU,1935343364,100.0,43,-2,-1007,-4,10,0,4528,00:32:15.343364
143,RAW_IMU,1935443351,100.0,42,-2,-1008,-4,11,0,4528,00:32:15.443351
144,RAW_IMU,1935543406,100.0,42,-2,-1008,-6,11,0,4480,00:32:15.543406
145,RAW_IMU,1935643404,100.0,42,-2,-1008,-5,12,0,4528,00:32:15.643404
146,RAW_IMU,1935743364,100.0,42,-2,-1008,-6,10,0,4528,00:32:15.743364
147,RAW_IMU,1935843433,100.0,42,-1,-1008,-4,11,0,4480,00:32:15.843433
148,RAW_IMU,1935943414,100.0,42,-2,-1008,-4,12,0,4480,00:32:15.943414
149,RAW_IMU,1936043363,100.0,42,-2,-1009,-5,11,0,4480,00:32:16.043363
150,RAW_IMU,1938243415,125.0,43,-2,-1009,-8,5,0,4480,00:32:18.243415
151,RAW_IMU,1938343403,125.0,42,-2,-1008,0,6,0,4480,00:32:18.343403
152,RAW_IMU,1938443376,125.0,43,-2,-1009,-9,5,0,4480,00:32:18.443376
153,RAW_IMU,1938543459,125.0,42,-2,-1007,-2,7,0,4528,00:32:18.543459
154,RAW_IMU,1938643421,125.0,43,-2,-1009,-9,4,-1,4528,00:32:18.643421
155,RAW_IMU,1938743373,125.0,42,-2,-1009,-3,5,0,4528,00:32:18.743373
156,RAW_IMU,1938843403,125.0,42,-2,-1008,-1,6,0,4528,00:32:18.843403
157,RAW_IMU,1938943431,125.0,43,-2,-1009,-8,7,-1,4480,00:32:18.943431
158,RAW_IMU,1939043372,125.0,41,-2,-1009,0,4,0,4480,00:32:19.043372
159,RAW_IMU,1939143403,125.0,43,-2,-1010,-8,6,-1,4480,00:32:19.143403
160,RAW_IMU,1941243416,150.0,43,-2,-1010,-9,6,0,4528,00:32:21.243416
161,RAW_IMU,1941343380,150.0,43,-2,-1009,-6,5,0,4528,00:32:21.343380
162,RAW_IMU,1941443414,150.0,42,-2,-1008,-7,7,0,4480,00:32:21.443414
163,RAW_IMU,1941543412,150.0,42,-1,-1008,-8,8,0,4528,00:32:21.543412
164,RAW_IMU,1941643413,150.0,43,-2,-1009,-6,5,0,4480,00:32:21.643413
165,RAW_IMU,1941743406,150.0,43,-1,-1009,-6,6,0,4480,00:32:21.743406
166,RAW_IMU,1941843411,150.0,43,-2,-1009,-7,6,0,4480,00:32:21.843411
167,RAW_IMU,1941943391,150.0,42,-1,-1008,-6,6,0,4480,00:32:21.943391
168,RAW_IMU,1942043427,150.0,42,-2,-1009,-7,7,0,4480,00:32:22.043427
169,RAW_IMU,1942143459,150.0,43,-1,-1009,-6,7,0,4528,00:32:22.143459
170,RAW_IMU,1944243406,175.0,42,-2,-1009,-3,3,0,4528,00:32:24.243406
171,RAW_IMU,1944343400,175.0,43,-2,-1008,-6,8,0,4528,00:32:24.343400
172,RAW_IMU,1944443418,175.0,42,-2,-1010,-4,3,-1,4480,00:32:24.443418
173,RAW_IMU,1944543438,175.0,42,-2,-1008,-7,9,0,4528,00:32:24.543438
174,RAW_IMU,1944643371,175.0,42,-3,-1009,-3,3,-1,4480,00:32:24.643371
175,RAW_IMU,1944743417,175.0,43,-2,-1008,-7,8,0,4528,00:32:24.743417
176,RAW_IMU,1944843425,175.0,42,-2,-1009,-3,3,0,4528,00:32:24.843425
177,RAW_IMU,1944943417,175.0,42,-1,-1008,-5,9,0,4528,00:32:24.943417
178,RAW_IMU,1945043434,175.0,42,-2,-1009,-3,3,0,4528,00:32:25.043434
179,RAW_IMU,1945143417,175.0,42,-2,-1009,-7,8,0,4528,00:32:25.143417
180,RAW_IMU,1947243419,200.0,42,-2,-1009,-5,5,0,4528,00:32:27.243419
181,RAW_IMU,1947343355,200.0,43,-2,-1008,-5,5,0,4480,00:32:27.343355
182,RAW_IMU,1947443410,200.0,42,-2,-1009,-4,3,0,4528,00:32:27.443410
183,RAW_IMU,1947543432,200.0,42,-2,-1009,-4,4,0,4528,00:32:27.543432
184,RAW_IMU,1947643360,200.0,42,-2,-1009,-4,3,0,4528,00:32:27.643360
185,RAW_IMU,1947743420,200.0,43,-2,-1008,-4,2,0,4480,00:32:27.743420
186,RAW_IMU,1947843419,200.0,42,-2,-1009,-5,4,0,4528,00:32:27.843419
187,RAW_IMU,1947943406,200.0,43,-2,-1008,-4,5,0,4528,00:32:27.943406
188,RAW_IMU,1948043412,200.0,42,-2,-1009,-3,2,0,4480,00:32:28.043412
189,RAW_IMU,1948143412,200.0,43,-2,-1009,-4,3,0,4528,00:32:28.143412
190,RAW_IMU,1950243448,225.0,42,-2,-1008,-6,7,0,4528,00:32:30.243448
191,RAW_IMU,1950343387,225.0,43,-2,-1010,-4,5,0,4480,00:32:30.343387
192,RAW_IMU,1950443417,225.0,42,-2,-1008,-5,7,0,4528,00:32:30.443417
193,RAW_IMU,1950543418,225.0,43,-1,-1010,-6,5,0,4480,00:32:30.543418
194,RAW_IMU,1950643389,225.0,42,-2,-1009,-5,5,0,4480,00:32:30.643389
195,RAW_IMU,1950743413,225.0,42,-2,-1009,-4,5,-1,4480,00:32:30.743413
196,RAW_IMU,1950843413,225.0,42,-2,-1008,-5,6,1,4480,00:32:30.843413
197,RAW_IMU,1950943420,225.0,43,-2,-1009,-5,6,0,4480,00:32:30.943420
198,RAW_IMU,1951043416,225.0,42,-2,-1008,-5,6,0,4528,00:32:31.043416
199,RAW_IMU,1951143429,225.0,42,-2,-1010,-5,6,-1,4480,00:32:31.143429
200,RAW_IMU,1953243422,250.0,42,-2,-1008,-5,9,-1,4480,00:32:33.243422
201,RAW_IMU,1953343423,250.0,42,-1,-1008,-5,8,0,4528,00:32:33.343423
202,RAW_IMU,1953443353,250.0,43,-2,-1008,-5,8,0,4528,00:32:33.443353
203,RAW_IMU,1953543420,250.0,42,-2,-1008,-6,8,0,4528,00:32:33.543420
204,RAW_IMU,1953643416,250.0,42,-1,-1008,-6,7,1,4528,00:32:33.643416
205,RAW_IMU,1953743377,250.0,42,-2,-1007,-5,9,0,4480,00:32:33.743377
206,RAW_IMU,1953843414,250.0,42,-2,-1008,-5,7,0,4528,00:32:33.843414
207,RAW_IMU,1953943409,250.0,42,-2,-1008,-5,8,0,4480,00:32:33.943409
208,RAW_IMU,1954043386,250.0,42,-2,-1008,-5,8,1,4480,00:32:34.043386
209,RAW_IMU,1954143425,250.0,42,-2,-1008,-5,8,1,4528,00:32:34.143425
210,RAW_IMU,1956243415,0.0,42,-2,-1009,-5,5,0,4528,00:32:36.243415
211,RAW_IMU,1956343409,0.0,43,-2,-1010,-4,7,-1,4528,00:32:36.343409
212,RAW_IMU,1956443404,0.0,42,-2,-1009,-5,7,0,4480,00:32:36.443404
213,RAW_IMU,1956543394,0.0,42,-2,-1009,-5,6,0,4528,00:32:36.543394
214,RAW_IMU,1956643419,0.0,43,-2,-1009,-5,6,0,4480,00:32:36.643419
215,RAW_IMU,1956743408,0.0,42,-1,-1009,-5,6,0,4480,00:32:36.743408
216,RAW_IMU,1956843370,0.0,42,-2,-1009,-4,6,0,4480,00:32:36.843370
217,RAW_IMU,1956943430,0.0,43,-2,-1009,-4,7,0,4528,00:32:36.943430
218,RAW_IMU,1957043421,0.0,42,-2,-1009,-5,5,0,4528,00:32:37.043421
219,RAW_IMU,1957143362,0.0,42,-2,-1009,-6,6,0,4480,00:32:37.143362
220,RAW_IMU,1959243389,25.0,43,-2,-1009,-2,5,0,4480,00:32:39.243389
221,RAW_IMU,1959343413,25.0,43,-2,-1010,-8,-2,-1,4480,00:32:39.343413
222,RAW_IMU,1959443406,25.0,41,-1,-1009,-2,16,0,4480,00:32:39.443406
223,RAW_IMU,1959543394,25.0,44,-2,-1009,-7,-4,0,4528,00:32:39.543394
224,RAW_IMU,1959643428,25.0,41,-2,-1008,-2,14,0,4480,00:32:39.643428
225,RAW_IMU,1959743416,25.0,44,-2,-1010,-9,-2,0,4528,00:32:39.743416
226,RAW_IMU,1959843375,25.0,41,-2,-1007,0,12,1,4480,00:32:39.843375
227,RAW_IMU,1959943411,25.0,44,-2,-1011,-9,-1,0,4480,00:32:39.943411
228,RAW_IMU,1960043408,25.0,42,-2,-1009,-2,15,0,4480,00:32:40.043408
229,RAW_IMU,1960143376,25.0,43,-2,-1009,-5,-5,0,4528,00:32:40.143376
230,RAW_IMU,1962243361,50.0,41,-2,-1009,-4,15,0,4528,00:32:42.243361
231,RAW_IMU,1962343414,50.0,42,-3,-1008,-2,0,-1,4528,00:32:42.343414
232,RAW_IMU,1962443416,50.0,43,-3,-1010,-1,1,-1,4528,00:32:42.443416
233,RAW_IMU,1962543357,50.0,43,-2,-1010,-2,3,-1,4480,00:32:42.543357
234,RAW_IMU,1962643426,50.0,44,-3,-1009,-1,3,0,4528,00:32:42.643426
235,RAW_IMU,1962743419,50.0,43,-3,-1010,-1,1,0,4480,00:32:42.743419
236,RAW_IMU,1962843388,50.0,43,-3,-1009,-2,1,0,4528,00:32:42.843388
237,RAW_IMU,1962943423,50.0,43,-3,-1009,-1,1,0,4480,00:32:42.943423
238,RAW_IMU,1963043426,50.0,43,-3,-1010,-2,2,-1,4528,00:32:43.043426
239,RAW_IMU,1963143360,50.0,43,-3,-1009,-3,3,0,4528,00:32:43.143360
240,RAW_IMU,1965243410,75.0,43,-2,-1009,-3,7,0,4528,00:32:45.243410
241,RAW_IMU,1965343366,75.0,44,-3,-1010,-4,-7,-1,4528,00:32:45.343366
242,RAW_IMU,1965443422,75.0,42,-2,-1007,-3,21,1,4528,00:32:45.443422
243,RAW_IMU,1965543435,75.0,44,-2,-1009,-4,-9,-1,4528,00:32:45.543435
244,RAW_IMU,1965643389,75.0,41,-2,-1007,-4,19,0,4480,00:32:45.643389
245,RAW_IMU,1965743415,75.0,44,-2,-1010,-4,-10,-1,4528,00:32:45.743415
246,RAW_IMU,1965843417,75.0,43,-3,-1009,-8,23,0,4528,00:32:45.843417
247,RAW_IMU,1965943401,75.0,43,-2,-1010,-2,-11,0,4480,00:32:45.943401
248,RAW_IMU,1966043346,75.0,41,-2,-1009,-4,20,1,4480,00:32:46.043346
249,RAW_IMU,1966143390,75.0,44,-2,-1010,-5,-10,0,4528,00:32:46.143390
250,RAW_IMU,1968243411,100.0,42,-2,-1009,-3,19,-1,4528,00:32:48.243411
251,RAW_IMU,1968343411,100.0,43,-1,-1009,-2,3,-1,4480,00:32:48.343411
252,RAW_IMU,1968443376,100.0,42,-1,-1009,-2,7,0,4528,00:32:48.443376
253,RAW_IMU,1968543434,100.0,42,-1,-1009,-1,7,-1,4528,00:32:48.543434
254,RAW_IMU,1968643409,100.0,42,-2,-1008,-2,6,-1,4528,00:32:48.643409
255,RAW_IMU,1968743364,100.0,43,-3,-1009,-3,6,-1,4528,00:32:48.743364
256,RAW_IMU,1968843408,100.0,42,-1,-1009,-2,8,-1,4480,00:32:48.843408
257,RAW_IMU,1968943406,100.0,43,-2,-1008,-3,6,-1,4528,00:32:48.943406
258,RAW_IMU,1969043369,100.0,42,-2,-1009,-2,6,0,4480,00:32:49.043369
259,RAW_IMU,1969143421,100.0,43,-1,-1009,-2,6,0,4480,00:32:49.143421
260,RAW_IMU,1971243411,125.0,42,-2,-1009,-1,4,-1,4528,00:32:51.243411
261,RAW_IMU,1971343413,125.0,43,-2,-1008,-8,8,0,4528,00:32:51.343413
262,RAW_IMU,1971443390,125.0,42,-2,-1009,-2,3,0,4480,00:32:51.443390
263,RAW_IMU,1971543428,125.0,43,-2,-1008,-8,7,0,4528,00:32:51.543428
264,RAW_IMU,1971643408,125.0,42,-2,-1009,-2,3,0,4480,00:32:51.643408
265,RAW_IMU,1971743377,125.0,43,-1,-1008,-8,8,0,4480,00:32:51.743377
266,RAW_IMU,1971843411,125.0,42,-2,-1009,-2,4,0,4480,00:32:51.843411
267,RAW_IMU,1971943425,125.0,43,-2,-1009,-8,8,0,4528,00:32:51.943425
268,RAW_IMU,1972043407,125.0,42,-2,-1009,-2,4,0,4528,00:32:52.043407
269,RAW_IMU,1972143427,125.0,43,-2,-1008,-8,7,0,4480,00:32:52.143427
270,RAW_IMU,1974243423,150.0,42,-2,-1010,-3,2,0,4528,00:32:54.243423
271,RAW_IMU,1974343426,150.0,42,-2,-1009,-3,2,-1,4528,00:32:54.343426
272,RAW_IMU,1974443364,150.0,43,-2,-1009,-4,3,0,4480,00:32:54.443364
273,RAW_IMU,1974543428,150.0,42,-2,-1010,-2,2,-1,4480,00:32:54.543428
274,RAW_IMU,1974643411,150.0,42,-2,-1010,-2,2,-1,4528,00:32:54.643411
275,RAW_IMU,1974743384,150.0,42,-2,-1009,-2,0,-1,4528,00:32:54.743384
276,RAW_IMU,1974843409,150.0,43,-2,-1009,-3,1,0,4528,00:32:54.843409
277,RAW_IMU,1974943412,150.0,42,-2,-1009,-4,3,0,4528,00:32:54.943412
278,RAW_IMU,1975043462,150.0,42,-2,-1009,-1,1,0,4528,00:32:55.043462
279,RAW_IMU,1975143411,150.0,42,-2,-1009,-2,2,0,4528,00:32:55.143411
280,RAW_IMU,1977243396,175.0,43,-2,-1008,-5,7,0,4480,00:32:57.243396
281,RAW_IMU,1977343408,175.0,42,-2,-1009,-5,6,0,4528,00:32:57.343408
282,RAW_IMU,1977443420,175.0,43,-2,-1008,-5,7,0,4528,00:32:57.443420
283,RAW_IMU,1977543367,175.0,42,-3,-1009,-5,4,0,4480,00:32:57.543367
284,RAW_IMU,1977643413,175.0,43,-2,-1008,-6,6,0,4480,00:32:57.643413
285,RAW_IMU,1977743426,175.0,42,-1,-1009,-5,7,0,4528,00:32:57.743426
286,RAW_IMU,1977843408,175.0,43,-2,-1009,-6,5,0,4528,00:32:57.843408
287,RAW_IMU,1977943402,175.0,42,-2,-1009,-4,6,0,4480,00:32:57.943402
288,RAW_IMU,1978043421,175.0,43,-2,-1008,-6,6,0,4480,00:32:58.043421
289,RAW_IMU,1978143433,175.0,42,-2,-1010,-5,7,0,4528,00:32:58.143433
290,RAW_IMU,1980243435,200.0,42,-2,-1008,-6,9,0,4528,00:33:00.243435
291,RAW_IMU,1980343413,200.0,42,-1,-1008,-6,9,-1,4480,00:33:00.343413
292,RAW_IMU,1980443375,200.0,42,-2,-1008,-6,9,0,4528,00:33:00.443375
293,RAW_IMU,1980543409,200.0,43,-2,-1008,-6,8,0,4528,00:33:00.543409
294,RAW_IMU,1980643429,200.0,42,-2,-1008,-6,9,0,4528,00:33:00.643429
295,RAW_IMU,1980743395,200.0,43,-2,-1008,-6,9,1,4480,00:33:00.743395
296,RAW_IMU,1980843442,200.0,42,-2,-1008,-6,9,0,4528,00:33:00.843442
297,RAW_IMU,1980943413,200.0,42,-1,-1007,-7,8,0,4528,00:33:00.943413
298,RAW_IMU,1981043406,200.0,43,-2,-1008,-6,9,0,4528,00:33:01.043406
299,RAW_IMU,1981143414,200.0,42,-2,-1008,-7,9,0,4528,00:33:01.143414
300,RAW_IMU,1983243416,225.0,43,-2,-1009,-5,7,0,4528,00:33:03.243416
301,RAW_IMU,1983343417,225.0,42,-2,-1008,-4,6,0,4480,00:33:03.343417
302,RAW_IMU,1983443425,225.0,43,-2,-1009,-4,5,0,4528,00:33:03.443425
303,RAW_IMU,1983543427,225.0,42,-2,-1009,-5,5,-1,4480,00:33:03.543427
304,RAW_IMU,1983643412,225.0,42,-2,-1009,-5,7,0,4528,00:33:03.643412
305,RAW_IMU,1983743396,225.0,42,-2,-1009,-5,6,0,4528,00:33:03.743396
306,RAW_IMU,1983843419,225.0,43,-2,-1010,-5,8,0,4528,00:33:03.843419
307,RAW_IMU,1983943410,225.0,42,-2,-1009,-4,6,0,4528,00:33:03.943410
308,RAW_IMU,1984043387,225.0,43,-2,-1010,-5,5,0,4480,00:33:04.043387
309,RAW_IMU,1984143406,225.0,42,-2,-1009,-5,6,0,4528,00:33:04.143406
310,RAW_IMU,1986243411,250.0,43,-2,-1009,-4,3,-1,4528,00:33:06.243411
311,RAW_IMU,1986343405,250.0,43,-1,-1009,-5,4,-1,4528,00:33:06.343405
312,RAW_IMU,1986443388,250.0,42,-2,-1009,-5,3,-2,4480,00:33:06.443388
313,RAW_IMU,1986543423,250.0,43,-2,-1010,-5,5,-1,4480,00:33:06.543423
314,RAW_IMU,1986643416,250.0,43,-2,-1010,-4,5,0,4528,00:33:06.643416
315,RAW_IMU,1986743356,250.0,43,-2,-1010,-5,3,-1,4528,00:33:06.743356
316,RAW_IMU,1986843405,250.0,42,-1,-1009,-5,3,-1,4528,00:33:06.843405
317,RAW_IMU,1986943434,250.0,43,-2,-1010,-4,5,-1,4528,00:33:06.943434
318,RAW_IMU,1987043424,250.0,43,-2,-1010,-5,4,-1,4528,00:33:07.043424
319,RAW_IMU,1987143445,250.0,43,-2,-1010,-5,4,-1,4528,00:33:07.143445
320,RAW_IMU,1989243365,0.0,42,-2,-1009,-4,7,0,4528,00:33:09.243365
321,RAW_IMU,1989343398,0.0,43,-2,-1009,-5,6,0,4528,00:33:09.343398
322,RAW_IMU,1989443397,0.0,42,-2,-1009,-5,6,-1,4528,00:33:09.443397
323,RAW_IMU,1989543366,0.0,42,-2,-1009,-5,6,0,4480,00:33:09.543366
324,RAW_IMU,1989643422,0.0,42,-2,-1009,-4,6,-1,4480,00:33:09.643422
325,RAW_IMU,1989743399,0.0,42,-2,-1008,-5,7,0,4528,00:33:09.743399
326,RAW_IMU,1989843412,0.0,42,-2,-1009,-5,6,0,4528,00:33:09.843412
327,RAW_IMU,1989943411,0.0,43,-2,-1009,-5,6,0,4528,00:33:09.943411
328,RAW_IMU,1990043369,0.0,43,-1,-1008,-4,7,0,4528,00:33:10.043369
329,RAW_IMU,1990143407,0.0,43,-3,-1008,-5,5,0,4528,00:33:10.143407
330,RAW_IMU,1992243418,25.0,43,-3,-1009,-6,5,0,4480,00:33:12.243418
331,RAW_IMU,1992343421,25.0,42,-1,-1008,0,-6,0,4480,00:33:12.343421
332,RAW_IMU,1992443461,25.0,42,-2,-1010,-10,20,-1,4480,00:33:12.443461
333,RAW_IMU,1992543435,25.0,43,-1,-1007,0,-8,0,4528,00:33:12.543435
334,RAW_IMU,1992643402,25.0,42,-3,-1010,-12,21,-1,4480,00:33:12.643402
335,RAW_IMU,1992743406,25.0,42,0,-1007,2,-9,1,4528,00:33:12.743406
336,RAW_IMU,1992843425,25.0,41,-3,-1010,-11,22,-1,4528,00:33:12.843425
337,RAW_IMU,1992943415,25.0,42,-1,-1008,0,-8,0,4480,00:33:12.943415
338,RAW_IMU,1993043394,25.0,42,-3,-1011,-12,21,-1,4528,00:33:13.043394
339,RAW_IMU,1993143411,25.0,42,-1,-1008,1,-8,1,4480,00:33:13.143411
340,RAW_IMU,1995243369,50.0,43,-2,-1010,-14,21,0,4528,00:33:15.243369
341,RAW_IMU,1995343410,50.0,43,-2,-1010,-4,3,-1,4480,00:33:15.343410
342,RAW_IMU,1995443431,50.0,43,-2,-1011,-7,8,-2,4480,00:33:15.443431
343,RAW_IMU,1995543415,50.0,43,-2,-1011,-8,10,0,4528,00:33:15.543415
344,RAW_IMU,1995643394,50.0,43,-3,-1012,-7,9,-2,4480,00:33:15.643394
345,RAW_IMU,1995743413,50.0,43,-3,-1011,-9,10,-1,4528,00:33:15.743413
346,RAW_IMU,1995843430,50.0,42,-2,-1012,-9,12,-1,4528,00:33:15.843430
347,RAW_IMU,1995943387,50.0,44,-2,-1011,-8,10,-1,4528,00:33:15.943387
348,RAW_IMU,1996043435,50.0,43,-3,-1012,-7,8,-1,4480,00:33:16.043435
349,RAW_IMU,1996143419,50.0,43,-2,-1011,-8,10,-2,4480,00:33:16.143419
350,RAW_IMU,1998243407,75.0,43,-3,-1012,-6,11,-1,4528,00:33:18.243407
351,RAW_IMU,1998343377,75.0,42,-2,-1008,-1,-1,0,4528,00:33:18.343377
352,RAW_IMU,1998443410,75.0,43,-3,-1011,-13,26,-2,4480,00:33:18.443410
353,RAW_IMU,1998543413,75.0,42,-1,-1007,2,-10,2,4480,00:33:18.543413
354,RAW_IMU,1998643396,75.0,43,-3,-1010,-13,24,-2,4480,00:33:18.643396
355,RAW_IMU,1998743421,75.0,42,-1,-1007,2,-11,1,4528,00:33:18.743421
356,RAW_IMU,1998843427,75.0,43,-3,-1011,-14,23,-1,4528,00:33:18.843427
357,RAW_IMU,1998943374,75.0,42,0,-1006,4,-10,1,4528,00:33:18.943374
358,RAW_IMU,1999043416,75.0,42,-3,-1010,-13,23,-2,4528,00:33:19.043416
359,RAW_IMU,1999143409,75.0,42,-1,-1006,2,-11,1,4480,00:33:19.143409
360,RAW_IMU,2001243354,100.0,43,-3,-1010,-13,24,-1,4528,00:33:21.243354
361,RAW_IMU,2001343352,100.0,43,-1,-1009,0,-3,0,4528,00:33:21.343352
362,RAW_IMU,2001443404,100.0,42,-1,-1010,-3,3,0,4528,00:33:21.443404
363,RAW_IMU,2001543422,100.0,43,-2,-1010,-4,2,-1,4480,00:33:21.543422
364,RAW_IMU,2001643394,100.0,42,-2,-1009,-4,2,0,4480,00:33:21.643394
365,RAW_IMU,2001743413,100.0,42,-2,-1009,-3,2,0,4528,00:33:21.743413
366,RAW_IMU,2001843405,100.0,42,-2,-1009,-4,2,0,4528,00:33:21.843405
367,RAW_IMU,2001943350,100.0,42,-2,-1010,-3,1,0,4528,00:33:21.943350
368,RAW_IMU,2002043408,100.0,43,-2,-1009,-3,3,0,4480,00:33:22.043408
369,RAW_IMU,2002143412,100.0,42,-2,-1010,-3,1,0,4528,00:33:22.143412
370,RAW_IMU,2004243414,125.0,43,-2,-1010,-6,1,0,4528,00:33:24.243414
371,RAW_IMU,2004343370,125.0,42,-2,-1007,-2,8,0,4480,00:33:24.343370
372,RAW_IMU,2004443409,125.0,42,-2,-1010,-7,3,0,4528,00:33:24.443409
373,RAW_IMU,2004543417,125.0,42,-2,-1008,-3,9,0,4528,00:33:24.543417
374,RAW_IMU,2004643362,125.0,43,-3,-1009,-8,4,0,4528,00:33:24.643362
375,RAW_IMU,2004743433,125.0,42,-1,-1007,-3,8,0,4528,00:33:24.743433
376,RAW_IMU,2004843404,125.0,43,-3,-1009,-7,4,-1,4528,00:33:24.843404
377,RAW_IMU,2004943367,125.0,42,-2,-1007,-2,8,0,4528,00:33:24.943367
378,RAW_IMU,2005043416,125.0,43,-3,-1010,-8,3,0,4528,00:33:25.043416
379,RAW_IMU,2005143412,125.0,42,-1,-1008,-3,8,0,4480,00:33:25.143412
380,RAW_IMU,2007243421,150.0,43,-2,-1009,-9,9,0,4528,00:33:27.243421
381,RAW_IMU,2007343409,150.0,43,-1,-1009,-10,9,0,4480,00:33:27.343409
382,RAW_IMU,2007443340,150.0,43,-1,-1008,-9,9,0,4528,00:33:27.443340
383,RAW_IMU,2007543422,150.0,43,-1,-1009,-9,9,1,4528,00:33:27.543422
384,RAW_IMU,2007643424,150.0,42,-2,-1009,-8,8,0,4480,00:33:27.643424
385,RAW_IMU,2007743363,150.0,42,-1,-1009,-8,10,1,4528,00:33:27.743363
386,RAW_IMU,2007843417,150.0,43,-2,-1009,-10,9,0,4528,00:33:27.843417
387,RAW_IMU,2007943421,150.0,43,-1,-1009,-9,10,0,4528,00:33:27.943421
388,RAW_IMU,2008043389,150.0,43,-1,-1009,-9,9,0,4480,00:33:28.043389
389,RAW_IMU,2008143401,150.0,43,-1,-1009,-8,8,0,4480,00:33:28.143401
390,RAW_IMU,2010243403,175.0,42,-2,-1009,-7,10,0,4528,00:33:30.243403
391,RAW_IMU,2010343406,175.0,43,-2,-1009,-4,3,-1,4528,00:33:30.343406
392,RAW_IMU,2010443359,175.0,42,-1,-1009,-5,8,0,4480,00:33:30.443359
393,RAW_IMU,2010543441,175.0,43,-2,-1009,-4,4,0,4480,00:33:30.543441
394,RAW_IMU,2010643408,175.0,42,-2,-1008,-7,8,0,4480,00:33:30.643408
395,RAW_IMU,2010743359,175.0,43,-2,-1009,-6,4,0,4528,00:33:30.743359
396,RAW_IMU,2010843413,175.0,42,-2,-1008,-5,8,0,4528,00:33:30.843413
397,RAW_IMU,2010943422,175.0,43,-2,-1008,-4,4,0,4528,00:33:30.943422
398,RAW_IMU,2011043375,175.0,42,-1,-1009,-6,8,-1,4480,00:33:31.043375
399,RAW_IMU,2011143420,175.0,42,-2,-1009,-4,3,0,4528,00:33:31.143420
400,RAW_IMU,2013243413,200.0,43,-2,-1009,-4,4,-1,4528,00:33:33.243413
401,RAW_IMU,2013343416,200.0,42,-2,-1010,-4,3,0,4480,00:33:33.343416
402,RAW_IMU,2013443416,200.0,43,-2,-1010,-3,3,-1,4528,00:33:33.443416
403,RAW_IMU,2013543384,200.0,43,-2,-1010,-4,4,0,4480,00:33:33.543384
404,RAW_IMU,2013643424,200.0,42,-2,-1010,-4,5,-1,4528,00:33:33.643424
405,RAW_IMU,2013743411,200.0,42,-2,-1010,-4,4,-1,4480,00:33:33.743411
406,RAW_IMU,2013843360,200.0,43,-2,-1009,-5,5,-1,4480,00:33:33.843360
407,RAW_IMU,2013943365,200.0,42,-2,-1010,-4,2,-1,4528,00:33:33.943365
408,RAW_IMU,2014043444,200.0,42,-2,-1010,-4,4,-1,4480,00:33:34.043444
409,RAW_IMU,2014143418,200.0,42,-2,-1010,-3,4,-1,4528,00:33:34.143418
410,RAW_IMU,2016243410,225.0,42,-2,-1009,-5,3,0,4480,00:33:36.243410
411,RAW_IMU,2016343424,225.0,43,-2,-1009,-5,8,0,4528,00:33:36.343424
412,RAW_IMU,2016443378,225.0,42,-1,-1009,-4,3,-1,4528,00:33:36.443378
413,RAW_IMU,2016543417,225.0,42,-1,-1010,-5,7,0,4480,00:33:36.543417
414,RAW_IMU,2016643410,225.0,42,-2,-1008,-5,6,0,4480,00:33:36.643410
415,RAW_IMU,2016743381,225.0,42,-2,-1009,-6,7,-1,4528,00:33:36.743381
416,RAW_IMU,2016843419,225.0,42,-2,-1010,-5,4,0,4480,00:33:36.843419
417,RAW_IMU,2016943412,225.0,43,-2,-1009,-5,7,0,4528,00:33:36.943412
418,RAW_IMU,2017043419,225.0,42,-2,-1009,-5,4,-1,4528,00:33:37.043419
419,RAW_IMU,2017143412,225.0,42,-2,-1009,-5,7,0,4528,00:33:37.143412
420,RAW_IMU,2019243399,250.0,41,-2,-1009,-5,8,0,4528,00:33:39.243399
421,RAW_IMU,2019343401,250.0,42,-2,-1008,-6,8,0,4528,00:33:39.343401
422,RAW_IMU,2019443384,250.0,43,-2,-1008,-5,9,0,4480,00:33:39.443384
423,RAW_IMU,2019543425,250.0,42,-2,-1008,-5,7,0,4480,00:33:39.543425
424,RAW_IMU,2019643417,250.0,42,-2,-1008,-6,8,0,4480,00:33:39.643417
425,RAW_IMU,2019743358,250.0,42,-2,-1008,-6,7,0,4480,00:33:39.743358
426,RAW_IMU,2019843409,250.0,42,-2,-1008,-6,8,0,4528,00:33:39.843409
427,RAW_IMU,2019943412,250.0,42,-2,-1008,-5,8,0,4528,00:33:39.943412
428,RAW_IMU,2020043365,250.0,42,-1,-1008,-5,8,0,4528,00:33:40.043365
429,RAW_IMU,2020143411,250.0,42,-2,-1008,-5,8,0,4528,00:33:40.143411
430,RAW_IMU,2022243417,0.0,42,-1,-1009,-5,5,0,4480,00:33:42.243417
431,RAW_IMU,2022343411,0.0,43,-1,-1009,-5,6,0,4528,00:33:42.343411
432,RAW_IMU,2022443369,0.0,42,-2,-1009,-5,6,0,4480,00:33:42.443369
433,RAW_IMU,2022543425,0.0,43,-2,-1009,-5,6,0,4528,00:33:42.543425
434,RAW_IMU,2022643429,0.0,43,-2,-1009,-4,6,-1,4528,00:33:42.643429
435,RAW_IMU,2022743367,0.0,42,-2,-1009,-5,6,0,4528,00:33:42.743367
436,RAW_IMU,2022843408,0.0,42,-2,-1009,-5,7,0,4528,00:33:42.843408
437,RAW_IMU,2022943414,0.0,42,-2,-1010,-5,6,0,4528,00:33:42.943414
438,RAW_IMU,2023043396,0.0,43,-2,-1009,-6,5,0,4480,00:33:43.043396
439,RAW_IMU,2023143420,0.0,42,-2,-1009,-5,6,0,4528,00:33:43.143420
440,RAW_IMU,2025243461,25.0,43,-2,-1010,-7,5,0,4528,00:33:45.243461
441,RAW_IMU,2025343380,25.0,41,-1,-1007,2,0,0,4480,00:33:45.343380
442,RAW_IMU,2025443417,25.0,44,-3,-1010,-15,15,-1,4528,00:33:45.443417
443,RAW_IMU,2025543424,25.0,41,-1,-1007,3,-2,1,4528,00:33:45.543424
444,RAW_IMU,2025643466,25.0,43,-3,-1010,-15,18,-1,4528,00:33:45.643466
445,RAW_IMU,2025743412,25.0,42,-1,-1007,4,-4,1,4528,00:33:45.743412
446,RAW_IMU,2025843430,25.0,43,-3,-1010,-14,15,-1,4528,00:33:45.843430
447,RAW_IMU,2025943410,25.0,42,-1,-1007,5,-4,1,4528,00:33:45.943410
448,RAW_IMU,2026043409,25.0,44,-2,-1010,-14,16,-1,4480,00:33:46.043409
449,RAW_IMU,2026143410,25.0,42,-1,-1007,4,-3,1,4528,00:33:46.143410
450,RAW_IMU,2028243384,50.0,43,-2,-1010,-16,22,0,4528,00:33:48.243384
451,RAW_IMU,2028343408,50.0,44,-2,-1010,-7,12,0,4480,00:33:48.343408
452,RAW_IMU,2028443423,50.0,43,-2,-1011,-11,18,-1,4480,00:33:48.443423
453,RAW_IMU,2028543400,50.0,43,-2,-1011,-11,20,0,4528,00:33:48.543400
454,RAW_IMU,2028643424,50.0,42,-2,-1011,-13,20,-1,4528,00:33:48.643424
455,RAW_IMU,2028743417,50.0,43,-3,-1011,-12,21,-1,4528,00:33:48.743417
456,RAW_IMU,2028843402,50.0,42,-2,-1012,-12,20,-1,4480,00:33:48.843402
457,RAW_IMU,2028943399,50.0,43,-2,-1011,-12,21,-1,4480,00:33:48.943399
458,RAW_IMU,2029043419,50.0,43,-2,-1011,-12,21,-1,4480,00:33:49.043419
459,RAW_IMU,2029143416,50.0,43,-2,-1012,-11,20,-1,4528,00:33:49.143416
460,RAW_IMU,2031243440,75.0,43,-3,-1012,-11,18,-1,4480,00:33:51.243440
461,RAW_IMU,2031343416,75.0,41,-2,-1009,0,4,0,4528,00:33:51.343416
462,RAW_IMU,2031443420,75.0,44,-3,-1011,-17,20,-2,4480,00:33:51.443420
463,RAW_IMU,2031543416,75.0,42,-1,-1009,4,-3,0,4480,00:33:51.543416
464,RAW_IMU,2031643385,75.0,44,-3,-1011,-17,19,-1,4528,00:33:51.643385
465,RAW_IMU,2031743413,75.0,41,0,-1008,5,-4,0,4528,00:33:51.743413
466,RAW_IMU,2031843408,75.0,43,-4,-1010,-15,14,-1,4480,00:33:51.843408
467,RAW_IMU,2031943366,75.0,41,0,-1007,4,0,0,4480,00:33:51.943366
468,RAW_IMU,2032043420,75.0,43,-3,-1011,-16,19,-1,4528,00:33:52.043420
469,RAW_IMU,2032143431,75.0,42,-1,-1008,5,-4,0,4528,00:33:52.143431
470,RAW_IMU,2034243379,100.0,44,-3,-1012,-18,14,-2,4528,00:33:54.243379
471,RAW_IMU,2034343356,100.0,43,-1,-1009,-4,0,0,4528,00:33:54.343356
472,RAW_IMU,2034443413,100.0,43,-2,-1009,-6,2,0,4528,00:33:54.443413
473,RAW_IMU,2034543414,100.0,43,-1,-1009,-7,2,0,4528,00:33:54.543414
474,RAW_IMU,2034643394,100.0,43,-2,-1009,-6,2,0,4528,00:33:54.643394
475,RAW_IMU,2034743409,100.0,43,-2,-1009,-7,3,0,4480,00:33:54.743409
476,RAW_IMU,2034843418,100.0,43,-2,-1010,-7,1,0,4480,00:33:54.843418
477,RAW_IMU,2034943386,100.0,43,-2,-1010,-7,1,0,4480,00:33:54.943386
478,RAW_IMU,2035043424,100.0,43,-1,-1009,-7,1,0,4480,00:33:55.043424
479,RAW_IMU,2035143411,100.0,43,-2,-1010,-7,3,0,4480,00:33:55.143411
480,RAW_IMU,2037243407,125.0,43,-1,-1009,-7,7,0,4480,00:33:57.243407
481,RAW_IMU,2037343384,125.0,42,-2,-1009,-2,4,0,4480,00:33:57.343384
482,RAW_IMU,2037443409,125.0,43,-2,-1009,-7,8,0,4528,00:33:57.443409
483,RAW_IMU,2037543435,125.0,42,-2,-1010,-2,4,0,4528,00:33:57.543435
484,RAW_IMU,2037643375,125.0,43,-2,-1009,-9,8,0,4528,00:33:57.643375
485,RAW_IMU,2037743441,125.0,42,-2,-1009,-1,4,0,4528,00:33:57.743441
486,RAW_IMU,2037843408,125.0,43,-2,-1008,-9,8,0,4480,00:33:57.843408
487,RAW_IMU,2037943368,125.0,42,-2,-1009,-2,6,0,4528,00:33:57.943368
488,RAW_IMU,2038043405,125.0,43,-2,-1009,-8,8,0,4480,00:33:58.043405
489,RAW_IMU,2038143421,125.0,42,-1,-1010,-2,3,0,4480,00:33:58.143421
490,RAW_IMU,2040243417,150.0,42,-2,-1008,-5,9,0,4528,00:34:00.243417
491,RAW_IMU,2040343366,150.0,42,-2,-1009,-8,10,-1,4480,00:34:00.343366
492,RAW_IMU,2040443407,150.0,42,-2,-1008,-7,10,0,4480,00:34:00.443407
493,RAW_IMU,2040543405,150.0,43,-2,-1008,-6,9,0,4480,00:34:00.543405
494,RAW_IMU,2040643352,150.0,43,-2,-1008,-5,8,0,4528,00:34:00.643352
495,RAW_IMU,2040743411,150.0,42,-2,-1008,-8,10,0,4528,00:34:00.743411
496,RAW_IMU,2040843418,150.0,43,-2,-1009,-7,10,0,4528,00:34:00.843418
497,RAW_IMU,2040943363,150.0,43,-2,-1009,-8,10,0,4528,00:34:00.943363
498,RAW_IMU,2041043405,150.0,42,-1,-1008,-7,8,0,4528,00:34:01.043405
499,RAW_IMU,2041143421,150.0,43,-2,-1008,-7,9,0,4528,00:34:01.143421
500,RAW_IMU,2043243408,175.0,43,-2,-1009,-3,4,0,4480,00:34:03.243408
501,RAW_IMU,2043343389,175.0,43,-2,-1008,-6,8,0,4480,00:34:03.343389
502,RAW_IMU,2043443420,175.0,42,-2,-1010,-3,3,0,4528,00:34:03.443420
503,RAW_IMU,2043543411,175.0,42,-2,-1009,-6,8,0,4528,00:34:03.543411
504,RAW_IMU,2043643410,175.0,43,-2,-1010,-4,4,0,4528,00:34:03.643410
505,RAW_IMU,2043743415,175.0,43,-2,-1008,-6,8,0,4480,00:34:03.743415
506,RAW_IMU,2043843411,175.0,42,-2,-1010,-4,4,0,4480,00:34:03.843411
507,RAW_IMU,2043943380,175.0,43,-2,-1009,-7,8,0,4528,00:34:03.943380
508,RAW_IMU,2044043431,175.0,42,-2,-1010,-3,4,0,4528,00:34:04.043431
509,RAW_IMU,2044143412,175.0,43,-2,-1009,-7,8,0,4480,00:34:04.143412
510,RAW_IMU,2046243412,200.0,43,-2,-1008,-5,7,0,4480,00:34:06.243412
511,RAW_IMU,2046343364,200.0,43,-2,-1008,-5,7,0,4480,00:34:06.343364
512,RAW_IMU,2046443433,200.0,43,-2,-1009,-3,4,-1,4480,00:34:06.443433
513,RAW_IMU,2046543428,200.0,43,-2,-1009,-4,5,0,4480,00:34:06.543428
514,RAW_IMU,2046643376,200.0,42,-2,-1008,-4,3,0,4528,00:34:06.643376
515,RAW_IMU,2046743408,200.0,43,-2,-1008,-5,4,0,4528,00:34:06.743408
516,RAW_IMU,2046843409,200.0,43,-1,-1008,-5,5,0,4480,00:34:06.843409
517,RAW_IMU,2046943388,200.0,43,-1,-1009,-5,5,0,4480,00:34:06.943388
518,RAW_IMU,2047043436,200.0,43,-2,-1009,-4,3,0,4480,00:34:07.043436
519,RAW_IMU,2047143410,200.0,43,-2,-1008,-5,4,0,4528,00:34:07.143410
520,RAW_IMU,2049243426,225.0,43,-2,-1009,-6,8,0,4528,00:34:09.243426
521,RAW_IMU,2049343365,225.0,43,-2,-1009,-5,4,0,4528,00:34:09.343365
522,RAW_IMU,2049443414,225.0,42,-2,-1008,-5,9,1,4480,00:34:09.443414
523,RAW_IMU,2049543413,225.0,43,-2,-1010,-5,4,-1,4528,00:34:09.543413
524,RAW_IMU,2049643360,225.0,43,-1,-1009,-6,9,0,4528,00:34:09.643360
525,RAW_IMU,2049743414,225.0,42,-2,-1009,-4,3,0,4528,00:34:09.743414
526,RAW_IMU,2049843423,225.0,42,-2,-1009,-5,8,0,4528,00:34:09.843423
527,RAW_IMU,2049943474,225.0,43,-2,-1010,-4,3,0,4528,00:34:09.943474
528,RAW_IMU,2050043424,225.0,42,-2,-1008,-5,8,0,4528,00:34:10.043424
529,RAW_IMU,2050143442,225.0,43,-2,-1010,-4,3,-1,4480,00:34:10.143442
530,RAW_IMU,2052243441,250.0,42,-2,-1009,-5,5,0,4480,00:34:12.243441
531,RAW_IMU,2052343397,250.0,43,-2,-1010,-5,5,0,4480,00:34:12.343397
532,RAW_IMU,2052443409,250.0,43,-1,-1010,-5,5,-1,4528,00:34:12.443409
533,RAW_IMU,2052543404,250.0,43,-2,-1009,-5,4,-1,4528,00:34:12.543404
534,RAW_IMU,2052643355,250.0,42,-1,-1010,-4,4,-1,4480,00:34:12.643355
535,RAW_IMU,2052743402,250.0,43,-2,-1010,-5,4,-1,4528,00:34:12.743402
536,RAW_IMU,2052843420,250.0,43,-1,-1010,-5,6,-1,4528,00:34:12.843420
537,RAW_IMU,2052943354,250.0,43,-2,-1009,-5,5,-2,4480,00:34:12.943354
538,RAW_IMU,2053043409,250.0,43,-2,-1010,-5,6,-2,4528,00:34:13.043409
539,RAW_IMU,2053143397,250.0,43,-2,-1010,-4,5,-1,4528,00:34:13.143397
540,RAW_IMU,2055243411,0.0,42,-2,-1009,-5,7,0,4528,00:34:15.243411
541,RAW_IMU,2055343360,0.0,42,-2,-1009,-4,6,0,4480,00:34:15.343360
542,RAW_IMU,2055443425,0.0,43,-2,-1009,-5,6,0,4480,00:34:15.443425
543,RAW_IMU,2055543439,0.0,43,-2,-1009,-5,7,0,4480,00:34:15.543439
544,RAW_IMU,2055643364,0.0,42,-2,-1009,-6,6,0,4528,00:34:15.643364
545,RAW_IMU,2055743443,0.0,42,-2,-1009,-5,5,0,4528,00:34:15.743443
546,RAW_IMU,2055843403,0.0,43,-2,-1009,-4,6,0,4528,00:34:15.843403
547,RAW_IMU,2055943375,0.0,43,-2,-1009,-6,6,0,4528,00:34:15.943375
548,RAW_IMU,2056043401,0.0,43,-2,-1009,-5,6,0,4528,00:34:16.043401
549,RAW_IMU,2056143412,0.0,43,-2,-1009,-5,5,0,4528,00:34:16.143412
550,RAW_IMU,2058243410,25.0,43,-2,-1010,-6,7,0,4528,00:34:18.243410
551,RAW_IMU,2058343417,25.0,41,-2,-1008,-2,11,0,4480,00:34:18.343417
552,RAW_IMU,2058443376,25.0,44,-2,-1010,-11,4,-1,4480,00:34:18.443376
553,RAW_IMU,2058543422,25.0,41,-1,-1008,1,6,0,4480,00:34:18.543422
554,RAW_IMU,2058643408,25.0,44,-3,-1010,-9,4,0,4480,00:34:18.643408
555,RAW_IMU,2058743361,25.0,41,-1,-1009,-1,9,0,4480,00:34:18.743361
556,RAW_IMU,2058843402,25.0,43,-2,-1010,-10,4,0,4528,00:34:18.843402
557,RAW_IMU,2058943352,25.0,41,-1,-1008,1,5,0,4480,00:34:18.943352
558,RAW_IMU,2059043459,25.0,43,-3,-1011,-13,9,-1,4528,00:34:19.043459
559,RAW_IMU,2059143422,25.0,42,-1,-1008,0,6,0,4480,00:34:19.143422
560,RAW_IMU,2061243414,50.0,44,-2,-1010,-9,7,-1,4480,00:34:21.243414
561,RAW_IMU,2061343407,50.0,43,-2,-1011,-6,11,-1,4528,00:34:21.343407
562,RAW_IMU,2061443373,50.0,42,-2,-1011,-9,16,-2,4528,00:34:21.443373
563,RAW_IMU,2061543409,50.0,43,-2,-1012,-8,14,-1,4528,00:34:21.543409
564,RAW_IMU,2061643405,50.0,42,-2,-1012,-9,15,-3,4528,00:34:21.643405
565,RAW_IMU,2061743367,50.0,42,-2,-1013,-9,17,-1,4480,00:34:21.743367
566,RAW_IMU,2061843441,50.0,43,-2,-1012,-9,18,-2,4528,00:34:21.843441
567,RAW_IMU,2061943417,50.0,42,-2,-1012,-9,16,-1,4480,00:34:21.943417
568,RAW_IMU,2062043378,50.0,42,-2,-1012,-9,18,-2,4528,00:34:22.043378
569,RAW_IMU,2062143418,50.0,42,-2,-1012,-8,17,-3,4528,00:34:22.143418
570,RAW_IMU,2064243432,75.0,42,-2,-1013,-12,18,-1,4480,00:34:24.243432
571,RAW_IMU,2064343417,75.0,41,-1,-1009,-3,16,0,4480,00:34:24.343417
572,RAW_IMU,2064443381,75.0,44,-2,-1011,-10,1,-1,4480,00:34:24.443381
573,RAW_IMU,2064543418,75.0,42,-2,-1008,1,13,0,4480,00:34:24.543418
574,RAW_IMU,2064643429,75.0,44,-3,-1011,-11,0,-1,4480,00:34:24.643429
575,RAW_IMU,2064743362,75.0,41,-1,-1008,-1,17,1,4480,00:34:24.743362
576,RAW_IMU,2064843404,75.0,44,-3,-1011,-13,5,-1,4480,00:34:24.843404
577,RAW_IMU,2064943404,75.0,41,-1,-1007,0,11,0,4528,00:34:24.943404
578,RAW_IMU,2065043399,75.0,44,-2,-1010,-9,0,-1,4480,00:34:25.043399
579,RAW_IMU,2065143414,75.0,41,-1,-1008,0,11,0,4528,00:34:25.143414
580,RAW_IMU,2067243411,100.0,44,-2,-1010,-13,2,0,4480,00:34:27.243411
581,RAW_IMU,2067343419,100.0,43,-2,-1009,-7,5,0,4480,00:34:27.343419
582,RAW_IMU,2067443393,100.0,42,-2,-1009,-8,6,0,4528,00:34:27.443393
583,RAW_IMU,2067543413,100.0,43,-2,-1009,-8,6,0,4480,00:34:27.543413
584,RAW_IMU,2067643412,100.0,43,-2,-1009,-8,6,0,4480,00:34:27.643412
585,RAW_IMU,2067743364,100.0,43,-2,-1009,-8,6,0,4528,00:34:27.743364
586,RAW_IMU,2067843369,100.0,43,-2,-1009,-8,8,0,4528,00:34:27.843369
587,RAW_IMU,2067943409,100.0,43,-2,-1009,-8,7,0,4528,00:34:27.943409
588,RAW_IMU,2068043439,100.0,42,-2,-1009,-7,7,0,4480,00:34:28.043439
589,RAW_IMU,2068143391,100.0,43,-2,-1009,-8,6,0,4480,00:34:28.143391
590,RAW_IMU,2070243361,125.0,42,-2,-1007,-4,9,0,4480,00:34:30.243361
591,RAW_IMU,2070343422,125.0,42,-3,-1010,-5,3,0,4528,00:34:30.343422
592,RAW_IMU,2070443414,125.0,42,-1,-1008,-5,8,0,4480,00:34:30.443414
593,RAW_IMU,2070543361,125.0,42,-2,-1010,-6,3,0,4528,00:34:30.543361
594,RAW_IMU,2070643405,125.0,42,-1,-1008,-5,9,0,4480,00:34:30.643405
595,RAW_IMU,2070743421,125.0,43,-2,-1010,-6,4,0,4528,00:34:30.743421
596,RAW_IMU,2070843373,125.0,42,-2,-1008,-4,8,0,4528,00:34:30.843373
597,RAW_IMU,2070943427,125.0,42,-2,-1010,-4,3,0,4528,00:34:30.943427
598,RAW_IMU,2071043418,125.0,43,-2,-1008,-4,9,0,4480,00:34:31.043418
599,RAW_IMU,2071143359,125.0,42,-3,-1010,-7,3,-1,4528,00:34:31.143359
600,RAW_IMU,2073243403,150.0,42,-2,-1009,0,4,0,4528,00:34:33.243403
601,RAW_IMU,2073343364,150.0,42,-2,-1009,0,2,0,4528,00:34:33.343364
602,RAW_IMU,2073443408,150.0,42,-2,-1009,-1,2,0,4480,00:34:33.443408
603,RAW_IMU,2073543434,150.0,42,-2,-1010,-1,2,0,4480,00:34:33.543434
604,RAW_IMU,2073643371,150.0,43,-2,-1010,-1,2,-1,4528,00:34:33.643371
605,RAW_IMU,2073743411,150.0,42,-2,-1009,-1,4,0,4480,00:34:33.743411
606,RAW_IMU,2073843405,150.0,42,-2,-1010,-1,2,-1,4480,00:34:33.843405
607,RAW_IMU,2073943354,150.0,42,-2,-1010,0,2,0,4528,00:34:33.943354
608,RAW_IMU,2074043406,150.0,42,-2,-1009,0,3,0,4528,00:34:34.043406
609,RAW_IMU,2074143402,150.0,42,-2,-1010,0,2,0,4528,00:34:34.143402
610,RAW_IMU,2076243419,175.0,43,-2,-1008,-6,4,0,4480,00:34:36.243419
611,RAW_IMU,2076343387,175.0,42,-2,-1009,-6,6,0,4480,00:34:36.343387
612,RAW_IMU,2076443418,175.0,42,-2,-1009,-6,5,0,4480,00:34:36.443418
613,RAW_IMU,2076543415,175.0,42,-2,-1009,-4,7,0,4480,00:34:36.543415
614,RAW_IMU,2076643362,175.0,43,-2,-1008,-5,6,0,4480,00:34:36.643362
615,RAW_IMU,2076743433,175.0,42,-2,-1008,-5,8,-1,4480,00:34:36.743433
616,RAW_IMU,2076843410,175.0,43,-1,-1008,-5,5,0,4528,00:34:36.843410
617,RAW_IMU,2076943369,175.0,42,-2,-1009,-5,7,-1,4480,00:34:36.943369
618,RAW_IMU,2077043395,175.0,43,-2,-1008,-5,5,0,4480,00:34:37.043395
619,RAW_IMU,2077143430,175.0,42,-2,-1009,-5,7,0,4528,00:34:37.143430
620,RAW_IMU,2079243403,200.0,43,-2,-1009,-5,8,0,4528,00:34:39.243403
621,RAW_IMU,2079343408,200.0,42,-2,-1009,-5,8,0,4480,00:34:39.343408
622,RAW_IMU,2079443417,200.0,42,-2,-1008,-6,9,0,4480,00:34:39.443417
623,RAW_IMU,2079543427,200.0,43,-2,-1009,-7,9,0,4528,00:34:39.543427
624,RAW_IMU,2079643365,200.0,43,-2,-1009,-6,9,0,4480,00:34:39.643365
625,RAW_IMU,2079743406,200.0,42,-2,-1009,-5,9,0,4528,00:34:39.743406
626,RAW_IMU,2079843420,200.0,43,-2,-1009,-6,9,-1,4480,00:34:39.843420
627,RAW_IMU,2079943363,200.0,42,-2,-1009,-5,7,-1,4480,00:34:39.943363
628,RAW_IMU,2080043434,200.0,42,-2,-1008,-7,9,0,4528,00:34:40.043434
629,RAW_IMU,2080143423,200.0,43,-2,-1009,-6,9,0,4528,00:34:40.143423
630,RAW_IMU,2082243356,225.0,42,-2,-1010,-4,4,-1,4528,00:34:42.243356
631,RAW_IMU,2082343395,225.0,42,-1,-1008,-5,8,0,4528,00:34:42.343395
632,RAW_IMU,2082443403,225.0,43,-2,-1009,-4,3,-1,4528,00:34:42.443403
633,RAW_IMU,2082543411,225.0,43,-2,-1008,-5,9,0,4480,00:34:42.543411
634,RAW_IMU,2082643422,225.0,43,-3,-1009,-4,3,-1,4528,00:34:42.643422
635,RAW_IMU,2082743406,225.0,42,-1,-1009,-6,9,0,4480,00:34:42.743406
636,RAW_IMU,2082843353,225.0,43,-2,-1010,-4,4,-1,4528,00:34:42.843353
637,RAW_IMU,2082943409,225.0,43,-2,-1008,-6,9,0,4480,00:34:42.943409
638,RAW_IMU,2083043415,225.0,42,-2,-1009,-5,3,-1,4528,00:34:43.043415
639,RAW_IMU,2083143386,225.0,42,-2,-1008,-5,9,0,4528,00:34:43.143386
640,RAW_IMU,2085243423,250.0,42,-2,-1008,-5,7,0,4480,00:34:45.243423
641,RAW_IMU,2085343403,250.0,42,-2,-1008,-5,6,0,4528,00:34:45.343403
642,RAW_IMU,2085443414,250.0,43,-2,-1009,-5,7,0,4480,00:34:45.443414
643,RAW_IMU,2085543389,250.0,42,-2,-1009,-5,8,0,4480,00:34:45.543389
644,RAW_IMU,2085643415,250.0,42,-2,-1009,-5,7,0,4480,00:34:45.643415
645,RAW_IMU,2085743424,250.0,42,-2,-1009,-5,8,0,4528,00:34:45.743424
646,RAW_IMU,2085843366,250.0,42,-2,-1009,-5,8,0,4528,00:34:45.843366
647,RAW_IMU,2085943410,250.0,42,-2,-1008,-6,8,0,4528,00:34:45.943410
648,RAW_IMU,2086043421,250.0,42,-2,-1008,-5,7,0,4480,00:34:46.043421
649,RAW_IMU,2086143396,250.0,42,-2,-1008,-5,6,0,4528,00:34:46.143396
650,RAW_IMU,2088243409,0.0,43,-2,-1010,-5,5,0,4480,00:34:48.243409
651,RAW_IMU,2088343386,0.0,43,-2,-1009,-5,6,0,4528,00:34:48.343386
652,RAW_IMU,2088443411,0.0,43,-2,-1009,-5,6,0,4480,00:34:48.443411
653,RAW_IMU,2088543406,0.0,42,-2,-1009,-5,6,0,4528,00:34:48.543406
654,RAW_IMU,2088643370,0.0,42,-2,-1008,-5,6,0,4480,00:34:48.643370
655,RAW_IMU,2088743419,0.0,43,-2,-1008,-5,6,0,4480,00:34:48.743419
656,RAW_IMU,2088843412,0.0,43,-2,-1009,-5,6,0,4528,00:34:48.843412
657,RAW_IMU,2088943401,0.0,43,-2,-1009,-5,6,0,4528,00:34:48.943401
658,RAW_IMU,2089043388,0.0,43,-2,-1009,-6,6,0,4528,00:34:49.043388
659,RAW_IMU,2089143423,0.0,42,-1,-1009,-5,6,0,4528,00:34:49.143423
660,RAW_IMU,2091243407,25.0,42,-1,-1008,-4,5,0,4528,00:34:51.243407
661,RAW_IMU,2091343387,25.0,42,-2,-1009,-8,18,0,4480,00:34:51.343387
662,RAW_IMU,2091443393,25.0,43,-2,-1008,-1,-6,0,4480,00:34:51.443393
663,RAW_IMU,2091543438,25.0,42,-1,-1009,-8,19,0,4528,00:34:51.543438
664,RAW_IMU,2091643415,25.0,43,-1,-1008,-2,-6,0,4480,00:34:51.643415
665,RAW_IMU,2091743371,25.0,42,-2,-1009,-10,21,-1,4528,00:34:51.743371
666,RAW_IMU,2091843417,25.0,43,-1,-1008,-1,-6,0,4528,00:34:51.843417
667,RAW_IMU,2091943431,25.0,43,-2,-1010,-10,21,0,4528,00:34:51.943431
668,RAW_IMU,2092043424,25.0,43,-2,-1009,-3,-3,0,4528,00:34:52.043424
669,RAW_IMU,2092143407,25.0,42,-2,-1009,-8,18,0,4480,00:34:52.143407
670,RAW_IMU,2094243416,50.0,43,-1,-1009,0,-8,0,4528,00:34:54.243416
671,RAW_IMU,2094343405,50.0,42,-2,-1010,-7,13,0,4528,00:34:54.343405
672,RAW_IMU,2094443364,50.0,41,-1,-1010,-6,10,0,4480,00:34:54.443364
673,RAW_IMU,2094543407,50.0,42,-2,-1011,-7,12,-1,4480,00:34:54.543407
674,RAW_IMU,2094643421,50.0,41,-2,-1010,-7,12,0,4528,00:34:54.643421
675,RAW_IMU,2094743373,50.0,42,-1,-1010,-7,13,0,4528,00:34:54.743373
676,RAW_IMU,2094843406,50.0,41,-2,-1011,-7,13,-1,4528,00:34:54.843406
677,RAW_IMU,2094943407,50.0,42,-1,-1012,-8,13,0,4528,00:34:54.943407
678,RAW_IMU,2095043407,50.0,41,-2,-1011,-8,13,-1,4480,00:34:55.043407
679,RAW_IMU,2095143432,50.0,41,-2,-1011,-8,13,-1,4480,00:34:55.143432
680,RAW_IMU,2097243386,75.0,42,-1,-1011,-10,12,-2,4480,00:34:57.243386
681,RAW_IMU,2097343438,75.0,42,-2,-1010,-10,25,0,4528,00:34:57.343438
682,RAW_IMU,2097443414,75.0,43,-2,-1008,-1,-12,0,4480,00:34:57.443414
683,RAW_IMU,2097543406,75.0,42,-2,-1010,-13,27,0,4480,00:34:57.543406
684,RAW_IMU,2097643428,75.0,43,-2,-1009,-2,-12,0,4480,00:34:57.643428
685,RAW_IMU,2097743417,75.0,42,-2,-1009,-9,25,0,4480,00:34:57.743417
686,RAW_IMU,2097843372,75.0,43,-2,-1008,0,-13,1,4528,00:34:57.843372
687,RAW_IMU,2097943411,75.0,42,-2,-1009,-10,27,0,4480,00:34:57.943411
688,RAW_IMU,2098043416,75.0,43,-1,-1008,0,-13,0,4528,00:34:58.043416
689,RAW_IMU,2098143353,75.0,43,-2,-1010,-11,27,-2,4528,00:34:58.143353
690,RAW_IMU,2100243380,100.0,43,-1,-1007,0,-9,0,4480,00:35:00.243380
691,RAW_IMU,2100343417,100.0,42,-2,-1008,-9,14,0,4480,00:35:00.343417
692,RAW_IMU,2100443412,100.0,42,-2,-1008,-6,11,0,4528,00:35:00.443412
693,RAW_IMU,2100543479,100.0,42,-2,-1008,-7,11,0,4480,00:35:00.543479
694,RAW_IMU,2100643403,100.0,43,-2,-1008,-6,10,0,4528,00:35:00.643403
695,RAW_IMU,2100743403,100.0,42,-2,-1008,-6,11,0,4528,00:35:00.743403
696,RAW_IMU,2100843348,100.0,42,-2,-1008,-6,11,0,4528,00:35:00.843348
697,RAW_IMU,2100943383,100.0,42,-2,-1008,-6,12,-1,4480,00:35:00.943383
698,RAW_IMU,2101043417,100.0,42,-2,-1008,-7,11,0,4480,00:35:01.043417
699,RAW_IMU,2101143420,100.0,42,-2,-1008,-6,10,0,4528,00:35:01.143420
700,RAW_IMU,2103243410,125.0,42,-2,-1008,-1,7,0,4480,00:35:03.243410
701,RAW_IMU,2103343359,125.0,43,-2,-1009,-9,6,0,4480,00:35:03.343359
702,RAW_IMU,2103443421,125.0,42,-2,-1009,-1,5,0,4480,00:35:03.443421
703,RAW_IMU,2103543401,125.0,43,-1,-1009,-9,6,0,4528,00:35:03.543401
704,RAW_IMU,2103643425,125.0,42,-2,-1009,-2,5,0,4480,00:35:03.643425
705,RAW_IMU,2103743372,125.0,43,-2,-1009,-9,7,0,4528,00:35:03.743372
706,RAW_IMU,2103843421,125.0,42,-1,-1008,-1,5,0,4528,00:35:03.843421
707,RAW_IMU,2103943424,125.0,43,-2,-1008,-9,6,-1,4480,00:35:03.943424
708,RAW_IMU,2104043370,125.0,42,-2,-1009,0,4,0,4480,00:35:04.043370
709,RAW_IMU,2104143446,125.0,43,-2,-1009,-9,6,0,4480,00:35:04.143446
710,RAW_IMU,2106243416,150.0,42,-2,-1009,-6,4,0,4480,00:35:06.243416
711,RAW_IMU,2106343427,150.0,43,-2,-1010,-6,5,0,4528,00:35:06.343427
712,RAW_IMU,2106443372,150.0,42,-1,-1009,-7,7,0,4480,00:35:06.443372
713,RAW_IMU,2106543416,150.0,43,-2,-1009,-4,3,0,4528,00:35:06.543416
714,RAW_IMU,2106643437,150.0,43,-2,-1009,-6,4,0,4480,00:35:06.643437
715,RAW_IMU,2106743370,150.0,42,-1,-1009,-4,3,0,4480,00:35:06.743370
716,RAW_IMU,2106843423,150.0,42,-2,-1010,-5,4,0,4528,00:35:06.843423
717,RAW_IMU,2106943414,150.0,43,-2,-1009,-7,5,0,4528,00:35:06.943414
718,RAW_IMU,2107043365,150.0,43,-2,-1009,-7,6,0,4528,00:35:07.043365
719,RAW_IMU,2107143416,150.0,42,-2,-1009,-4,4,0,4480,00:35:07.143416
720,RAW_IMU,2109243413,175.0,42,-1,-1008,-6,9,0,4480,00:35:09.243413
721,RAW_IMU,2109343374,175.0,42,-2,-1009,-4,3,0,4480,00:35:09.343374
722,RAW_IMU,2109443456,175.0,43,-2,-1008,-6,10,1,4480,00:35:09.443456
723,RAW_IMU,2109543423,175.0,43,-2,-1010,-3,2,-1,4480,00:35:09.543423
724,RAW_IMU,2109643420,175.0,42,-2,-1008,-6,9,0,4528,00:35:09.643420
725,RAW_IMU,2109743365,175.0,42,-2,-1009,-5,3,-1,4528,00:35:09.743365
726,RAW_IMU,2109843423,175.0,42,-2,-1009,-6,10,-1,4528,00:35:09.843423
727,RAW_IMU,2109943422,175.0,43,-2,-1010,-4,2,-1,4480,00:35:09.943422
728,RAW_IMU,2110043353,175.0,42,-1,-1008,-6,9,0,4528,00:35:10.043353
729,RAW_IMU,2110143422,175.0,42,-2,-1010,-4,2,0,4480,00:35:10.143422
730,RAW_IMU,2112243392,200.0,43,-2,-1010,-3,3,0,4528,00:35:12.243392
731,RAW_IMU,2112343418,200.0,43,-2,-1010,-4,3,-1,4528,00:35:12.343418
732,RAW_IMU,2112443421,200.0,43,-2,-1010,-4,2,-1,4528,00:35:12.443421
733,RAW_IMU,2112543360,200.0,43,-2,-1009,-4,3,0,4480,00:35:12.543360
734,RAW_IMU,2112643451,200.0,42,-2,-1010,-4,4,0,4528,00:35:12.643451
735,RAW_IMU,2112743408,200.0,42,-2,-1009,-4,3,-1,4528,00:35:12.743408
736,RAW_IMU,2112843353,200.0,43,-2,-1009,-3,3,-1,4480,00:35:12.843353
737,RAW_IMU,2112943433,200.0,43,-1,-1009,-4,3,0,4480,00:35:12.943433
738,RAW_IMU,2113043420,200.0,43,-2,-1010,-4,3,0,4528,00:35:13.043420
739,RAW_IMU,2113143403,200.0,42,-2,-1009,-4,3,0,4528,00:35:13.143403
740,RAW_IMU,2115243351,225.0,43,-2,-1009,-5,8,1,4528,00:35:15.243351
741,RAW_IMU,2115343425,225.0,42,-2,-1010,-5,5,-1,4528,00:35:15.343425
742,RAW_IMU,2115443417,225.0,43,-2,-1008,-6,7,1,4528,00:35:15.443417
743,RAW_IMU,2115543396,225.0,42,-2,-1010,-4,4,-1,4528,00:35:15.543396
744,RAW_IMU,2115643429,225.0,42,-2,-1009,-5,7,0,4528,00:35:15.643429
745,RAW_IMU,2115743413,225.0,42,-2,-1010,-4,4,0,4480,00:35:15.743413
746,RAW_IMU,2115843397,225.0,41,-2,-1009,-5,7,1,4528,00:35:15.843397
747,RAW_IMU,2115943418,225.0,42,-2,-1010,-5,3,-1,4480,00:35:15.943418
748,RAW_IMU,2116043425,225.0,42,-2,-1008,-6,9,0,4480,00:35:16.043425
749,RAW_IMU,2116143356,225.0,42,-2,-1010,-4,3,-1,4528,00:35:16.143356
750,RAW_IMU,2118243384,250.0,43,-1,-1009,-4,5,0,4528,00:35:18.243384
751,RAW_IMU,2118343395,250.0,43,-2,-1010,-5,4,0,4480,00:35:18.343395
752,RAW_IMU,2118443417,250.0,43,-1,-1010,-4,5,0,4528,00:35:18.443417
753,RAW_IMU,2118543435,250.0,43,-2,-1010,-6,4,0,4528,00:35:18.543435
754,RAW_IMU,2118643393,250.0,43,-2,-1009,-4,4,0,4480,00:35:18.643393
755,RAW_IMU,2118743416,250.0,43,-1,-1009,-5,4,-1,4480,00:35:18.743416
756,RAW_IMU,2118843414,250.0,43,-2,-1010,-5,5,0,4480,00:35:18.843414
757,RAW_IMU,2118943377,250.0,43,-1,-1009,-5,4,-1,4528,00:35:18.943377
758,RAW_IMU,2119043407,250.0,43,-2,-1010,-5,4,0,4528,00:35:19.043407
759,RAW_IMU,2119143402,250.0,42,-1,-1010,-5,4,-1,4528,00:35:19.143402
760,RAW_IMU,2121243412,0.0,42,-1,-1009,-5,6,0,4528,00:35:21.243412
761,RAW_IMU,2121343421,0.0,43,-2,-1010,-5,6,0,4528,00:35:21.343421
762,RAW_IMU,2121443405,0.0,42,-1,-1009,-5,5,0,4480,00:35:21.443405
763,RAW_IMU,2121543408,0.0,42,-2,-1010,-5,5,-1,4528,00:35:21.543408
764,RAW_IMU,2121643390,0.0,42,-2,-1009,-5,6,0,4480,00:35:21.643390
765,RAW_IMU,2121743441,0.0,43,-2,-1009,-6,6,0,4480,00:35:21.743441
766,RAW_IMU,2121843402,0.0,43,-2,-1010,-6,7,0,4528,00:35:21.843402
767,RAW_IMU,2121943392,0.0,42,-1,-1009,-5,6,0,4528,00:35:21.943392
768,RAW_IMU,2122043408,0.0,42,-1,-1009,-6,6,0,4528,00:35:22.043408
769,RAW_IMU,2122143434,0.0,42,-2,-1009,-5,5,0,4480,00:35:22.143434
770,RAW_IMU,2124243363,25.0,42,-2,-1009,-5,6,-1,4528,00:35:24.243363
771,RAW_IMU,2124343420,25.0,44,-2,-1010,-11,17,-2,4528,00:35:24.343420
772,RAW_IMU,2124443402,25.0,42,-1,-1008,3,-7,1,4480,00:35:24.443402
773,RAW_IMU,2124543383,25.0,43,-3,-1010,-14,21,-1,4528,00:35:24.543383
774,RAW_IMU,2124643431,25.0,41,-1,-1008,3,-9,0,4528,00:35:24.643431
775,RAW_IMU,2124743410,25.0,43,-2,-1011,-15,21,-2,4528,00:35:24.743410
776,RAW_IMU,2124843419,25.0,42,-1,-1008,2,-9,1,4480,00:35:24.843419
777,RAW_IMU,2124943418,25.0,43,-2,-1010,-14,22,0,4528,00:35:24.943418
778,RAW_IMU,2125043415,25.0,42,-2,-1008,4,-8,1,4528,00:35:25.043415
779,RAW_IMU,2125143363,25.0,43,-2,-1010,-14,22,-1,4528,00:35:25.143363
780,RAW_IMU,2127243363,50.0,42,-1,-1008,0,-7,0,4528,00:35:27.243363
781,RAW_IMU,2127343411,50.0,41,-2,-1010,-12,15,0,4480,00:35:27.343411
782,RAW_IMU,2127443414,50.0,42,-1,-1009,-8,9,0,4528,00:35:27.443414
783,RAW_IMU,2127543412,50.0,42,-1,-1008,-9,9,0,4480,00:35:27.543412
784,RAW_IMU,2127643439,50.0,42,-1,-1009,-8,9,0,4480,00:35:27.643439
785,RAW_IMU,2127743418,50.0,42,-1,-1009,-9,10,0,4480,00:35:27.743418
786,RAW_IMU,2127843376,50.0,41,-1,-1009,-9,10,0,4480,00:35:27.843376
787,RAW_IMU,2127943440,50.0,42,-1,-1009,-10,10,0,4528,00:35:27.943440
788,RAW_IMU,2128043412,50.0,42,-1,-1009,-9,9,0,4480,00:35:28.043412
789,RAW_IMU,2128143388,50.0,42,-1,-1009,-10,11,0,4528,00:35:28.143388
790,RAW_IMU,2130243444,75.0,41,-1,-1008,-7,11,0,4480,00:35:30.243444
791,RAW_IMU,2130343387,75.0,43,-2,-1010,-12,16,-2,4480,00:35:30.343387
792,RAW_IMU,2130443419,75.0,42,-1,-1007,3,-9,1,4528,00:35:30.443419
793,RAW_IMU,2130543418,75.0,43,-3,-1011,-15,23,-1,4480,00:35:30.543418
794,RAW_IMU,2130643395,75.0,42,-1,-1007,4,-10,1,4528,00:35:30.643395
795,RAW_IMU,2130743407,75.0,43,-3,-1011,-15,22,-1,4480,00:35:30.743407
796,RAW_IMU,2130843403,75.0,42,-1,-1007,4,-9,1,4528,00:35:30.843403
797,RAW_IMU,2130943373,75.0,43,-3,-1011,-14,23,-2,4480,00:35:30.943373
798,RAW_IMU,2131043443,75.0,43,-1,-1007,4,-11,1,4480,00:35:31.043443
799,RAW_IMU,2131143422,75.0,43,-3,-1011,-15,23,-2,4480,00:35:31.143422
800,RAW_IMU,2133243426,100.0,41,-1,-1006,10,-9,0,4480,00:35:33.243426
801,RAW_IMU,2133343469,100.0,42,-2,-1009,-5,10,-1,4528,00:35:33.343469
802,RAW_IMU,2133443409,100.0,42,-2,-1008,-2,8,0,4480,00:35:33.443409
803,RAW_IMU,2133543446,100.0,43,-2,-1008,-2,8,0,4480,00:35:33.543446
804,RAW_IMU,2133643410,100.0,43,-1,-1009,-3,8,0,4528,00:35:33.643410
805,RAW_IMU,2133743410,100.0,43,-2,-1009,-2,8,0,4528,00:35:33.743410
806,RAW_IMU,2133843425,100.0,42,-1,-1008,-2,7,-1,4528,00:35:33.843425
807,RAW_IMU,2133943417,100.0,42,-2,-1009,-2,8,0,4528,00:35:33.943417
808,RAW_IMU,2134043419,100.0,42,-1,-1008,-3,8,0,4480,00:35:34.043419
809,RAW_IMU,2134143427,100.0,43,-1,-1009,-2,8,-1,4528,00:35:34.143427
810,RAW_IMU,2136243404,125.0,43,-3,-1010,-5,5,-1,4528,00:35:36.243404
811,RAW_IMU,2136343392,125.0,43,-2,-1008,-7,9,0,4480,00:35:36.343392
812,RAW_IMU,2136443430,125.0,43,-2,-1011,-5,4,-1,4480,00:35:36.443430
813,RAW_IMU,2136543427,125.0,43,-1,-1008,-5,9,0,4480,00:35:36.543427
814,RAW_IMU,2136643413,125.0,43,-2,-1010,-6,2,-1,4528,00:35:36.643413
815,RAW_IMU,2136743430,125.0,42,-2,-1008,-6,8,0,4480,00:35:36.743430
816,RAW_IMU,2136843413,125.0,43,-2,-1010,-5,3,0,4480,00:35:36.843413
817,RAW_IMU,2136943396,125.0,43,-1,-1007,-5,10,0,4480,00:35:36.943396
818,RAW_IMU,2137043412,125.0,43,-3,-1010,-5,2,0,4528,00:35:37.043412
819,RAW_IMU,2137143408,125.0,42,-1,-1008,-4,9,0,4528,00:35:37.143408
820,RAW_IMU,2139243402,150.0,42,-2,-1009,-7,10,0,4528,00:35:39.243402
821,RAW_IMU,2139343425,150.0,43,-1,-1008,-9,10,0,4480,00:35:39.343425
822,RAW_IMU,2139443416,150.0,43,-2,-1008,-9,10,0,4528,00:35:39.443416
823,RAW_IMU,2139543390,150.0,43,-2,-1008,-9,10,0,4528,00:35:39.543390
824,RAW_IMU,2139643414,150.0,43,-1,-1008,-9,9,0,4480,00:35:39.643414
825,RAW_IMU,2139743421,150.0,43,-2,-1008,-8,10,0,4480,00:35:39.743421
826,RAW_IMU,2139843370,150.0,43,-2,-1009,-8,10,0,4480,00:35:39.843370
827,RAW_IMU,2139943405,150.0,43,-2,-1008,-9,9,0,4528,00:35:39.943405
828,RAW_IMU,2140043416,150.0,43,-2,-1009,-8,10,0,4528,00:35:40.043416
829,RAW_IMU,2140143390,150.0,43,-1,-1008,-8,10,0,4480,00:35:40.143390
830,RAW_IMU,2142243453,175.0,43,-2,-1009,-4,6,-1,4480,00:35:42.243453
831,RAW_IMU,2142343422,175.0,43,-1,-1009,-6,8,0,4480,00:35:42.343422
832,RAW_IMU,2142443418,175.0,42,-2,-1010,-4,3,0,4480,00:35:42.443418
833,RAW_IMU,2142543390,175.0,42,-2,-1008,-7,8,0,4480,00:35:42.543390
834,RAW_IMU,2142643429,175.0,42,-2,-1010,-4,3,0,4480,00:35:42.643429
835,RAW_IMU,2142743373,175.0,43,-2,-1009,-6,8,0,4528,00:35:42.743373
836,RAW_IMU,2142843426,175.0,43,-2,-1010,-3,3,-1,4528,00:35:42.843426
837,RAW_IMU,2142943405,175.0,42,-1,-1008,-7,8,0,4528,00:35:42.943405
838,RAW_IMU,2143043416,175.0,42,-2,-1010,-3,3,0,4528,00:35:43.043416
839,RAW_IMU,2143143359,175.0,42,-1,-1008,-7,9,0,4480,00:35:43.143359
840,RAW_IMU,2145243361,200.0,43,-1,-1008,-6,8,0,4480,00:35:45.243361
841,RAW_IMU,2145343413,200.0,43,-1,-1008,-5,7,1,4528,00:35:45.343413
842,RAW_IMU,2145443414,200.0,43,-1,-1008,-6,9,0,4480,00:35:45.443414
843,RAW_IMU,2145543412,200.0,43,-1,-1008,-6,9,0,4528,00:35:45.543412
844,RAW_IMU,2145643424,200.0,43,-2,-1008,-5,7,0,4480,00:35:45.643424
845,RAW_IMU,2145743416,200.0,43,-2,-1008,-6,8,0,4528,00:35:45.743416
846,RAW_IMU,2145843369,200.0,43,-2,-1008,-6,9,1,4480,00:35:45.843369
847,RAW_IMU,2145943429,200.0,42,-2,-1008,-6,7,0,4528,00:35:45.943429
848,RAW_IMU,2146043415,200.0,43,-2,-1008,-7,9,0,4480,00:35:46.043415
849,RAW_IMU,2146143387,200.0,43,-2,-1008,-6,8,0,4480,00:35:46.143387
850,RAW_IMU,2148243396,225.0,43,-2,-1010,-4,4,0,4528,00:35:48.243396
851,RAW_IMU,2148343390,225.0,42,-2,-1008,-5,8,1,4528,00:35:48.343390
852,RAW_IMU,2148443411,225.0,42,-2,-1010,-5,6,0,4480,00:35:48.443411
853,RAW_IMU,2148543415,225.0,42,-2,-1008,-6,8,1,4480,00:35:48.543415
854,RAW_IMU,2148643393,225.0,43,-2,-1010,-4,4,-1,4480,00:35:48.643393
855,RAW_IMU,2148743438,225.0,42,-2,-1008,-5,7,0,4528,00:35:48.743438
856,RAW_IMU,2148843418,225.0,42,-2,-1010,-5,3,0,4528,00:35:48.843418
857,RAW_IMU,2148943368,225.0,42,-2,-1008,-6,8,0,4528,00:35:48.943368
858,RAW_IMU,2149043422,225.0,43,-2,-1010,-5,5,0,4480,00:35:49.043422
859,RAW_IMU,2149143437,225.0,42,-1,-1008,-6,8,0,4528,00:35:49.143437
860,RAW_IMU,2151243411,250.0,43,-2,-1008,-6,6,0,4528,00:35:51.243411
861,RAW_IMU,2151343359,250.0,42,-2,-1008,-5,7,0,4528,00:35:51.343359
862,RAW_IMU,2151443405,250.0,43,-2,-1008,-5,7,0,4528,00:35:51.443405
863,RAW_IMU,2151543409,250.0,42,-2,-1009,-5,7,0,4528,00:35:51.543409
864,RAW_IMU,2151643374,250.0,43,-2,-1008,-5,7,0,4480,00:35:51.643374
865,RAW_IMU,2151743417,250.0,42,-2,-1008,-5,7,0,4528,00:35:51.743417
866,RAW_IMU,2151843417,250.0,42,-2,-1009,-6,6,0,4480,00:35:51.843417
867,RAW_IMU,2151943362,250.0,42,-2,-1008,-5,8,0,4528,00:35:51.943362
868,RAW_IMU,2152043426,250.0,42,-2,-1009,-5,6,0,4480,00:35:52.043426
869,RAW_IMU,2152143406,250.0,42,-2,-1009,-5,8,1,4480,00:35:52.143406
870,RAW_IMU,2154243418,0.0,43,-2,-1009,-4,6,0,4480,00:35:54.243418
